timestamp,dt,pos_x,pos_y,pos_z,vel_x,vel_y,vel_z,roll,pitch,yaw,agv_x,agv_y,agv_z,x_ref,y_ref,z_ref,roll_ref,pitch_ref,yaw_ref,x_vel_ref,y_vel_ref,z_vel_ref,x_torque,y_torque,z_torque,w0,w1,w2,w3,u0,u1,u2,u3,m0req,m1req,m2req,m3req,thrust0,thrust1,thrust2,thrust3,thrust_ref,roll_vicon,pitch_vicon,yaw_vicon,acc_x,acc_y,acc_z
5,5,0.0,0.0,0.0,-0.001804595929570496,-0.00104880693834275,-0.005514869932085276,-0.06374455243349075,-0.18588794767856598,-0.005342242773622274,-0.000286192080238834,-0.0028757823165506124,-0.002666664542630315,0.0,0.0,0.0,0.00128835195209831,-0.0017052025068551302,-0.0,0.0,0.0,0.0,0.013008595444262028,0.03680704906582832,-0.000582945765927434,1495.0,1495.0,1495.0,1495.0,0.0,0.0,0.0,0.0,0.0,0.0,0.0,0.0,1495.0,1495.0,1495.0,1495.0,1.6469634771347046,-0.02031747229013552,0.19604815785175378,-0.12685140145517856,0.006767234764993191,0.003933025989681482,0.0
32,27,0.0,0.0,0.0,0.0009320491808466613,-0.0002672468253877014,-0.0013140109367668629,-0.06374455243349075,-0.18588794767856598,-0.005342242773622274,-0.000286192080238834,-0.0028757823165506124,-0.002666664542630315,0.0,0.0,0.0,0.00128835195209831,-0.0017052025068551302,-0.0,0.0,0.0,0.0,0.013008595444262028,0.03680704906582832,-0.000582945765927434,1495.0,1495.0,1495.0,1495.0,0.0,0.0,0.0,0.0,0.0,0.0,0.0,0.0,1495.0,1495.0,1495.0,1495.0,1.6469634771347046,-0.020022136190680228,0.1962741154109227,-0.12689564323620686,0.006767234764993191,0.003933025989681482,0.0
37,5,0.0,0.0,0.0,0.001308316015638411,0.0014105874579399824,-0.0025440058670938015,-0.06374899297952652,-0.18588809669017792,-0.005332880187779665,0.0014185267500579357,0.0012998636811971664,0.004030949901789427,0.0,0.0,0.0,0.000330563256284222,0.0008868242148309946,-0.0,0.0,0.0,0.0,0.01300336979329586,0.036859046667814255,-0.00045185675844550133,1495.0,1495.0,1495.0,1495.0,0.0,0.0,0.0,0.0,0.0,0.0,0.0,0.0,1495.0,1495.0,1495.0,1495.0,1.6356136798858643,-0.019745727700747485,0.19655428473488923,-0.1270843347212896,-0.0034951844718307257,0.001002175617031753,0.0
42,5,0.0,0.0,0.0,0.0008655291167087853,0.003067757235839963,0.0039448305033147335,-0.06374899297952652,-0.18588809669017792,-0.005332880187779665,0.0014185267500579357,0.0012998636811971664,0.004030949901789427,0.0,0.0,0.0,0.000330563256284222,0.0008868242148309946,-0.0,0.0,0.0,0.0,0.01300336979329586,0.036859046667814255,-0.00045185675844550133,1495.0,1495.0,1495.0,1495.0,0.0,0.0,0.0,0.0,0.0,0.0,0.0,0.0,1495.0,1495.0,1495.0,1495.0,1.6356136798858643,-0.020059504510348863,0.19699008365619003,-0.12751518459921884,-0.0034951844718307257,0.001002175617031753,0.0
47,5,0.0,0.0,0.0,0.0007318637217395008,-0.0012710250448435545,-0.0020454099867492914,-0.06374899297952652,-0.18588809669017792,-0.005332880187779665,0.0014185267500579357,0.0012998636811971664,0.004030949901789427,0.0,0.0,0.0,0.000330563256284222,0.0008868242148309946,-0.0,0.0,0.0,0.0,0.01300336979329586,0.036859046667814255,-0.00045185675844550133,1495.0,1495.0,1495.0,1495.0,0.0,0.0,0.0,0.0,0.0,0.0,0.0,0.0,1495.0,1495.0,1495.0,1495.0,1.6356136798858643,-0.0204288521671803,0.19631487171627957,-0.1269407047144201,-0.0034951844718307257,0.001002175617031753,0.0
52,5,-2.739756200753618e-05,2.3244621843332425e-05,3.794452641159296e-05,-0.0029949620366096497,-0.0032977645751088858,-0.005371507257223129,-0.06374899297952652,-0.18588809669017792,-0.005332880187779665,0.0014185267500579357,0.0012998636811971664,0.004030949901789427,0.0,0.0,0.0,0.0015673177549615502,0.0006942086620256305,-0.0,0.0,0.0,0.0,0.01300336979329586,0.036859046667814255,-0.00045185675844550133,1495.0,1495.0,1495.0,1495.0,0.0,0.0,0.0,0.0,0.0,0.0,0.0,0.0,1495.0,1495.0,1495.0,1495.0,1.6406657695770264,-0.01918713208541697,0.1964453818000381,-0.1267511428381809,-0.0027444888837635517,0.004766344092786312,0.0
57,5,-3.134646249236539e-05,-5.625662652164465e-06,1.5606123270117678e-05,-0.0016718527767807245,0.002145328326150775,0.0005320055643096566,-0.06373162567615509,-0.18585562705993652,-0.005333627574145794,0.0030059630516916513,0.0011052244808524847,0.0030366319697350264,0.0,0.0,0.0,0.0015673177549615502,0.0006942086620256305,-0.0,0.0,0.0,0.0,0.01297941617667675,0.036828767508268356,-0.0005717326421290636,15039.0,9634.0,11368.0,16821.0,0.5108799338340759,0.19668564200401306,0.28149622678756714,0.6465519070625305,0.0,0.0,0.0,0.0,15086.0,9550.0,11432.0,16782.0,1.6406657695770264,-0.01964888219577216,0.19664201395384653,-0.12709412211425458,-0.0027444888837635517,0.004766344092786312,0.0
63,5,-1.7924987332662567e-05,-4.286753210180905e-06,-1.5151760635490064e-05,0.0009418358677066863,0.0006974621210247278,0.003903748467564583,-0.06373162567615509,-0.18585562705993652,-0.005333627574145794,0.0030059630516916513,0.0011052244808524847,0.0030366319697350264,0.0,0.0,0.0,-0.0026346382219344378,-0.0016166033456102014,-0.0,0.0,0.0,0.0,0.01297941617667675,0.036828767508268356,-0.0005717326421290636,15039.0,9634.0,11368.0,16821.0,0.5108799338340759,0.19668564200401306,0.28149622678756714,0.6465519070625305,0.0,0.0,0.0,0.0,15086.0,9550.0,11432.0,16782.0,1.6537299156188965,-0.020160527437414335,0.19661715737765256,-0.12703005759306374,0.006441963370889425,-0.008075942285358906,-0.0
68,5,-3.7976755265844986e-05,8.7519192675245e-06,9.171758392767515e-06,-0.0020294776186347008,-0.0012856557732447982,-0.0013573230244219303,-0.06372345238924026,-0.18588203191757202,-0.005298932082951069,-0.0023646510671824217,-8.455290662823245e-05,-0.0009963769698515534,0.0,0.0,0.0,0.0015914513496682048,-0.001965923700481653,-0.0,0.0,0.0,0.0,0.013113848865032196,0.03743669018149376,-0.0005786878173239529,15029.0,9641.0,11354.0,16835.0,0.5101612210273743,0.19699087738990784,0.2807510495185852,0.6477105021476746,0.0,0.0,0.0,0.0,15035.0,9633.0,11362.0,16829.0,1.6507067680358887,-0.01961539995916924,0.19659658879713832,-0.12675438308058268,0.007819656282663345,0.004869355820119381,0.0
74,6,-1.0870082405745052e-05,2.594541911093984e-06,-2.0262794350855984e-05,0.002441009506583214,0.0002246229414595291,0.002989217173308134,-0.06372345238924026,-0.18588203191757202,-0.005298932082951069,-0.0023646510671824217,-8.455290662823245e-05,-0.0009963769698515534,0.0,0.0,0.0,0.0015914513496682048,-0.001965923700481653,-0.0,0.0,0.0,0.0,0.013113848865032196,0.03743669018149376,-0.0005786878173239529,15029.0,9641.0,11354.0,16835.0,0.5101612210273743,0.19699087738990784,0.2807510495185852,0.6477105021476746,0.0,0.0,0.0,0.0,15035.0,9633.0,11362.0,16829.0,1.6507067680358887,-0.01959169764238151,0.1966267572465396,-0.12706025453791978,0.007819656282663345,0.004869355820119381,0.0
79,5,-1.953419769051834e-06,1.3620164281746838e-05,-4.1699826397234574e-05,0.002046403242275119,-0.001233225455507636,0.003768130438402295,-0.06372614204883575,-0.18589191138744354,-0.005297829397022724,-0.0056940726935863495,0.008192907087504864,-0.003958207089453936,0.0,0.0,0.0,0.0015914513496682048,-0.001965923700481653,-0.0,0.0,0.0,0.0,0.013090374879539013,0.03739273175597191,-0.0005027015577070415,15126.0,9798.0,11474.0,16805.0,0.5171549916267395,0.20405147969722748,0.28720492124557495,0.6453185677528381,0.0,0.0,0.0,0.0,15018.0,9666.0,11367.0,16885.0,1.6507067680358887,-0.019740267793510118,0.1971022051088353,-0.12729249465253695,0.007819656282663345,0.004869355820119381,0.0
84,5,-2.169679464714136e-05,1.4191967238730285e-05,-2.1017132894485258e-05,-0.0015506435884162784,-0.0005619066068902612,-0.0009746708674356341,-0.06372614204883575,-0.18589191138744354,-0.005297829397022724,-0.0056940726935863495,0.008192907087504864,-0.003958207089453936,0.0,0.0,0.0,0.0015365182189270854,0.0019272456411272287,-0.0,0.0,0.0,0.0,0.013090374879539013,0.03739273175597191,-0.0005027015577070415,15126.0,9798.0,11474.0,16805.0,0.5171549916267395,0.20405147969722748,0.28720492124557495,0.6453185677528381,0.0,0.0,0.0,0.0,15018.0,9666.0,11367.0,16885.0,1.6501054763793945,-0.019294735658906718,0.19655724656972756,-0.1269625294625424,-0.007663019001483917,0.004699565004557371,0.0
89,5,-6.486630809376948e-06,1.4181458027451299e-05,-3.1331794161815196e-05,0.0012049621436744928,-0.0002235015417682007,0.0008478909148834646,-0.06370971351861954,-0.18590189516544342,-0.005315587855875492,0.003884154139086604,-0.0010116168996319175,-0.007011518348008394,0.0,0.0,0.0,0.0015365182189270854,0.0019272456411272287,-0.0,0.0,0.0,0.0,0.01224339660257101,0.037001851946115494,-0.0007310470682568848,14978.0,9842.0,11407.0,16920.0,0.5064900517463684,0.2060411125421524,0.2835882902145386,0.6545873880386353,0.0,0.0,0.0,0.0,15135.0,9785.0,11480.0,16801.0,1.6501054763793945,-0.019320446735104132,0.19678058635018048,-0.12730237806027195,-0.007663019001483917,0.004699565004557371,0.0
94,5,-3.5267756175016984e-05,2.655845855770167e-05,1.1660433301585726e-05,-0.002971749985590577,-0.00157464062795043,-0.004819910973310471,-0.06370971351861954,-0.18590189516544342,-0.005315587855875492,0.003884154139086604,-0.0010116168996319175,-0.007011518348008394,0.0,0.0,0.0,0.0003017470589838922,0.001135605969466269,-0.0,0.0,0.0,0.0,0.01224339660257101,0.037001851946115494,-0.0007310470682568848,14978.0,9842.0,11407.0,16920.0,0.5064900517463684,0.2060411125421524,0.2835882902145386,0.6545873880386353,0.0,0.0,0.0,0.0,15135.0,9785.0,11480.0,16801.0,1.6381598711013794,-0.017810988190599737,0.1970176551084955,-0.1271340721229645,-0.004482659511268139,0.0009162370697595179,0.0
103,9,-2.5437209842493758e-05,1.562840407132171e-05,2.4260420104837976e-05,0.00010226127778878435,-0.00023347590467892587,-0.002547035226598382,-0.063705675303936,-0.185889333486557,-0.005319712683558464,-0.0007088592974469066,-0.0022168399300426245,-0.0029068829026073217,0.0,0.0,0.0,0.00031859069713391364,6.198112532729283e-05,-0.0,0.0,0.0,0.0,0.013138176873326302,0.03695584833621979,-0.0005446668365038931,15019.0,9767.0,11386.0,16933.0,0.51238614320755,0.19957751035690308,0.28246861696243286,0.6556731462478638,0.0,0.0,0.0,0.0,15057.0,9711.0,11517.0,16850.0,1.6284600496292114,-0.01920093906560449,0.19673103405959494,-0.12695469168783105,-0.00024321392993442714,0.0009616538300178945,0.0
109,5,-2.280427906953264e-05,-9.130305443250109e-06,3.768566239159554e-05,0.00035685623879544437,0.002877654740586877,-0.00262984330765903,-0.063705675303936,-0.185889333486557,-0.005319712683558464,-0.0007088592974469066,-0.0022168399300426245,-0.0029068829026073217,0.0,0.0,0.0,0.00031859069713391364,6.198112532729283e-05,-0.0,0.0,0.0,0.0,0.013138176873326302,0.03695584833621979,-0.0005446668365038931,15019.0,9767.0,11386.0,16933.0,0.51238614320755,0.19957751035690308,0.28246861696243286,0.6556731462478638,0.0,0.0,0.0,0.0,15065.0,9691.0,11386.0,16933.0,1.6284600496292114,-0.02017947967146947,0.19583834664975688,-0.12716978609390717,-0.00024321392993442714,0.0009616538300178945,0.0
114,5,-4.547345088212751e-05,1.0564921467448585e-05,5.258716919342987e-05,-0.002577558159828186,-0.001212365343235433,-0.0028401180170476437,-0.063705675303936,-0.185889333486557,-0.005319712683558464,-0.0007088592974469066,-0.0022168399300426245,-0.0029068829026073217,0.0,0.0,0.0,0.0015007196925580502,-0.0024860776029527187,-0.0,0.0,0.0,0.0,0.013138176873326302,0.03695584833621979,-0.0005446668365038931,15019.0,9767.0,11386.0,16933.0,0.51238614320755,0.19957751035690308,0.28246861696243286,0.6556731462478638,0.0,0.0,0.0,0.0,15065.0,9691.0,11386.0,16933.0,1.6553558111190796,-0.019274804743685647,0.1964502122661332,-0.12676440421200574,0.00991646759212017,0.004604677204042673,0.0
119,5,-3.0399722163565457e-05,2.2204650917956315e-07,6.621496140724048e-06,0.0007778240833431482,0.0007561988895758986,0.004379833582788706,-0.06371227651834488,-0.18591609597206116,-0.005335051100701094,0.002045736415311694,-0.001663300790823996,-0.0001568871084600687,0.0,0.0,0.0,0.0015007196925580502,-0.0024860776029527187,-0.0,0.0,0.0,0.0,0.01312266569584608,0.03780430927872658,-0.0005695634172298014,15080.0,9666.0,11403.0,16922.0,0.5138484835624695,0.1981106400489807,0.283398300409317,0.6547480225563049,0.0,0.0,0.0,0.0,15065.0,9691.0,11386.0,16933.0,1.6553558111190796,-0.018776903136956458,0.19706222256137487,-0.12715728755610875,0.00991646759212017,0.004604677204042673,0.0
124,5,-1.820414217945654e-05,6.413509254343808e-06,-3.744156492757611e-05,0.0006308345473371446,-0.0002794571628328413,0.0047572036273777485,-0.06371227651834488,-0.18591609597206116,-0.005335051100701094,0.002045736415311694,-0.001663300790823996,-0.0001568871084600687,0.0,0.0,0.0,0.0015007196925580502,-0.0024860776029527187,-0.0,0.0,0.0,0.0,0.01312266569584608,0.03780430927872658,-0.0005695634172298014,15080.0,9666.0,11403.0,16922.0,0.5138484835624695,0.1981106400489807,0.283398300409317,0.6547480225563049,0.0,0.0,0.0,0.0,15065.0,9691.0,11386.0,16933.0,1.6553558111190796,-0.019795304501429176,0.19711788259721383,-0.1271286777719256,0.00991646759212017,0.004604677204042673,0.0
129,5,-8.24952803668566e-06,3.125680086668581e-05,-1.873356450232677e-05,0.001446887501515448,-0.0030929779168218374,-0.0003420788561925292,-0.06371227651834488,-0.18591609597206116,-0.005335051100701094,0.002045736415311694,-0.001663300790823996,-0.0001568871084600687,0.0,0.0,0.0,0.00035804303479380906,0.0005757474573329091,-0.0,0.0,0.0,0.0,0.01312266569584608,0.03780430927872658,-0.0005695634172298014,15080.0,9666.0,11403.0,16922.0,0.5138484835624695,0.1981106400489807,0.283398300409317,0.6547480225563049,0.0,0.0,0.0,0.0,15065.0,9691.0,11386.0,16933.0,1.6325613260269165,-0.018889187712536004,0.19669226434379003,-0.1269045344238938,-0.0022649227175861597,0.0010834609856829047,0.0
134,5,-2.3902978796286334e-07,2.465817487973254e-06,-2.203735311923083e-05,0.0015400148695334792,0.002217726781964302,0.00025962307699956,-0.06369960308074951,-0.18587630987167358,-0.005323933437466621,0.0026345737278461456,-0.002012958051636815,0.001987254247069359,0.0,0.0,0.0,0.00035804303479380906,0.0005757474573329091,-0.0,0.0,0.0,0.0,0.012785171158611774,0.037172406911849976,-0.0004486514662858099,15022.0,9581.0,11377.0,16770.0,0.5096949338912964,0.1943150758743286,0.281971275806427,0.6424787044525146,0.0,0.0,0.0,0.0,15005.0,9587.0,11333.0,16811.0,1.6325613260269165,-0.02049723344820682,0.19641468405042023,-0.1272204925124356,-0.0022649227175861597,0.0010834609856829047,0.0
139,5,-2.3902978796286334e-07,2.465817487973254e-06,-2.203735311923083e-05,0.0015400148695334792,0.002217726781964302,0.00025962307699956,-0.06371261179447174,-0.1858767420053482,-0.005326086189597845,-0.004494773223996162,-0.00042488606413826346,-0.0013569279108196497,0.0,0.0,0.0,-0.002709569875150919,0.0014492826303467155,-0.0,0.0,0.0,0.0,0.013062634505331516,0.03673810511827469,-0.0005436431965790689,15034.0,9807.0,11514.0,16876.0,0.5105262398719788,0.20447500050067902,0.28936102986335754,0.6509935259819031,0.0,0.0,0.0,0.0,15043.0,9799.0,11530.0,16862.0,1.6531414985656738,-0.02049723344820682,0.19641468405042023,-0.1272204925124356,-0.0057731554843485355,-0.008302673697471619,0.0
147,8,-8.279780558950733e-06,8.022989277378656e-06,4.25960593020136e-07,-0.000715392641723156,-0.0003451048396527767,-0.00386793096549809,-0.06371261179447174,-0.1858767420053482,-0.005326086189597845,-0.004494773223996162,-0.00042488606413826346,-0.0013569279108196497,0.0,0.0,0.0,-0.002709569875150919,0.0014492826303467155,-0.0,0.0,0.0,0.0,0.013062634505331516,0.03673810511827469,-0.0005436431965790689,15034.0,9807.0,11514.0,16876.0,0.5105262398719788,0.20447500050067902,0.28936102986335754,0.6509935259819031,0.0,0.0,0.0,0.0,15043.0,9799.0,11530.0,16862.0,1.6531414985656738,-0.019855186286686206,0.19600011475040272,-0.1268118593696266,-0.0057731554843485355,-0.008302673697471619,0.0
152,5,-2.6657042326405644e-05,6.3251245592255145e-06,8.667816473462153e-06,-0.002491428516805172,6.570178811671212e-05,-0.002536195097491145,-0.06371261179447174,-0.1858767420053482,-0.005326086189597845,-0.004494773223996162,-0.00042488606413826346,-0.0013569279108196497,0.0,0.0,0.0,-0.002709569875150919,0.0014492826303467155,-0.0,0.0,0.0,0.0,0.013062634505331516,0.03673810511827469,-0.0005436431965790689,15034.0,9807.0,11514.0,16876.0,0.5105262398719788,0.20447500050067902,0.28936102986335754,0.6509935259819031,0.0,0.0,0.0,0.0,15043.0,9799.0,11530.0,16862.0,1.6531414985656738,-0.019386933120275562,0.19663213692305018,-0.12710137415878991,-0.0057731554843485355,-0.008302673697471619,0.0
157,5,-3.819730045506731e-05,7.557069693575613e-06,3.390290657989681e-05,-0.0023814025335013866,-0.0001215527081512846,-0.004042688757181168,-0.0637357085943222,-0.18586814403533936,-0.005342064891010523,-0.0006410204223357141,-0.0045355320908129215,0.0003586367529351264,0.0,0.0,0.0,-6.903781468281522e-05,-0.002384802559390664,-0.0,0.0,0.0,0.0,0.012841290794312954,0.03730001673102379,-0.000577164173591882,15012.0,9633.0,11350.0,16819.0,0.5089190602302551,0.1966385692358017,0.2805436849594116,0.6464600563049316,0.0,0.0,0.0,0.0,15027.0,9606.0,11360.0,16814.0,1.6514642238616943,-0.018992076491290324,0.19647326304909146,-0.12696715233955125,0.009490150026977062,-0.00021133174595888704,0.0
163,5,-2.732285975071136e-05,1.800586687750183e-05,2.56425810221117e-05,0.00035237203701399267,-0.0013024767395108938,-0.0006258362554945052,-0.0637357085943222,-0.18586814403533936,-0.005342064891010523,-0.0006410204223357141,-0.0045355320908129215,0.0003586367529351264,0.0,0.0,0.0,-6.903781468281522e-05,-0.002384802559390664,-0.0,0.0,0.0,0.0,0.012841290794312954,0.03730001673102379,-0.000577164173591882,15012.0,9633.0,11350.0,16819.0,0.5089190602302551,0.1966385692358017,0.2805436849594116,0.6464600563049316,0.0,0.0,0.0,0.0,15027.0,9606.0,11360.0,16814.0,1.6514642238616943,-0.019000268057102903,0.19686392197300262,-0.12652745442599234,0.009490150026977062,-0.00021133174595888704,0.0
168,5,-2.8880645913886838e-05,-3.432730409258511e-06,-4.563964012049837e-06,-4.598549639922567e-05,0.0020516410004347563,0.0033744508400559425,-0.06371551007032394,-0.18586552143096924,-0.005375831853598356,0.00971826259046793,-0.0016239823307842016,-0.011839372105896473,0.0,0.0,0.0,0.0016398037550970912,0.0002962207654491067,-0.0,0.0,0.0,0.0,0.012211590074002743,0.03750619292259216,0.0012490252265706658,15098.0,9847.0,11320.0,16898.0,0.5150878429412842,0.20630145072937012,0.27896732091903687,0.6527848243713379,0.0,0.0,0.0,0.0,14938.0,10098.0,11097.0,17039.0,1.639634370803833,-0.01895330320148239,0.19710909466660118,-0.12738456413530727,-0.0011703447671607137,0.004983644932508469,0.0
173,5,-3.3935695682885125e-05,9.064334562935983e-07,4.0175877074943855e-05,-0.0006250001606531441,0.00029995673685334623,-0.00401900103315711,-0.06371551007032394,-0.18586552143096924,-0.005375831853598356,0.00971826259046793,-0.0016239823307842016,-0.011839372105896473,0.0,0.0,0.0,0.0016398037550970912,0.0002962207654491067,-0.0,0.0,0.0,0.0,0.012211590074002743,0.03750619292259216,0.0012490252265706658,15098.0,9847.0,11320.0,16898.0,0.5150878429412842,0.20630145072937012,0.27896732091903687,0.6527848243713379,0.0,0.0,0.0,0.0,14938.0,10098.0,11097.0,17039.0,1.639634370803833,-0.018096836845996524,0.19688993966930435,-0.12725057816888885,-0.0011703447671607137,0.004983644932508469,0.0
178,5,1.4401226735571981e-06,-6.530968335027865e-07,-6.7230007516627666e-06,0.003995098173618317,0.0003071263199672103,0.004020265303552151,-0.06363295763731003,-0.18582618236541748,-0.005144853610545397,-0.00013874888827558607,-0.002783225616440177,0.05451534688472748,0.0,0.0,0.0,0.0016398037550970912,0.0002962207654491067,-0.0,0.0,0.0,0.0,0.012287300080060959,0.03759544715285301,-0.0020063803531229496,14964.0,9917.0,11381.0,16916.0,0.5055062770843506,0.20949935913085938,0.2821802496910095,0.6542782783508301,0.0,0.0,0.0,0.0,14696.0,10439.0,10755.0,17262.0,1.639634370803833,-0.02075547412256738,0.1964938255516894,-0.12657924025618195,-0.014988644979894161,-0.0011549877235665917,0.0
183,5,-2.4730881705181673e-05,-4.197826910967706e-06,2.2571895897272043e-05,-0.0015424812445417047,0.0005482181441038847,-0.0019072815775871277,-0.06363295763731003,-0.18582618236541748,-0.005144853610545397,-0.00013874888827558607,-0.002783225616440177,0.05451534688472748,0.0,0.0,0.0,-0.0003739280509762466,0.003732765559107065,-0.0,0.0,0.0,0.0,0.012287300080060959,0.03759544715285301,-0.0020063803531229496,14964.0,9917.0,11381.0,16916.0,0.5055062770843506,0.20949935913085938,0.2821802496910095,0.6542782783508301,0.0,0.0,0.0,0.0,14696.0,10439.0,10755.0,17262.0,1.6664059162139893,-0.020158082758888352,0.19629064487439637,-0.12695994342550393,-0.014988644979894161,-0.0011549877235665917,0.0
188,5,-4.8011719627538696e-05,2.5098024707403965e-05,2.7810101528302766e-05,-0.003410693258047104,-0.0032962148543447256,-0.0013914972078055143,-0.0636792927980423,-0.18577280640602112,-0.005122085101902485,0.006199158728122711,0.006514559965580702,-0.15358521044254303,0.0,0.0,0.0,-0.0006826302269473672,-0.0014958579558879137,-0.0,0.0,0.0,0.0,0.012761406600475311,0.03703393414616585,-0.002159069525077939,13992.0,11287.0,9971.0,17750.0,0.43859633803367615,0.2772054374217987,0.21196302771568298,0.7236993908882141,0.0,0.0,0.0,0.0,16304.0,7392.0,13137.0,15614.0,1.642764925956726,-0.018647304340668507,0.19660597989986134,-0.12718066446825063,0.005921304691582918,-0.0020785927772521973,0.0
193,5,-3.5470075090415776e-05,3.3106938644777983e-05,1.0827367987076286e-05,0.00014072023623157293,-0.0022795554250478745,0.0014813290908932686,-0.0636792927980423,-0.18577280640602112,-0.005122085101902485,0.006199158728122711,0.006514559965580702,-0.15358521044254303,0.0,0.0,0.0,-0.0006826302269473672,-0.0014958579558879137,-0.0,0.0,0.0,0.0,0.012761406600475311,0.03703393414616585,-0.002159069525077939,13992.0,11287.0,9971.0,17750.0,0.43859633803367615,0.2772054374217987,0.21196302771568298,0.7236993908882141,0.0,0.0,0.0,0.0,16304.0,7392.0,13137.0,15614.0,1.642764925956726,-0.01901184699874679,0.19665080500617607,-0.12638180075533822,0.005921304691582918,-0.0020785927772521973,0.0
198,5,-3.0011449780431576e-05,4.1649425838841125e-05,2.0893865439575166e-05,0.0007113231113180518,-0.0019369209185242653,-0.0006154479924589396,-0.06356709450483322,-0.18526878952980042,-0.004962113220244646,0.012107569724321365,-0.0374763049185276,0.09558884799480438,0.0,0.0,0.0,0.0028557241894304752,8.340948261320591e-05,-0.0,0.0,0.0,0.0,0.013105659745633602,0.03679449483752251,0.0029610791243612766,16096.0,7634.0,12865.0,15786.0,0.5894246697425842,0.11753609031438828,0.36688199639320374,0.5657916069030762,0.0,0.0,0.0,0.0,14098.0,10971.0,10184.0,17604.0,1.6494258642196655,-0.018434345669044165,0.19677255006984645,-0.12727197362392473,-0.0003315113135613501,0.00873085018247366,-0.0
203,5,-3.608986298786476e-05,3.2761075999587774e-05,7.544217078248039e-05,-0.0004448803956620395,0.0002918339450843632,-0.006791976280510426,-0.06356709450483322,-0.18526878952980042,-0.004962113220244646,0.012107569724321365,-0.0374763049185276,0.09558884799480438,0.0,0.0,0.0,0.0028557241894304752,8.340948261320591e-05,-0.0,0.0,0.0,0.0,0.013105659745633602,0.03679449483752251,0.0029610791243612766,16096.0,7634.0,12865.0,15786.0,0.5894246697425842,0.11753609031438828,0.36688199639320374,0.5657916069030762,0.0,0.0,0.0,0.0,14098.0,10971.0,10184.0,17604.0,1.6494258642196655,-0.01821906562605363,0.1961694222086155,-0.1271380389233194,-0.0003315113135613501,0.00873085018247366,-0.0
208,5,-3.917477442882955e-05,2.0816542019019835e-05,8.448354492429644e-05,-0.0005481416010297835,0.001550077460706234,-0.0038017553742974997,-0.06348013877868652,-0.18538691103458405,-0.005673338659107685,0.031212901696562767,-0.02031627669930458,0.07095431536436081,0.0,0.0,0.0,-0.00030214269645512104,-0.00047519628424197435,-0.0,0.0,0.0,0.0,0.012478912249207497,0.03824615851044655,-0.0015453631058335304,15371.0,9496.0,11645.0,16794.0,0.5349809527397156,0.19058051705360413,0.29645735025405884,0.6443870663642883,0.0,0.0,0.0,0.0,14428.0,10895.0,10341.0,17614.0,1.6313910484313965,-0.019295762985100245,0.19583735819368717,-0.1263976235822767,0.0018680262146517634,-0.0009136475855484605,0.0
213,5,-4.520616857917048e-05,2.2487582100438885e-05,8.92942407517694e-05,-0.0009430237696506083,0.00041950613376684487,-0.0020979854743927717,-0.06348013877868652,-0.18538691103458405,-0.005673338659107685,0.031212901696562767,-0.02031627669930458,0.07095431536436081,0.0,0.0,0.0,-0.00030214269645512104,-0.00047519628424197435,-0.0,0.0,0.0,0.0,0.012478912249207497,0.03824615851044655,-0.0015453631058335304,15371.0,9496.0,11645.0,16794.0,0.5349809527397156,0.19058051705360413,0.29645735025405884,0.6443870663642883,0.0,0.0,0.0,0.0,14428.0,10895.0,10341.0,17614.0,1.6313910484313965,-0.018323759126592797,0.1966459232866002,-0.12730655181133083,0.0018680262146517634,-0.0009136475855484605,0.0
219,5,-2.8822352760471404e-05,1.3622906408272684e-05,7.622993871336803e-05,0.0015888484194874763,0.0012315636267885566,0.0007285219617187977,-0.06359677761793137,-0.1854436993598938,-0.00584878446534276,-0.019130339846014977,0.04588841274380684,-0.104579396545887,0.0,0.0,0.0,-0.0004775638517457992,-0.0009600386838428676,-0.0,0.0,0.0,0.0,0.012785405851900578,0.03758033365011215,-0.003524926956743002,13961.0,11237.0,9816.0,17787.0,0.4365065097808838,0.2745779752731323,0.20484548807144165,0.7268349528312683,0.0,0.0,0.0,0.0,15827.0,8358.0,12469.0,16061.0,1.636747121810913,-0.01805639520303571,0.19689186656120988,-0.12718696622536652,0.003786361776292324,-0.001448843744583428,0.0
224,5,2.0766809029737487e-05,-2.483396019670181e-05,6.574116559932008e-05,0.006586238741874695,0.005107449367642403,0.0015500615118071437,-0.06359677761793137,-0.1854436993598938,-0.00584878446534276,-0.019130339846014977,0.04588841274380684,-0.104579396545887,0.0,0.0,0.0,-0.0004775638517457992,-0.0009600386838428676,-0.0,0.0,0.0,0.0,0.012785405851900578,0.03758033365011215,-0.003524926956743002,13961.0,11237.0,9816.0,17787.0,0.4365065097808838,0.2745779752731323,0.20484548807144165,0.7268349528312683,0.0,0.0,0.0,0.0,15827.0,8358.0,12469.0,16061.0,1.636747121810913,-0.02061928957755232,0.19594575978178627,-0.1273581660378267,0.003786361776292324,-0.001448843744583428,0.0
229,5,-5.6770363698888104e-06,-3.84011073037982e-05,0.00013112636224832386,-0.0005387658602558076,0.0036710374988615513,-0.007226198446005583,-0.06289831548929214,-0.18543577194213867,-0.005307352170348167,0.06528295576572418,0.0053922622464597225,-0.014152223244309425,0.0,0.0,0.0,-0.006084543652832508,0.006020471453666687,-0.0,0.0,0.0,0.0,0.01264452189207077,0.03754818066954613,0.0012500385055318475,15359.0,9274.0,11754.0,16639.0,0.5340468287467957,0.18093618750572205,0.3024500608444214,0.631992757320404,0.0,0.0,0.0,0.0,15224.0,9403.0,11666.0,16753.0,1.710321307182312,-0.01944043927712643,0.19661369728122446,-0.12791319565475376,-0.02481129765510559,-0.019288986921310425,-0.0
234,5,-5.595387392531848e-06,5.529702320927754e-06,0.00021500328148249537,-0.0002057084784610197,-0.0038032822776585817,-0.012955710291862488,-0.06289831548929214,-0.18543577194213867,-0.005307352170348167,0.06528295576572418,0.0053922622464597225,-0.014152223244309425,0.0,0.0,0.0,-0.006084543652832508,0.006020471453666687,-0.0,0.0,0.0,0.0,0.01264452189207077,0.03754818066954613,0.0012500385055318475,15359.0,9274.0,11754.0,16639.0,0.5340468287467957,0.18093618750572205,0.3024500608444214,0.631992757320404,0.0,0.0,0.0,0.0,15224.0,9403.0,11666.0,16753.0,1.710321307182312,-0.016739007521067297,0.19603201185575558,-0.12746206520435485,-0.02481129765510559,-0.019288986921310425,-0.0
239,5,8.256608452938963e-06,-4.7554963202856015e-06,0.0003235710319131613,0.0015799561515450478,-0.00028708906029351056,-0.018210412934422493,-0.06207992136478424,-0.18441130220890045,-0.005440693348646164,0.09399355947971344,-0.18891488015651703,0.05137027055025101,0.0,0.0,0.0,0.004632836673408747,-0.0002003404952120036,-0.0,0.0,0.0,0.0,0.011930896900594234,0.03604044392704964,0.0001396594161633402,15301.0,9318.0,11853.0,16370.0,0.5298441052436829,0.1828508973121643,0.3079235255718231,0.6107725501060486,0.0,0.0,0.0,0.0,15656.0,8843.0,12421.0,15937.0,1.6644818782806396,-0.017240898505278233,0.19344065937471916,-0.12688088614503426,0.0008035170030780137,0.014293276704847813,0.0
244,5,-7.548018743364082e-07,-2.9847386031178758e-05,0.0004273827071301639,-0.0004493868036661297,0.0028961910866200924,-0.019741566851735115,-0.06207992136478424,-0.18441130220890045,-0.005440693348646164,0.09399355947971344,-0.18891488015651703,0.05137027055025101,0.0,0.0,0.0,0.004632836673408747,-0.0002003404952120036,-0.0,0.0,0.0,0.0,0.011930896900594234,0.03604044392704964,0.0001396594161633402,15301.0,9318.0,11853.0,16370.0,0.5298441052436829,0.1828508973121643,0.3079235255718231,0.6107725501060486,0.0,0.0,0.0,0.0,15656.0,8843.0,12421.0,15937.0,1.6644818782806396,-0.017078407760507508,0.1904422936406578,-0.12748656946996556,0.0008035170030780137,0.014293276704847813,0.0
249,5,-4.306859045755118e-05,-2.2555896066478454e-05,0.000547719479072839,-0.005257409531623125,0.00028349770582281053,-0.022337039932608604,-0.06207992136478424,-0.18441130220890045,-0.005440693348646164,0.09399355947971344,-0.18891488015651703,0.05137027055025101,0.0,0.0,0.0,0.004632836673408747,-0.0002003404952120036,-0.0,0.0,0.0,0.0,0.011930896900594234,0.03604044392704964,0.0001396594161633402,15301.0,9318.0,11853.0,16370.0,0.5298441052436829,0.1828508973121643,0.3079235255718231,0.6107725501060486,0.0,0.0,0.0,0.0,15656.0,8843.0,12421.0,15937.0,1.6644818782806396,-0.013857255831960359,0.18805920688042058,-0.12803099552190103,0.0008035170030780137,0.014293276704847813,0.0
254,5,-7.531756273237988e-05,-8.583944691054057e-06,0.0007456160383298993,-0.00597284035757184,-0.0015632350696250796,-0.032682403922080994,-0.060725174844264984,-0.18166768550872803,-0.005328588653355837,0.2231149822473526,-0.4972775876522064,-0.08026819676160812,0.0,0.0,0.0,-0.0003811475762631744,-0.004929850809276104,-0.0,0.0,0.0,0.0,0.011129680089652538,0.03221798688173294,-0.00279886438511312,13938.0,11496.0,10560.0,17149.0,0.43499869108200073,0.288379430770874,0.24010197818279266,0.6732669472694397,0.0,0.0,0.0,0.0,14431.0,11854.0,10991.0,17138.0,1.679726004600525,-0.011370617249454863,0.18230304110908724,-0.12818021554415712,0.0199536494910717,-0.0011866978602483869,0.0
259,5,-0.00015873929078225046,2.7330253942636773e-05,0.0009861404541879892,-0.012399744242429733,-0.004934998229146004,-0.041935890913009644,-0.060725174844264984,-0.18166768550872803,-0.005328588653355837,0.2231149822473526,-0.4972775876522064,-0.08026819676160812,0.0,0.0,0.0,-0.0003811475762631744,-0.004929850809276104,-0.0,0.0,0.0,0.0,0.011129680089652538,0.03221798688173294,-0.00279886438511312,13938.0,11496.0,10560.0,17149.0,0.43499869108200073,0.288379430770874,0.24010197818279266,0.6732669472694397,0.0,0.0,0.0,0.0,14431.0,11854.0,10991.0,17138.0,1.679726004600525,-0.008583575133581272,0.17529855228963714,-0.1272457590348843,0.0199536494910717,-0.0011866978602483869,0.0
264,5,-0.00025518742040731013,1.2158476238255389e-05,0.0011610441142693162,-0.01653367094695568,-0.0001533858012408018,-0.037762802094221115,-0.05697944760322571,-0.17293097078800201,-0.005641209427267313,0.36459556221961975,-0.943742573261261,-0.06546757370233536,0.0,0.0,0.0,0.005712911020964384,-0.011158928275108337,-0.0,0.0,0.0,0.0,0.008553620427846909,0.028500234708189964,-0.0022892861161381006,14324.0,12087.0,11323.0,16854.0,0.4608781039714813,0.32108572125434875,0.2791203558444977,0.6492370963096619,0.0,0.0,0.0,0.0,14519.0,11921.0,11972.0,16357.0,1.7619075775146484,-0.009278292911785915,0.16777264322370522,-0.12730302309475927,0.04737414792180061,0.018657131120562553,0.0
269,5,-0.000536146282684058,-2.260496501094167e-07,0.0016011549159884453,-0.027185073122382164,0.0014045487623661757,-0.04379580169916153,-0.05697944760322571,-0.17293097078800201,-0.005641209427267313,0.36459556221961975,-0.943742573261261,-0.06546757370233536,0.0,0.0,0.0,0.005712911020964384,-0.011158928275108337,-0.0,0.0,0.0,0.0,0.008553620427846909,0.028500234708189964,-0.0022892861161381006,14324.0,12087.0,11323.0,16854.0,0.4608781039714813,0.32108572125434875,0.2791203558444977,0.6492370963096619,0.0,0.0,0.0,0.0,14519.0,11921.0,11972.0,16357.0,1.7619075775146484,-0.009374274469184502,0.14917591088390922,-0.12926636395306895,0.04737414792180061,0.018657131120562553,0.0
275,5,-0.000536146282684058,-2.260496501094167e-07,0.0016011549159884453,-0.027185073122382164,0.0014045487623661757,-0.04379580169916153,-0.05379737541079521,-0.16312026977539062,-0.005322876386344433,0.3764832019805908,-1.5008416175842285,-0.0781012699007988,0.0,0.0,0.0,-0.0014944300055503845,-0.022893322631716728,-0.0,0.0,0.0,0.0,0.009276710450649261,0.010288290679454803,-0.0050847758539021015,13640.0,12318.0,12207.0,16059.0,0.4155176281929016,0.33439332246780396,0.32799702882766724,0.5865738987922668,0.0,0.0,0.0,0.0,12201.0,13688.0,11232.0,16788.0,1.9016900062561035,-0.009374274469184502,0.14917591088390922,-0.12926636395306895,0.10489674657583237,-0.005267730448395014,0.0
280,5,-0.0006773539935238659,1.0680481921099272e-07,0.0017748379614204168,-0.02781894989311695,0.000521876965649426,-0.03836027905344963,-0.05379737541079521,-0.16312026977539062,-0.005322876386344433,0.3764832019805908,-1.5008416175842285,-0.0781012699007988,0.0,0.0,0.0,-0.0014944300055503845,-0.022893322631716728,-0.0,0.0,0.0,0.0,0.009276710450649261,0.010288290679454803,-0.0050847758539021015,13640.0,12318.0,12207.0,16059.0,0.4155176281929016,0.33439332246780396,0.32799702882766724,0.5865738987922668,0.0,0.0,0.0,0.0,12201.0,13688.0,11232.0,16788.0,1.9016900062561035,-0.012136191031346931,0.1378212805188007,-0.1305385043373589,0.10489674657583237,-0.005267730448395014,0.0
285,5,-0.0008936553495004773,0.0001448975526727736,0.0021158461458981037,-0.03708374500274658,-0.01716613955795765,-0.056265104562044144,-0.05004555359482765,-0.14202894270420074,-0.0061651128344237804,0.2582242488861084,-2.0405118465423584,-0.17291751503944397,0.0,0.0,0.0,-0.0005526342429220676,-0.023487037047743797,-0.0,0.0,0.0,0.0,0.008565175347030163,-0.0036749255377799273,-0.002363966777920723,11656.0,14336.0,11524.0,16627.0,0.2970866560935974,0.4617307782173157,0.2898728847503662,0.6310356855392456,0.0,0.0,0.0,0.0,12282.0,13849.0,12670.0,15751.0,1.909395456314087,-0.007986732268798953,0.1247543883325356,-0.12972433051401527,0.1080527976155281,-0.0019558798521757126,0.0
290,5,-0.0013272602809593081,0.00026249943766742945,0.0026245294138789177,-0.041290003806352615,-0.009679567068815231,-0.04972298443317413,-0.05004555359482765,-0.14202894270420074,-0.0061651128344237804,0.2582242488861084,-2.0405118465423584,-0.17291751503944397,0.0,0.0,0.0,-0.0005526342429220676,-0.023487037047743797,-0.0,0.0,0.0,0.0,0.008565175347030163,-0.0036749255377799273,-0.002363966777920723,11656.0,14336.0,11524.0,16627.0,0.2970866560935974,0.4617307782173157,0.2898728847503662,0.6310356855392456,0.0,0.0,0.0,0.0,12282.0,13849.0,12670.0,15751.0,1.909395456314087,-0.012372704231088136,0.09697740976319105,-0.13079908834165319,0.1080527976155281,-0.0019558798521757126,0.0
295,5,-0.0015450111823156476,0.00030186757794581354,0.002824328141286969,-0.042646102607250214,-0.00859600305557251,-0.04386505112051964,-0.04805031791329384,-0.12366733700037003,-0.005850326269865036,0.20619486272335052,-2.537846088409424,-0.07927211374044418,0.0,0.0,0.0,0.009912550449371338,-0.03276403248310089,-0.0,0.0,0.0,0.0,0.008565175347030163,-0.0036749255377799273,-0.002363966777920723,12779.0,15101.0,14506.0,15592.0,0.3616832196712494,0.5152972340583801,0.4734026789665222,0.5513069033622742,0.0,0.0,0.0,0.0,11859.0,15778.0,14232.0,15888.0,2.054293155670166,-0.017201636661906772,0.08271792493882231,-0.13175698429664376,0.1621483862400055,0.03774361312389374,0.0
300,5,-0.001821223646402359,0.00038390682311728597,0.003134326543658972,-0.05020393803715706,-0.013283111155033112,-0.05474584177136421,-0.04805031791329384,-0.12366733700037003,-0.005850326269865036,0.20619486272335052,-2.537846088409424,-0.07927211374044418,0.0,0.0,0.0,0.009912550449371338,-0.03276403248310089,-0.0,0.0,0.0,0.0,0.008565175347030163,-0.0036749255377799273,-0.002363966777920723,12779.0,15101.0,14506.0,15592.0,0.3616832196712494,0.5152972340583801,0.4734026789665222,0.5513069033622742,0.0,0.0,0.0,0.0,11859.0,15778.0,14232.0,15888.0,2.054293155670166,-0.01787971797410585,0.06727482455404214,-0.13176148779274288,0.1621483862400055,0.03774361312389374,0.0
305,5,-0.002149177948012948,0.0005656421417370439,0.0035790924448519945,-0.059436094015836716,-0.02712148055434227,-0.07527024298906326,-0.0461403951048851,-0.09143955260515213,-0.005808780901134014,0.1120559349656105,-2.84544038772583,-0.12224166095256805,0.0,0.0,0.0,0.013051532208919525,-0.03835081309080124,-0.0,0.0,0.0,0.0,0.011706169694662094,-0.021168872714042664,-0.0030426240991801023,11308.0,16822.0,15876.0,15664.0,0.27834194898605347,0.6466824412345886,0.5726143717765808,0.5566543936729431,0.0,0.0,0.0,0.0,11598.0,15967.0,14980.0,15293.0,2.1465306282043457,-0.014868687168743911,0.051700601787287886,-0.13043418636845702,0.19829881191253662,0.051925987005233765,0.0
310,5,-0.002353665651753545,0.0006151971756480634,0.0038116928189992905,-0.0483129508793354,-0.016795199364423752,-0.058020126074552536,-0.0461403951048851,-0.09143955260515213,-0.005808780901134014,0.1120559349656105,-2.84544038772583,-0.12224166095256805,0.0,0.0,0.0,0.013051532208919525,-0.03835081309080124,-0.0,0.0,0.0,0.0,0.011706169694662094,-0.021168872714042664,-0.0030426240991801023,11308.0,16822.0,15876.0,15664.0,0.27834194898605347,0.6466824412345886,0.5726143717765808,0.5566543936729431,0.0,0.0,0.0,0.0,11598.0,15967.0,14980.0,15293.0,2.1465306282043457,-0.019889772209002725,0.036533400401194606,-0.1313368508391575,0.19829881191253662,0.051925987005233765,0.0
315,5,-0.0025653778575360775,0.0006720239180140197,0.00406165886670351,-0.04473066329956055,-0.013537290506064892,-0.05320395529270172,-0.04554782062768936,-0.06851847469806671,-0.005478475708514452,0.04593426734209061,-2.9084689617156982,-0.13296498358249664,0.0,0.0,0.0,0.016678834334015846,-0.0375402569770813,-0.0,0.0,0.0,0.0,0.012315679341554642,-0.026043515652418137,-0.0032903242390602827,11592.0,17164.0,16656.0,15508.0,0.29356351494789124,0.6745315790176392,0.6333502531051636,0.5450853109359741,0.0,0.0,0.0,0.0,10598.0,17234.0,15683.0,15893.0,2.147028684616089,-0.019997657063878817,0.023316281641431603,-0.13162462703905348,0.19414427876472473,0.06637056916952133,0.0
320,5,-0.0027692760340869427,0.0006845936877653003,0.004216259345412254,-0.042360030114650726,-0.006923286244273186,-0.03983364626765251,-0.04554782062768936,-0.06851847469806671,-0.005478475708514452,0.04593426734209061,-2.9084689617156982,-0.13296498358249664,0.0,0.0,0.0,0.016678834334015846,-0.0375402569770813,-0.0,0.0,0.0,0.0,0.012315679341554642,-0.026043515652418137,-0.0032903242390602827,11592.0,17164.0,16656.0,15508.0,0.29356351494789124,0.6745315790176392,0.6333502531051636,0.5450853109359741,0.0,0.0,0.0,0.0,10598.0,17234.0,15683.0,15893.0,2.147028684616089,-0.025530171333891752,0.011357590472646674,-0.13334425234608582,0.19414427876472473,0.06637056916952133,0.0
325,5,-0.002992056543007493,0.0007556492928415537,0.004466291982680559,-0.04367769509553909,-0.011295990087091923,-0.04593740403652191,-0.04506652057170868,-0.034279707819223404,-0.005532459821552038,0.055188391357660294,-2.782454252243042,-0.09417117387056351,0.0,0.0,0.0,0.0077169244177639484,-0.03476686775684357,-0.0,0.0,0.0,0.0,0.01196686364710331,-0.028930403292179108,-0.002167118014767766,11835.0,17046.0,17086.0,14986.0,0.30691638588905334,0.6648916602134705,0.6681064963340759,0.5071141123771667,0.0,0.0,0.0,0.0,12055.0,16906.0,17054.0,15003.0,2.0788471698760986,-0.025765122525291277,-0.0006515643064498218,-0.1341974495388867,0.1741163730621338,0.02973497100174427,0.0
330,5,-0.003236014861613512,0.0008219881565310061,0.004756404552608728,-0.046746060252189636,-0.012479057535529137,-0.05318845435976982,-0.04506652057170868,-0.034279707819223404,-0.005532459821552038,0.055188391357660294,-2.782454252243042,-0.09417117387056351,0.0,0.0,0.0,0.0077169244177639484,-0.03476686775684357,-0.0,0.0,0.0,0.0,0.01196686364710331,-0.028930403292179108,-0.002167118014767766,11835.0,17046.0,17086.0,14986.0,0.30691638588905334,0.6648916602134705,0.6681064963340759,0.5071141123771667,0.0,0.0,0.0,0.0,12055.0,16906.0,17054.0,15003.0,2.0788471698760986,-0.022230085271496062,-0.01143996513233417,-0.1334248872640382,0.1741163730621338,0.02973497100174427,0.0
335,5,-0.0034832351375371218,0.0009189924458041787,0.005038418807089329,-0.04836486652493477,-0.016632135957479477,-0.055117104202508926,-0.04112342372536659,0.012529892846941948,-0.004884540569037199,0.3934582471847534,-1.9619871377944946,-0.04210192710161209,0.0,0.0,0.0,0.012974614277482033,-0.037565894424915314,-0.0,0.0,0.0,0.0,0.010236911475658417,-0.02828371338546276,-0.0018091141246259212,12114.0,16818.0,16747.0,14445.0,0.3226427137851715,0.6463853120803833,0.6406487226486206,0.46917039155960083,0.0,0.0,0.0,0.0,11296.0,17433.0,16733.0,15343.0,2.1343743801116943,-0.015738292402549675,-0.020674054273701264,-0.13186815021135395,0.193142369389534,0.0513276606798172,0.0
340,5,-0.0036285652313381433,0.0008912315825000405,0.005101602058857679,-0.0367855466902256,-0.0033215542789548635,-0.02962883561849594,-0.04112342372536659,0.012529892846941948,-0.004884540569037199,0.3934582471847534,-1.9619871377944946,-0.04210192710161209,0.0,0.0,0.0,0.012974614277482033,-0.037565894424915314,-0.0,0.0,0.0,0.0,0.010236911475658417,-0.02828371338546276,-0.0018091141246259212,12114.0,16818.0,16747.0,14445.0,0.3226427137851715,0.6463853120803833,0.6406487226486206,0.46917039155960083,0.0,0.0,0.0,0.0,11296.0,17433.0,16733.0,15343.0,2.1343743801116943,-0.01646976388159529,-0.029317843382674073,-0.13232583531405165,0.193142369389534,0.0513276606798172,0.0
345,5,-0.0037789384368807077,0.0009072669199667871,0.005208494607359171,-0.03275899961590767,-0.003252859227359295,-0.024678615853190422,-0.04112342372536659,0.012529892846941948,-0.004884540569037199,0.3934582471847534,-1.9619871377944946,-0.04210192710161209,0.0,0.0,0.0,0.004603386856615543,-0.0322062186896801,-0.0,0.0,0.0,0.0,0.004929656628519297,-0.02647503651678562,-0.0004343445471022278,12990.0,16767.0,17062.0,14185.0,0.374504417181015,0.6422260999679565,0.6661598682403564,0.45148399472236633,0.0,0.0,0.0,0.0,12553.0,16632.0,16880.0,14132.0,2.035828113555908,-0.011517695358478392,-0.036379769962122874,-0.13162254097426737,0.15796217322349548,0.017370982095599174,0.0
351,5,-0.003882778575643897,0.0008352322038263083,0.005237963050603867,-0.025564435869455338,0.0073430235497653484,-0.013407655991613865,-0.04112342372536659,0.012529892846941948,-0.004884540569037199,0.3934582471847534,-1.9619871377944946,-0.04210192710161209,0.0,0.0,0.0,0.004603386856615543,-0.0322062186896801,-0.0,0.0,0.0,0.0,0.004929656628519297,-0.02647503651678562,-0.0004343445471022278,12990.0,16767.0,17062.0,14185.0,0.374504417181015,0.6422260999679565,0.6661598682403564,0.45148399472236633,0.0,0.0,0.0,0.0,12553.0,16632.0,16880.0,14132.0,2.035828113555908,-0.00660754006919128,-0.042206361783464034,-0.13089885882920008,0.15796217322349548,0.017370982095599174,0.0
356,5,-0.003963013179600239,0.0007152312900871038,0.00521811144426465,-0.019853927195072174,0.017337314784526825,-0.00298087066039443,-0.04112342372536659,0.012529892846941948,-0.004884540569037199,0.3934582471847534,-1.9619871377944946,-0.04210192710161209,0.0,0.0,0.0,-0.00638142554089427,-0.025117071345448494,-0.0,0.0,0.0,0.0,0.004929656628519297,-0.02647503651678562,-0.0004343445471022278,12990.0,16767.0,17062.0,14185.0,0.374504417181015,0.6422260999679565,0.6661598682403564,0.45148399472236633,0.0,0.0,0.0,0.0,12553.0,16632.0,16880.0,14132.0,1.9382611513137817,-0.0022532317835920416,-0.045191771142356015,-0.131370870333984,0.11729477345943451,-0.02292625792324543,0.0
361,5,-0.004005528520792723,0.0006110527901910245,0.005210590083152056,-0.01304342970252037,0.019436348229646683,-0.00028978820773772895,-0.02646460197865963,0.03880299627780914,-0.003997132182121277,0.9963282942771912,-0.8125923275947571,-0.0006276237545534968,0.0,0.0,0.0,-0.00638142554089427,-0.025117071345448494,-0.0,0.0,0.0,0.0,0.0029887433629482985,-0.023220164701342583,-0.000412445719121024,13379.0,16359.0,16289.0,13752.0,0.3987731337547302,0.6098498702049255,0.6044183373451233,0.4227868318557739,0.0,0.0,0.0,0.0,13558.0,16492.0,17173.0,13840.0,1.9382611513137817,0.002886558948814241,-0.04843307286150071,-0.13090973483279233,0.11729477345943451,-0.02292625792324543,0.0
366,5,-0.004034964367747307,0.0004767497011926025,0.005198352504521608,-0.00874962005764246,0.023890910670161247,0.0013525884132832289,-0.02646460197865963,0.03880299627780914,-0.003997132182121277,0.9963282942771912,-0.8125923275947571,-0.0006276237545534968,0.0,0.0,0.0,-0.01986955851316452,-0.015621041879057884,-0.0,0.0,0.0,0.0,0.0029887433629482985,-0.023220164701342583,-0.000412445719121024,13379.0,16359.0,16289.0,13752.0,0.3987731337547302,0.6098498702049255,0.6044183373451233,0.4227868318557739,0.0,0.0,0.0,0.0,13558.0,16492.0,17173.0,13840.0,1.887487769126892,0.009628338575182572,-0.050850852588865646,-0.1302060952470369,0.0710301399230957,-0.06950707733631134,0.0
371,5,-0.004039974417537451,0.000360351987183094,0.0051168822683393955,-0.004101105500012636,0.0235240887850523,0.010317457839846611,-0.017454180866479874,0.04272221028804779,-0.0037249247543513775,1.2266662120819092,-0.2252015918493271,0.06800368428230286,0.0,0.0,0.0,-0.01986955851316452,-0.015621041879057884,-0.0,0.0,0.0,0.0,-0.002909514121711254,-0.017841512337327003,0.000491229526232928,14433.0,15925.0,16197.0,13301.0,0.46836864948272705,0.5763732194900513,0.5972403287887573,0.3938458561897278,0.0,0.0,0.0,0.0,13479.0,16462.0,15986.0,13888.0,1.887487769126892,0.014230136424485706,-0.052142537064160374,-0.12980167725145622,0.0710301399230957,-0.06950707733631134,0.0
376,5,-0.004028840456157923,0.0001866990205598995,0.0049925269559025764,-0.00030433532083407044,0.030247991904616356,0.019049635156989098,-0.017454180866479874,0.04272221028804779,-0.0037249247543513775,1.2266662120819092,-0.2252015918493271,0.06800368428230286,0.0,0.0,0.0,-0.024823199957609177,-0.008350982330739498,-0.0,0.0,0.0,0.0,-0.002909514121711254,-0.017841512337327003,0.000491229526232928,14433.0,15925.0,16197.0,13301.0,0.46836864948272705,0.5763732194900513,0.5972403287887573,0.3938458561897278,0.0,0.0,0.0,0.0,13479.0,16462.0,15986.0,13888.0,1.8740922212600708,0.017511999485986085,-0.05072391302321628,-0.13003665091966635,0.037700019776821136,-0.08621369302272797,-0.0
381,5,-0.004045804962515831,5.177756611374207e-05,0.0049120537005364895,-0.0021574569400399923,0.02828977070748806,0.017276637256145477,-0.0016614068299531937,0.04174261540174484,-0.002976425923407078,1.388028860092163,0.32707610726356506,0.051737505942583084,0.0,0.0,0.0,-0.024823199957609177,-0.008350982330739498,-0.0,0.0,0.0,0.0,-0.00841197557747364,-0.010713024996221066,0.0011860219528898597,14855.0,15499.0,15128.0,13060.0,0.4977736175060272,0.5443819165229797,0.5172796249389648,0.37882596254348755,0.0,0.0,0.0,0.0,14635.0,15525.0,15497.0,12840.0,1.8740922212600708,0.02856782419020113,-0.04727994745464409,-0.1291280080551037,0.037700019776821136,-0.08621369302272797,-0.0
386,5,-0.003992072772234678,-0.000139247888000682,0.00469920365139842,0.005584876053035259,0.03423896059393883,0.032452668994665146,-0.0016614068299531937,0.04174261540174484,-0.002976425923407078,1.388028860092163,0.32707610726356506,0.051737505942583084,0.0,0.0,0.0,-0.029812004417181015,-0.006604054011404514,-0.0,0.0,0.0,0.0,-0.00841197557747364,-0.010713024996221066,0.0011860219528898597,14855.0,15499.0,15128.0,13060.0,0.4977736175060272,0.5443819165229797,0.5172796249389648,0.37882596254348755,0.0,0.0,0.0,0.0,14635.0,15525.0,15497.0,12840.0,1.9148238897323608,0.03300890101174876,-0.044900113310738024,-0.12911344267378877,0.030457565560936928,-0.10578197985887527,-0.0
391,5,-0.004004642833024263,-0.0002807315031532198,0.0046532489359378815,0.0007255419041030109,0.030673619359731674,0.01849561370909214,0.009470449760556221,0.03708188980817795,-0.0024950930383056402,1.3967232704162598,0.7631580829620361,0.029674261808395386,0.0,0.0,0.0,-0.029812004417181015,-0.006604054011404514,-0.0,0.0,0.0,0.0,-0.014570209197700024,-0.002914173761382699,0.001218330580741167,15425.0,15307.0,13981.0,13087.0,0.5389013886451721,0.5302878022193909,0.4378128945827484,0.3804856240749359,0.0,0.0,0.0,0.0,15325.0,15145.0,14599.0,12710.0,1.9148238897323608,0.04148891374953941,-0.04301724626756657,-0.1276921829990561,0.030457565560936928,-0.10578197985887527,-0.0
396,5,-0.003992690704762936,-0.00045985085307620466,0.004451494663953781,0.001724461792036891,0.03376377001404762,0.03160875663161278,0.009470449760556221,0.03708188980817795,-0.0024950930383056402,1.3967232704162598,0.7631580829620361,0.029674261808395386,0.0,0.0,0.0,-0.032501813024282455,-0.004169655963778496,-0.0,0.0,0.0,0.0,-0.014570209197700024,-0.002914173761382699,0.001218330580741167,15425.0,15307.0,13981.0,13087.0,0.5389013886451721,0.5302878022193909,0.4378128945827484,0.3804856240749359,0.0,0.0,0.0,0.0,15325.0,15145.0,14599.0,12710.0,1.9352608919143677,0.04779304385094337,-0.03829940910796834,-0.12770781887228075,0.019433943554759026,-0.11655119806528091,-0.0
401,5,-0.003949703183025122,-0.0006109765963628888,0.0042761871591210365,0.005848299711942673,0.03164060041308403,0.03368038311600685,0.025267524644732475,0.026466956362128258,-0.0024223823565989733,1.239949345588684,0.9378820657730103,-0.07673346251249313,0.0,0.0,0.0,-0.032501813024282455,-0.004169655963778496,-0.0,0.0,0.0,0.0,-0.0171081330627203,0.0018122198525816202,-0.0011860033264383674,14922.0,15989.0,12410.0,14172.0,0.5025428533554077,0.5812312364578247,0.3397277295589447,0.4505904018878937,0.0,0.0,0.0,0.0,15721.0,15140.0,13597.0,13115.0,1.9352608919143677,0.05234151263825866,-0.03399044784991005,-0.12784203568565836,0.019433943554759026,-0.11655119806528091,-0.0
406,5,-0.003926439210772514,-0.0006930069648660719,0.004208588041365147,0.005130948033183813,0.02249988168478012,0.021584080532193184,0.025267524644732475,0.026466956362128258,-0.0024223823565989733,1.239949345588684,0.9378820657730103,-0.07673346251249313,0.0,0.0,0.0,-0.0338519923388958,1.3822230357618537e-05,-0.0,0.0,0.0,0.0,-0.0171081330627203,0.0018122198525816202,-0.0011860033264383674,14922.0,15989.0,12410.0,14172.0,0.5025428533554077,0.5812312364578247,0.3397277295589447,0.4505904018878937,0.0,0.0,0.0,0.0,15721.0,15140.0,13597.0,13115.0,1.9449257850646973,0.059496528790964266,-0.03182293843981847,-0.12601215255539114,-6.474171095760539e-05,-0.12199585884809494,-0.0
411,5,-0.003870545420795679,-0.0008217578288167715,0.004077497404068708,0.008759666234254837,0.02445005252957344,0.024364495649933815,0.03387260437011719,0.019371172413229942,-0.0021751343738287687,0.9338586926460266,0.9049527645111084,0.07740005105733871,0.0,0.0,0.0,-0.0338519923388958,1.3822230357618537e-05,-0.0,0.0,0.0,0.0,-0.018898138776421547,0.00439798180013895,0.0008661894244141877,16342.0,15016.0,13526.0,13222.0,0.6085073947906494,0.5092573165893555,0.4081459939479828,0.38891318440437317,0.0,0.0,0.0,0.0,16827.0,14626.0,14005.0,12868.0,1.9449257850646973,0.06209228650210503,-0.028478208128448684,-0.12593070167165496,-6.474171095760539e-05,-0.12199585884809494,-0.0
417,5,-0.003834185656160116,-0.0009201872744597495,0.004078503232449293,0.007867024280130863,0.021591557189822197,0.009625116363167763,0.03387260437011719,0.019371172413229942,-0.0021751343738287687,0.9338586926460266,0.9049527645111084,0.07740005105733871,0.0,0.0,0.0,-0.027592875063419342,0.002516737673431635,-0.0,0.0,0.0,0.0,-0.018898138776421547,0.00439798180013895,0.0008661894244141877,16342.0,15016.0,13526.0,13222.0,0.6085073947906494,0.5092573165893555,0.4081459939479828,0.38891318440437317,0.0,0.0,0.0,0.0,16827.0,14626.0,14005.0,12868.0,1.8812228441238403,0.06402179494992359,-0.025929682897587073,-0.1257424365825795,-0.011404186487197876,-0.09619347751140594,-0.0
422,5,-0.003845296334475279,-0.0009851772338151932,0.003995336592197418,0.0018135270802304149,0.01643541269004345,0.013830048032104969,0.042041581124067307,0.009669397957623005,-0.0009313991758972406,0.44197186827659607,0.75030517578125,0.014918903820216656,0.0,0.0,0.0,-0.027592875063419342,0.002516737673431635,-0.0,0.0,0.0,0.0,-0.01775531657040119,0.004732029512524605,0.0007993177860043943,16046.0,15335.0,13293.0,13771.0,0.5856025218963623,0.532317042350769,0.3933444917201996,0.42399677634239197,0.0,0.0,0.0,0.0,15679.0,15696.0,12813.0,14374.0,1.8812228441238403,0.0639012495847601,-0.02137145278988672,-0.12611169897576976,-0.011404186487197876,-0.09619347751140594,-0.0
427,5,-0.0038455002941191196,-0.0010143436957150698,0.003988091368228197,0.0007009513210505247,0.01007414422929287,0.006401431746780872,0.042041581124067307,0.009669397957623005,-0.0009313991758972406,0.44197186827659607,0.75030517578125,0.014918903820216656,0.0,0.0,0.0,-0.02000410482287407,-0.0033326593693345785,-0.0,0.0,0.0,0.0,-0.01775531657040119,0.004732029512524605,0.0007993177860043943,16046.0,15335.0,13293.0,13771.0,0.5856025218963623,0.532317042350769,0.3933444917201996,0.42399677634239197,0.0,0.0,0.0,0.0,15679.0,15696.0,12813.0,14374.0,1.8082743883132935,0.06508422839968867,-0.017709403899909854,-0.12618451205817552,0.01451842300593853,-0.0670408308506012,-0.0
432,5,-0.0038873825687915087,-0.0010458214674144983,0.004035415127873421,-0.004745489452034235,0.0078069898299872875,-0.0031182756647467613,0.04319082573056221,0.00408542063087225,-0.000815416278783232,-0.09135832637548447,0.6251357793807983,0.06029863655567169,0.0,0.0,0.0,-0.02000410482287407,-0.0033326593693345785,-0.0,0.0,0.0,0.0,-0.01526144240051508,0.006046999245882034,0.00018213024304714054,16073.0,15072.0,13476.0,13999.0,0.5877209305763245,0.5132392048835754,0.40493783354759216,0.43902787566185,0.0,0.0,0.0,0.0,16169.0,14783.0,13842.0,13839.0,1.8082743883132935,0.06185669336010588,-0.016187353577464127,-0.12591988066526805,0.01451842300593853,-0.0670408308506012,-0.0
437,5,-0.003935939632356167,-0.0010475600138306618,0.004058745689690113,-0.007725079543888569,0.0033314195461571217,-0.004046962596476078,0.04319082573056221,0.00408542063087225,-0.000815416278783232,-0.09135832637548447,0.6251357793807983,0.06029863655567169,0.0,0.0,0.0,-0.010695603676140308,-0.009246915578842163,-0.0,0.0,0.0,0.0,-0.01526144240051508,0.006046999245882034,0.00018213024304714054,16073.0,15072.0,13476.0,13999.0,0.5877209305763245,0.5132392048835754,0.40493783354759216,0.43902787566185,0.0,0.0,0.0,0.0,16169.0,14783.0,13842.0,13839.0,1.7665880918502808,0.0591731783558391,-0.013844423750192403,-0.12602721921447407,0.039359815418720245,-0.035021450370550156,0.0
442,5,-0.003950641490519047,-0.0010243112919852138,0.0041235946118831635,-0.004854239989072084,-0.0014572786167263985,-0.009400691837072372,0.03878907859325409,-0.0018657363252714276,-0.00033740553772076964,-0.6060556769371033,0.35350918769836426,-0.05742977187037468,0.0,0.0,0.0,-0.010695603676140308,-0.009246915578842163,-0.0,0.0,0.0,0.0,-0.010332336649298668,0.005363487172871828,-0.0011303182691335678,14796.0,15349.0,12775.0,14786.0,0.49357160925865173,0.533318042755127,0.36142149567604065,0.4929116666316986,0.0,0.0,0.0,0.0,14741.0,15211.0,13101.0,14698.0,1.7665880918502808,0.05335744361733023,-0.013617146357292376,-0.12529076177257317,0.039359815418720245,-0.035021450370550156,0.0
447,5,-0.0040029967203736305,-0.0010031963465735316,0.00409047631546855,-0.008224301040172577,-0.003116703126579523,0.0002139516727766022,0.03878907859325409,-0.0018657363252714276,-0.00033740553772076964,-0.6060556769371033,0.35350918769836426,-0.05742977187037468,0.0,0.0,0.0,-5.1578954298747703e-05,-0.009607535786926746,-0.0,0.0,0.0,0.0,-0.010332336649298668,0.005363487172871828,-0.0011303182691335678,14796.0,15349.0,12775.0,14786.0,0.49357160925865173,0.533318042755127,0.36142149567604065,0.4929116666316986,0.0,0.0,0.0,0.0,14741.0,15211.0,13101.0,14698.0,1.7334257364273071,0.04553661504131151,-0.011655071213854064,-0.12550888816806996,0.04012938216328621,-0.00016572435561101884,0.0
452,5,-0.004083039239048958,-0.0009298475342802703,0.004209717735648155,-0.01289482694119215,-0.010048534721136093,-0.014223395846784115,0.03235801309347153,-0.0030834446661174297,-0.00019087687542196363,-0.9729791879653931,0.0023557492531836033,0.12130432575941086,0.0,0.0,0.0,-5.1578954298747703e-05,-0.009607535786926746,-0.0,0.0,0.0,0.0,0.00021482838201336563,-0.003105569165199995,0.0013276302488520741,15325.0,13536.0,14746.0,13044.0,0.5315576791763306,0.4088071584701538,0.4900885224342346,0.37782102823257446,0.0,0.0,0.0,0.0,15566.0,13075.0,15295.0,12581.0,1.7334257364273071,0.04149548164945466,-0.01190982341548451,-0.12517250298499014,0.04012938216328621,-0.00016572435561101884,0.0
457,5,-0.004177093505859375,-0.000855303427670151,0.004274190869182348,-0.016444429755210876,-0.012964709661900997,-0.013426159508526325,0.03235801309347153,-0.0030834446661174297,-0.00019087687542196363,-0.9729791879653931,0.0023557492531836033,0.12130432575941086,0.0,0.0,0.0,-5.1578954298747703e-05,-0.009607535786926746,-0.0,0.0,0.0,0.0,0.00021482838201336563,-0.003105569165199995,0.0013276302488520741,15325.0,13536.0,14746.0,13044.0,0.5315576791763306,0.4088071584701538,0.4900885224342346,0.37782102823257446,0.0,0.0,0.0,0.0,15566.0,13075.0,15295.0,12581.0,1.7334257364273071,0.03651824520346511,-0.011567219829050861,-0.12539007641021227,0.04012938216328621,-0.00016572435561101884,0.0
462,5,-0.004248231649398804,-0.0008051339536905289,0.0043546780943870544,-0.01511438563466072,-0.011206218972802162,-0.015028932131826878,0.019826652482151985,-0.0014827094273641706,0.0007283040322363377,-1.1247243881225586,-0.2760244905948639,0.0052763656713068485,0.0,0.0,0.0,0.012618465349078178,-0.018757198005914688,-0.0,0.0,0.0,0.0,0.005935016553848982,-0.005665113218128681,0.0028365205507725477,14010.0,14024.0,14508.0,13595.0,0.43975260853767395,0.44067057967185974,0.47354409098625183,0.41262081265449524,0.0,0.0,0.0,0.0,13985.0,13898.0,14750.0,13488.0,1.877611756324768,0.025573768920115782,-0.013702888924241092,-0.12548552987558334,0.08485269546508789,0.043913692235946655,0.0
467,5,-0.004346990492194891,-0.0007223347201943398,0.004415417555719614,-0.017896786332130432,-0.014418396167457104,-0.013300303369760513,0.019826652482151985,-0.0014827094273641706,0.0007283040322363377,-1.1247243881225586,-0.2760244905948639,0.0052763656713068485,0.0,0.0,0.0,0.012618465349078178,-0.018757198005914688,-0.0,0.0,0.0,0.0,0.005935016553848982,-0.005665113218128681,0.0028365205507725477,14010.0,14024.0,14508.0,13595.0,0.43975260853767395,0.44067057967185974,0.47354409098625183,0.41262081265449524,0.0,0.0,0.0,0.0,13985.0,13898.0,14750.0,13488.0,1.877611756324768,0.019894938473384402,-0.013364393464737894,-0.12537346561337168,0.08485269546508789,0.043913692235946655,0.0
472,5,-0.004334005992859602,-0.000796045467723161,0.004125518258661032,-0.005600590258836746,0.0030779324006289244,0.029467817395925522,0.019826652482151985,-0.0014827094273641706,0.0007283040322363377,-1.1247243881225586,-0.2760244905948639,0.0052763656713068485,0.0,0.0,0.0,0.01422939170151949,-0.019940296187996864,-0.0,0.0,0.0,0.0,0.005935016553848982,-0.005665113218128681,0.0028365205507725477,14010.0,14024.0,14508.0,13595.0,0.43975260853767395,0.44067057967185974,0.47354409098625183,0.41262081265449524,0.0,0.0,0.0,0.0,13985.0,13898.0,14750.0,13488.0,1.8993974924087524,0.0003873280885136928,-0.010940560250496365,-0.13022369536529563,0.09124868363142014,0.050093814730644226,0.0
