timestamp,dt,pos_x,pos_y,pos_z,vel_x,vel_y,vel_z,roll,pitch,yaw,agv_x,agv_y,agv_z,x_ref,y_ref,z_ref,roll_ref,pitch_ref,yaw_ref,x_vel_ref,y_vel_ref,z_vel_ref,x_torque,y_torque,z_torque,w0,w1,w2,w3,u0,u1,u2,u3,m0req,m1req,m2req,m3req,thrust0,thrust1,thrust2,thrust3,thrust_ref,roll_vicon,pitch_vicon,yaw_vicon,acc_x,acc_y,acc_z
5,5,0.0,0.0,0.0,9.51029869611375e-05,0.0011806886177510023,0.00116826593875885,-0.0031979491468518972,-0.07682463526725769,-0.0071396795101463795,0.0014004595577716827,4.413216811371967e-05,0.001712497090920806,0.0,0.0,0.0,-0.00145847094245255,9.036773553816602e-05,-0.0,0.0,0.0,0.0,0.0009378032991662621,0.023060346022248268,-0.0006673223106190562,1495.0,1495.0,1495.0,1495.0,0.0,0.0,0.0,0.0,0.0,0.0,0.0,0.0,1495.0,1495.0,1495.0,1495.0,1.6377990245819092,-0.0377573523996471,0.07303693836922712,0.11136040345513872,-0.00035663621383719146,-0.004427582491189241,0.0
31,26,0.0,0.0,0.0,0.0034865951165556908,-0.00038215258973650634,0.007249567192047834,-0.0031979491468518972,-0.07682463526725769,-0.0071396795101463795,0.0014004595577716827,4.413216811371967e-05,0.001712497090920806,0.0,0.0,0.0,-0.00145847094245255,9.036773553816602e-05,-0.0,0.0,0.0,0.0,0.0009378032991662621,0.023060346022248268,-0.0006673223106190562,1495.0,1495.0,1495.0,1495.0,0.0,0.0,0.0,0.0,0.0,0.0,0.0,0.0,1495.0,1495.0,1495.0,1495.0,1.6377990245819092,-0.0373802558203236,0.07235661392188555,0.11164443402883219,-0.00035663621383719146,-0.004427582491189241,0.0
37,5,0.0,0.0,0.0,0.0006365675944834948,0.00047551299212500453,0.0007749304641038179,-0.0031979491468518972,-0.07682463526725769,-0.0071396795101463795,0.0014004595577716827,4.413216811371967e-05,0.001712497090920806,0.0,0.0,0.0,0.0004653723444789648,0.0032660490833222866,-0.0,0.0,0.0,0.0,0.0009378032991662621,0.023060346022248268,-0.0006673223106190562,1495.0,1495.0,1495.0,1495.0,0.0,0.0,0.0,0.0,0.0,0.0,0.0,0.0,1495.0,1495.0,1495.0,1495.0,1.6613417863845825,-0.03750494622322893,0.07192716283568591,0.11191644647839949,-0.013074731454253197,0.001433072262443602,0.0
42,5,0.0,0.0,0.0,0.0021724740508943796,0.0008883016416803002,-0.0042009009048342705,-0.0032107392325997353,-0.07680998742580414,-0.007141252979636192,-0.002106867963448167,0.0008200738811865449,-0.001396857900545001,0.0,0.0,0.0,0.0004653723444789648,0.0032660490833222866,-0.0,0.0,0.0,0.0,0.0005582718295045197,0.02309407852590084,-0.0007783614564687014,1495.0,1495.0,1495.0,1495.0,0.0,0.0,0.0,0.0,0.0,0.0,0.0,0.0,1495.0,1495.0,1495.0,1495.0,1.6613417863845825,-0.03809342849301512,0.07199984629112409,0.11174858020201732,-0.013074731454253197,0.001433072262443602,0.0
56,14,0.0,0.0,0.0,0.0021724740508943796,0.0008883016416803002,-0.0042009009048342705,-0.0032107392325997353,-0.07680998742580414,-0.007141252979636192,-0.002106867963448167,0.0008200738811865449,-0.001396857900545001,0.0,0.0,0.0,-0.0010894450824707747,0.0020495406351983547,-0.0,0.0,0.0,0.0,0.0005315528833307326,0.02319737710058689,-0.0005810691509395838,1495.0,1495.0,1495.0,1495.0,0.0,0.0,0.0,0.0,0.0,0.0,0.0,0.0,1495.0,1495.0,1495.0,1495.0,1.6495975255966187,-0.03809342849301512,0.07199984629112409,0.11174858020201732,-0.008146777749061584,-0.0033311310689896345,0.0
63,7,0.0,0.0,0.0,-0.0016273740911856294,-7.66824305173941e-05,0.004295581020414829,-0.0032124861609190702,-0.07683596014976501,-0.00710512138903141,-0.001460698083974421,0.0023541811387985945,0.0018855483504012227,0.0,0.0,0.0,-0.0010894450824707747,0.0020495406351983547,-0.0,0.0,0.0,0.0,0.0005315528833307326,0.02319737710058689,-0.0005810691509395838,1495.0,1495.0,1495.0,1495.0,0.0,0.0,0.0,0.0,0.0,0.0,0.0,0.0,1495.0,1495.0,1495.0,1495.0,1.6495975255966187,-0.03805723819275485,0.07187347551282568,0.11213238883145019,0.006102652754634619,0.00028755911625921726,0.0
68,5,9.46695581660606e-06,-5.852800313732587e-06,-2.2420881578000262e-05,0.0004850850091315806,0.0006716630887240171,0.004408738110214472,-0.0032124861609190702,-0.07683596014976501,-0.00710512138903141,-0.001460698083974421,0.0023541811387985945,0.0018855483504012227,0.0,0.0,0.0,9.44630810408853e-05,-0.0015420926501974463,-0.0,0.0,0.0,0.0,0.0011466840514913201,0.024167107418179512,-0.000724547659046948,1495.0,1495.0,1495.0,1495.0,0.0,0.0,0.0,0.0,0.0,0.0,0.0,0.0,1495.0,1495.0,1495.0,1495.0,1.6423150300979614,-0.037006829049777715,0.07227043851532873,0.11169538303575995,0.006102652754634619,0.00028755911625921726,0.0
73,5,-1.5914358300506137e-05,1.1308970897516701e-06,-1.9727573089767247e-05,-0.0028517236933112144,-0.0005693784914910793,0.0014402982778847218,-0.0032124861609190702,-0.07683596014976501,-0.00710512138903141,-0.001460698083974421,0.0023541811387985945,0.0018855483504012227,0.0,0.0,0.0,9.44630810408853e-05,-0.0015420926501974463,-0.0,0.0,0.0,0.0,0.0011466840514913201,0.024167107418179512,-0.000724547659046948,1495.0,1495.0,1495.0,1495.0,0.0,0.0,0.0,0.0,0.0,0.0,0.0,0.0,1495.0,1495.0,1495.0,1495.0,1.6423150300979614,-0.03779548968043033,0.07190127206929058,0.11190530538323687,0.006102652754634619,0.00028755911625921726,0.0
78,5,-1.247190357389627e-05,4.331279797042953e-06,-2.7261361537966877e-05,-0.0007275948883034289,-0.0006117972661741078,0.00148017390165478,-0.0032124861609190702,-0.07683596014976501,-0.00710512138903141,-0.001460698083974421,0.0023541811387985945,0.0018855483504012227,0.0,0.0,0.0,0.0006978388410061598,-0.002702695317566395,-0.0,0.0,0.0,0.0,0.0011466840514913201,0.024167107418179512,-0.000724547659046948,1495.0,1495.0,1495.0,1495.0,0.0,0.0,0.0,0.0,0.0,0.0,0.0,0.0,1495.0,1495.0,1495.0,1495.0,1.6555137634277344,-0.037935380438094475,0.07161284264470545,0.1119861388532123,0.010781548917293549,0.002141393255442381,0.0
83,5,-1.3035893061896786e-05,9.260804290533997e-06,-4.846458523388719e-06,-0.0003587166720535606,-0.0008362618391402066,-0.002097718883305788,-0.003208007663488388,-0.07684788852930069,-0.007127094082534313,0.000633359479252249,-0.0018691184232011437,0.0016926464159041643,0.0,0.0,0.0,0.0006978388410061598,-0.002702695317566395,-0.0,0.0,0.0,0.0,0.001088339718990028,0.02397247403860092,-0.0007261961582116783,14910.0,12061.0,11584.0,15533.0,0.5016704797744751,0.3196181654930115,0.2931211590766907,0.5469319820404053,0.0,0.0,0.0,0.0,14921.0,12051.0,11563.0,15546.0,1.6555137634277344,-0.03817428513990947,0.07213562843258714,0.11173579374522219,0.010781548917293549,0.002141393255442381,0.0
88,5,-1.9740535208256915e-05,7.003175142017426e-06,2.9162258215365e-05,-0.0009480437147431076,-6.358928658301011e-05,-0.004920133389532566,-0.003208007663488388,-0.07684788852930069,-0.007127094082534313,0.000633359479252249,-0.0018691184232011437,0.0016926464159041643,0.0,0.0,0.0,0.0010514609748497605,-0.000359616766218096,-0.0,0.0,0.0,0.0,0.001088339718990028,0.02397247403860092,-0.0007261961582116783,14910.0,12061.0,11584.0,15533.0,0.5016704797744751,0.3196181654930115,0.2931211590766907,0.5469319820404053,0.0,0.0,0.0,0.0,14921.0,12051.0,11563.0,15546.0,1.6352119445800781,-0.03847279114381427,0.07172924032659186,0.11179557461915307,0.0014169862261041999,0.0031869527883827686,0.0
93,5,-1.9514651285135187e-05,2.046507006525644e-06,4.522705057752319e-05,-0.0003521114413160831,0.0005693644634447992,-0.0038958287332206964,-0.003213428659364581,-0.07683451473712921,-0.007127418648451567,0.0023873981554061174,-0.0011390973813831806,-0.001460355008020997,0.0,0.0,0.0,0.0010514609748497605,-0.000359616766218096,-0.0,0.0,0.0,0.0,0.0010956353507936,0.02408003807067871,-0.0006745798164047301,14934.0,12029.0,11599.0,15523.0,0.5034030675888062,0.3178226947784424,0.2939387559890747,0.5461772084236145,0.0,0.0,0.0,0.0,14862.0,12091.0,11506.0,15455.0,1.6352119445800781,-0.038456277916634446,0.0717755378213636,0.11191092963016008,0.0014169862261041999,0.0031869527883827686,0.0
98,5,-1.0078809964397806e-06,1.1531442396517377e-05,2.692711314011831e-05,0.002079967875033617,-0.0009104464552365243,0.0006376611418090761,-0.003213428659364581,-0.07683451473712921,-0.007127418648451567,0.0023873981554061174,-0.0011390973813831806,-0.001460355008020997,0.0,0.0,0.0,-0.0007017850875854492,-0.00036295014433562756,-0.0,0.0,0.0,0.0,0.0010956353507936,0.02408003807067871,-0.0006745798164047301,14934.0,12029.0,11599.0,15523.0,0.5034030675888062,0.3178226947784424,0.2939387559890747,0.5461772084236145,0.0,0.0,0.0,0.0,14862.0,12091.0,11506.0,15455.0,1.6326929330825806,-0.037533431963498384,0.0723316853559856,0.11155262504690801,0.0014279180904850364,-0.0021238173358142376,0.0
103,5,-5.807215529785026e-06,1.086719294107752e-05,1.8554779671831056e-05,0.000256067025475204,-0.00028446860960684717,0.0012597446329891682,-0.003213428659364581,-0.07683451473712921,-0.007127418648451567,0.0023873981554061174,-0.0011390973813831806,-0.001460355008020997,0.0,0.0,0.0,-0.0007017850875854492,-0.00036295014433562756,-0.0,0.0,0.0,0.0,0.0010956353507936,0.02408003807067871,-0.0006745798164047301,14934.0,12029.0,11599.0,15523.0,0.5034030675888062,0.3178226947784424,0.2939387559890747,0.5461772084236145,0.0,0.0,0.0,0.0,14862.0,12091.0,11506.0,15455.0,1.6326929330825806,-0.03779655303388996,0.07231413003666717,0.11165786255497256,0.0014279180904850364,-0.0021238173358142376,0.0
109,5,7.323220415855758e-06,2.1047049813205376e-05,1.7936565200216137e-05,0.0016780791338533163,-0.0013353702379390597,0.0005780833889730275,-0.003216310404241085,-0.07682616263628006,-0.007139432244002819,-0.0005867523141205311,0.004960302263498306,0.001335248351097107,0.0,0.0,0.0,0.00037295339279808104,0.0002363432286074385,-0.0,0.0,0.0,0.0,0.0011288715759292245,0.0222430769354105,-0.0007719332352280617,14752.0,12096.0,11564.0,15414.0,0.4905034601688385,0.321639746427536,0.2920323312282562,0.5381394624710083,0.0,0.0,0.0,0.0,14784.0,12066.0,11628.0,15360.0,1.6297084093093872,-0.03773203369164822,0.07267340882887592,0.1117655534877891,-0.0009281217353418469,0.0011266084620729089,-0.0
114,5,1.2149384929216467e-05,1.527803578937892e-05,2.1320027371984906e-05,0.0012503714533522725,0.00015813343634363264,-0.00017478209338150918,-0.003216310404241085,-0.07682616263628006,-0.007139432244002819,-0.0005867523141205311,0.004960302263498306,0.001335248351097107,0.0,0.0,0.0,0.00037295339279808104,0.0002363432286074385,-0.0,0.0,0.0,0.0,0.0011288715759292245,0.0222430769354105,-0.0007719332352280617,14752.0,12096.0,11564.0,15414.0,0.4905034601688385,0.321639746427536,0.2920323312282562,0.5381394624710083,0.0,0.0,0.0,0.0,14784.0,12066.0,11628.0,15360.0,1.6297084093093872,-0.03803830627465497,0.07279180775782557,0.1113333731482639,-0.0009281217353418469,0.0011266084620729089,-0.0
119,5,-1.5190626982075628e-05,2.6419191271997988e-05,7.00222299201414e-05,-0.0027806528378278017,-0.0012736852513626218,-0.005914176814258099,-0.003200657432898879,-0.0767962858080864,-0.0071340324357151985,0.002030076226219535,-0.004886292386800051,0.0007191740442067385,0.0,0.0,0.0,-0.00016751904331613332,0.0012043295428156853,-0.0,0.0,0.0,0.0,0.0011978807160630822,0.0222379919141531,-0.0007107118144631386,14777.0,12159.0,11717.0,15408.0,0.4922398030757904,0.3251904845237732,0.30040282011032104,0.5376805663108826,0.0,0.0,0.0,0.0,14804.0,12130.0,11746.0,15382.0,1.6387217044830322,-0.039177354296871594,0.07321928823379292,0.11127521567524384,-0.004755567293614149,-0.0005088361212983727,0.0
124,5,-3.277817813795991e-05,3.041464697162155e-05,0.00010990438750013709,-0.003222767263650894,-0.0009889286011457443,-0.0071515291929244995,-0.003201649058610201,-0.07678259909152985,-0.007104283198714256,-0.0021104945335537195,0.0028732731007039547,-8.568576049583498e-06,0.0,0.0,0.0,0.001259275246411562,-0.003065448487177491,-0.0,0.0,0.0,0.0,0.001280590076930821,0.023025617003440857,-0.0007160756504163146,14748.0,12002.0,11563.0,15394.0,0.4902555048465729,0.31631094217300415,0.29197126626968384,0.5366742610931396,0.0,0.0,0.0,0.0,14773.0,11973.0,11578.0,15382.0,1.660562515258789,-0.03993627204804838,0.07277684915845785,0.11123628764404399,0.012265919707715511,0.0038760043680667877,0.0
131,7,-4.835492654819973e-05,-1.7133746723629883e-06,9.313311602454633e-05,-0.00144980160985142,0.0018888922641053796,-0.00017340500198770314,-0.003201649058610201,-0.07678259909152985,-0.007104283198714256,-0.0021104945335537195,0.0028732731007039547,-8.568576049583498e-06,0.0,0.0,0.0,0.001259275246411562,-0.003065448487177491,-0.0,0.0,0.0,0.0,0.001280590076930821,0.023025617003440857,-0.0007160756504163146,14748.0,12002.0,11563.0,15394.0,0.4902555048465729,0.31631094217300415,0.29197126626968384,0.5366742610931396,0.0,0.0,0.0,0.0,14773.0,11973.0,11578.0,15382.0,1.660562515258789,-0.03875179556379275,0.07352057968151877,0.11106369908678612,0.012265919707715511,0.0038760043680667877,0.0
136,5,-3.666715929284692e-05,1.2434961718099657e-05,4.571044337353669e-05,0.000822611793410033,-0.0009422434377484024,0.005621358752250671,-0.003201649058610201,-0.07678259909152985,-0.007104283198714256,-0.0021104945335537195,0.0028732731007039547,-8.568576049583498e-06,0.0,0.0,0.0,0.001259275246411562,-0.003065448487177491,-0.0,0.0,0.0,0.0,0.001280590076930821,0.023025617003440857,-0.0007160756504163146,14748.0,12002.0,11563.0,15394.0,0.4902555048465729,0.31631094217300415,0.29197126626968384,0.5366742610931396,0.0,0.0,0.0,0.0,14773.0,11973.0,11578.0,15382.0,1.660562515258789,-0.03807890547219922,0.07286368716454955,0.11137998964270385,0.012265919707715511,0.0038760043680667877,0.0
141,5,-2.8888256565551274e-05,1.743789471220225e-05,1.9140172298648395e-05,0.0012625128729268909,-0.000977249233983457,0.005436975974589586,-0.0032232434023171663,-0.076801598072052,-0.007110321894288063,-0.0024481562431901693,-0.0014135778183117509,0.00035664206370711327,0.0,0.0,0.0,0.001186212059110403,0.0007302460144273937,-0.0,0.0,0.0,0.0,0.0008143723825924098,0.02306935004889965,-0.0007295654504559934,14766.0,12029.0,11504.0,15366.0,0.4915008246898651,0.31782516837120056,0.288799911737442,0.5345669984817505,0.0,0.0,0.0,0.0,14806.0,12014.0,11506.0,15420.0,1.6382639408111572,-0.037726364306081624,0.07282837903165862,0.11166017319535869,-0.0028827344067394733,0.0036020902916789055,-0.0
146,5,-2.399740151304286e-05,2.0032359316246584e-05,7.082420052029192e-05,0.0010919076157733798,-0.0007022355566732585,-0.004027293063700199,-0.0032232434023171663,-0.076801598072052,-0.007110321894288063,-0.0024481562431901693,-0.0014135778183117509,0.00035664206370711327,0.0,0.0,0.0,0.001186212059110403,0.0007302460144273937,-0.0,0.0,0.0,0.0,0.0008143723825924098,0.02306935004889965,-0.0007295654504559934,14766.0,12029.0,11504.0,15366.0,0.4915008246898651,0.31782516837120056,0.288799911737442,0.5345669984817505,0.0,0.0,0.0,0.0,14806.0,12014.0,11506.0,15420.0,1.6382639408111572,-0.03806711367105688,0.07402833733029061,0.11061288039315079,-0.0028827344067394733,0.0036020902916789055,-0.0
151,5,-2.207753095717635e-05,1.9307177353766747e-05,6.82492827763781e-05,0.0006671476876363158,-0.00019387228530831635,-0.0013019271427765489,-0.003219767240807414,-0.07680808752775192,-0.007123187184333801,0.0029373050201684237,0.004367855843156576,-0.00262736645527184,0.0,0.0,0.0,0.0009032972157001495,0.0010033495491370559,-0.0,0.0,0.0,0.0,0.0013933302834630013,0.022358914837241173,-0.0008178924326784909,14753.0,12202.0,11697.0,15480.0,0.49056148529052734,0.32770830392837524,0.2993100881576538,0.5429826378822327,0.0,0.0,0.0,0.0,14762.0,12202.0,11705.0,15466.0,1.6388218402862549,-0.03836833547621306,0.07301501834106526,0.1113447122302203,-0.00396219315007329,0.002743916353210807,0.0
156,5,-2.6910767701338045e-05,1.88969152077334e-05,0.0001146597569459118,-0.0003131294797640294,-2.8317575925029814e-05,-0.006090027280151844,-0.003219767240807414,-0.07680808752775192,-0.007123187184333801,0.0029373050201684237,0.004367855843156576,-0.00262736645527184,0.0,0.0,0.0,0.0009032972157001495,0.0010033495491370559,-0.0,0.0,0.0,0.0,0.0013933302834630013,0.022358914837241173,-0.0008178924326784909,14753.0,12202.0,11697.0,15480.0,0.49056148529052734,0.32770830392837524,0.2993100881576538,0.5429826378822327,0.0,0.0,0.0,0.0,14762.0,12202.0,11705.0,15466.0,1.6388218402862549,-0.03963209663539054,0.07306932544279593,0.11112648257731192,-0.00396219315007329,0.002743916353210807,0.0
161,5,-1.1675982932501938e-05,9.332256013294682e-06,5.654168489854783e-05,0.0017029223963618279,0.0011364321690052748,0.0045381574891507626,-0.003251363756135106,-0.07685842365026474,-0.007116969209164381,-0.0025986144319176674,0.005747778341174126,0.000919737562071532,0.0,0.0,0.0,6.971302354941145e-05,-0.0003369176702108234,-0.0,0.0,0.0,0.0,0.0013759428402408957,0.02359314262866974,-0.000623186700977385,14823.0,11922.0,11579.0,15414.0,0.49548184871673584,0.31178855895996094,0.2928602695465088,0.5381332635879517,0.0,0.0,0.0,0.0,14791.0,11964.0,11555.0,15431.0,1.6293818950653076,-0.039080746385467165,0.07246196521868285,0.11167675978136207,0.0013228134484961629,0.0002105452149407938,0.0
166,5,-4.5170974772190675e-05,2.1601654225378297e-05,9.728742588777095e-05,-0.0033382298424839973,-0.0010177548974752426,-0.0030742257367819548,-0.003251363756135106,-0.07685842365026474,-0.007116969209164381,-0.0025986144319176674,0.005747778341174126,0.000919737562071532,0.0,0.0,0.0,6.971302354941145e-05,-0.0003369176702108234,-0.0,0.0,0.0,0.0,0.0013759428402408957,0.02359314262866974,-0.000623186700977385,14823.0,11922.0,11579.0,15414.0,0.49548184871673584,0.31178855895996094,0.2928602695465088,0.5381332635879517,0.0,0.0,0.0,0.0,14791.0,11964.0,11555.0,15431.0,1.6293818950653076,-0.03834096223802233,0.0741675401363268,0.11073469408530229,0.0013228134484961629,0.0002105452149407938,0.0
172,5,-3.234809264540672e-05,2.661689904925879e-05,3.707934956764802e-05,0.00020345396478660405,-0.0010089314309880137,0.005995278712362051,-0.0031987731344997883,-0.0768985003232956,-0.007161722984164953,0.012265518307685852,0.0031308948528021574,0.014106988906860352,0.0,0.0,0.0,0.0012777005322277546,-0.003188238712027669,-0.0,0.0,0.0,0.0,0.0010407018708065152,0.02366570010781288,-0.0008352616569027305,14846.0,11955.0,11541.0,15403.0,0.49712076783180237,0.3136321008205414,0.2907978594303131,0.5372710824012756,0.0,0.0,0.0,0.0,14798.0,11988.0,11501.0,15452.0,1.6619012355804443,-0.03810024970695408,0.07337993855841156,0.11106644998799393,0.012767529115080833,0.003935887012630701,0.0
177,5,-6.034459875081666e-05,1.0753123206086457e-05,6.0732207202818245e-05,-0.003278199350461364,0.0015000805724412203,-0.00044023164082318544,-0.0031987731344997883,-0.0768985003232956,-0.007161722984164953,0.012265518307685852,0.0031308948528021574,0.014106988906860352,0.0,0.0,0.0,0.0012777005322277546,-0.003188238712027669,-0.0,0.0,0.0,0.0,0.0010407018708065152,0.02366570010781288,-0.0008352616569027305,14846.0,11955.0,11541.0,15403.0,0.49712076783180237,0.3136321008205414,0.2907978594303131,0.5372710824012756,0.0,0.0,0.0,0.0,14798.0,11988.0,11501.0,15452.0,1.6619012355804443,-0.03809100347931605,0.07435237069981089,0.11038972650438984,0.012767529115080833,0.003935887012630701,0.0
182,5,-6.94785121595487e-05,1.4533678040606901e-05,6.567490345332772e-05,-0.002407349646091461,0.0001463655789848417,-0.0007692158105783165,-0.0031664050184190273,-0.07702083140611649,-0.00709721352905035,0.0032767397351562977,0.009113562293350697,0.015559160150587559,0.0,0.0,0.0,-0.0018054783577099442,-0.003150681499391794,-0.0,0.0,0.0,0.0,0.0010182569967582822,0.02358545921742916,-0.00014896702487021685,14978.0,11699.0,11725.0,15202.0,0.5064830780029297,0.2994298040866852,0.3008478581905365,0.5226211547851562,0.0,0.0,0.0,0.0,14719.0,12062.0,11416.0,15405.0,1.6630817651748657,-0.03830277194802288,0.07420271501674766,0.11075315299583148,0.01262608077377081,-0.005565625615417957,0.0
187,5,-5.675434658769518e-05,1.9152390450472012e-05,5.608089850284159e-05,0.0005639600567519665,-0.0004956991760991514,0.0008435939671471715,-0.0031664050184190273,-0.07702083140611649,-0.00709721352905035,0.0032767397351562977,0.009113562293350697,0.015559160150587559,0.0,0.0,0.0,-0.0018054783577099442,-0.003150681499391794,-0.0,0.0,0.0,0.0,0.0010182569967582822,0.02358545921742916,-0.00014896702487021685,14978.0,11699.0,11725.0,15202.0,0.5064830780029297,0.2994298040866852,0.3008478581905365,0.5226211547851562,0.0,0.0,0.0,0.0,14719.0,12062.0,11416.0,15405.0,1.6630817651748657,-0.03792309748311872,0.07396585067173844,0.11116658195382503,0.01262608077377081,-0.005565625615417957,0.0
192,5,-3.275953349657357e-05,-1.268043888558168e-05,8.509929466526955e-05,0.003104961710050702,0.0036216597072780132,-0.003144770162180066,-0.0030293178278952837,-0.07700655609369278,-0.007280545774847269,0.012596666812896729,0.004083927255123854,0.010607892647385597,0.0,0.0,0.0,0.0006491290405392647,0.0004578430962283164,-0.0,0.0,0.0,0.0,0.0009252960444428027,0.022349370643496513,-0.0016444316133856773,14493.0,12593.0,11288.0,15731.0,0.47245168685913086,0.3505222201347351,0.27725231647491455,0.5616750121116638,0.0,0.0,0.0,0.0,15307.0,11527.0,12372.0,14943.0,1.6329820156097412,-0.03912554810839183,0.07336157294040975,0.1105356999275507,-0.0018015647074207664,0.0019648117013275623,-0.0
197,5,-2.9305851057870314e-05,1.1816908227046952e-05,9.847858018474653e-05,0.0016564265824854374,-0.0014910177560523152,-0.0028634220361709595,-0.0030293178278952837,-0.07700655609369278,-0.007280545774847269,0.012596666812896729,0.004083927255123854,0.010607892647385597,0.0,0.0,0.0,0.0006491290405392647,0.0004578430962283164,-0.0,0.0,0.0,0.0,0.0009252960444428027,0.022349370643496513,-0.0016444316133856773,14493.0,12593.0,11288.0,15731.0,0.47245168685913086,0.3505222201347351,0.27725231647491455,0.5616750121116638,0.0,0.0,0.0,0.0,15307.0,11527.0,12372.0,14943.0,1.6329820156097412,-0.03972622744271856,0.07315019051106465,0.11118549818368618,-0.0018015647074207664,0.0019648117013275623,-0.0
202,5,-5.715193310606992e-06,1.282747780351201e-05,8.274478750536218e-05,0.0034934496507048607,-0.0007176754297688603,0.0007426862139254808,-0.003000041004270315,-0.07696247100830078,-0.007249625865370035,-0.012263077311217785,-0.006409454625099897,-0.10095392912626266,0.0,0.0,0.0,0.0018516803393140435,0.0015231301076710224,-0.0,0.0,0.0,0.0,0.0008587812772020698,0.021919848397374153,0.0024734879843890667,14351.0,12695.0,11194.0,15843.0,0.4627668857574463,0.3566293716430664,0.2723383903503418,0.5701665878295898,0.0,0.0,0.0,0.0,13908.0,13143.0,10663.0,16229.0,1.6481943130493164,-0.03914090153024656,0.0722957122733715,0.11168242580228122,-0.0060491785407066345,0.005656952504068613,0.0
207,5,-4.78376641694922e-05,-4.648624781111721e-06,0.00011749679106287658,-0.0036573167890310287,0.001810062094591558,-0.003873165464028716,-0.003000041004270315,-0.07696247100830078,-0.007249625865370035,-0.012263077311217785,-0.006409454625099897,-0.10095392912626266,0.0,0.0,0.0,0.0018516803393140435,0.0015231301076710224,-0.0,0.0,0.0,0.0,0.0008587812772020698,0.021919848397374153,0.0024734879843890667,14351.0,12695.0,11194.0,15843.0,0.4627668857574463,0.3566293716430664,0.2723383903503418,0.5701665878295898,0.0,0.0,0.0,0.0,13908.0,13143.0,10663.0,16229.0,1.6481943130493164,-0.037671606401699385,0.07388208231707992,0.11095731031798228,-0.0060491785407066345,0.005656952504068613,0.0
212,5,-1.625892036827281e-05,2.1262485461193137e-05,0.00011119306873297319,0.002326522720977664,-0.0023853082675486803,-0.0007928194827400148,-0.003000041004270315,-0.07696247100830078,-0.007249625865370035,-0.012263077311217785,-0.006409454625099897,-0.10095392912626266,0.0,0.0,0.0,-0.0022037646267563105,-0.003478529630228877,-0.0,0.0,0.0,0.0,0.0008587812772020698,0.021919848397374153,0.0024734879843890667,15779.0,10635.0,12972.0,14170.0,0.565283477306366,0.2438042312860489,0.373415470123291,0.4504789113998413,0.0,0.0,0.0,0.0,14126.0,12740.0,10745.0,15932.0,1.667801856994629,-0.038419093847951155,0.07361370290643264,0.11104314370020534,0.013979451730847359,-0.006812673527747393,0.0
217,5,5.017607236368349e-06,2.0697016225312836e-05,8.635252925159875e-06,0.0034837923012673855,-0.00088626699289307,0.011989809572696686,-0.003141219262033701,-0.07688868790864944,-0.006966348271816969,-0.03841351717710495,0.000752084597479552,0.0356326550245285,0.0,0.0,0.0,-0.0022037646267563105,-0.003478529630228877,-0.0,0.0,0.0,0.0,0.0018954334082081914,0.02388904243707657,-0.0009007174521684647,15779.0,10635.0,12972.0,14170.0,0.565283477306366,0.2438042312860489,0.373415470123291,0.4504789113998413,0.0,0.0,0.0,0.0,14126.0,12740.0,10745.0,15932.0,1.667801856994629,-0.03736687757228693,0.07249506366534585,0.11215316666375522,0.013979451730847359,-0.006812673527747393,0.0
222,5,8.087926289590541e-06,1.2540085663204081e-05,3.896427733707242e-05,0.0017619552090764046,0.0006243248353712261,0.0011564409360289574,-0.003141219262033701,-0.07688868790864944,-0.006966348271816969,-0.03841351717710495,0.000752084597479552,0.0356326550245285,0.0,0.0,0.0,0.0011157685657963157,0.003267949679866433,-0.0,0.0,0.0,0.0,0.0018954334082081914,0.02388904243707657,-0.0009007174521684647,15779.0,10635.0,12972.0,14170.0,0.565283477306366,0.2438042312860489,0.373415470123291,0.4504789113998413,0.0,0.0,0.0,0.0,14126.0,12740.0,10745.0,15932.0,1.6623698472976685,-0.03876094903944264,0.07189898487572702,0.11157634690897707,-0.01309042889624834,0.003438033862039447,-0.0
227,5,-1.0745949111878872e-05,3.301221295259893e-05,8.29614291433245e-05,-0.0015552829718217254,-0.0022069255355745554,-0.004817082080990076,-0.003829107852652669,-0.07700470089912415,-0.0071991183795034885,-0.10324456542730331,0.027217084541916847,-0.10312749445438385,0.0,0.0,0.0,0.0011157685657963157,0.003267949679866433,-0.0,0.0,0.0,0.0,0.0016642233822494745,0.02304394543170929,-0.0018899766728281975,14425.0,12613.0,11201.0,15914.0,0.46783310174942017,0.35172101855278015,0.27268949151039124,0.5755581855773926,0.0,0.0,0.0,0.0,15525.0,11001.0,12593.0,14731.0,1.6623698472976685,-0.04049381527257397,0.07145673915934933,0.11238813308633984,-0.01309042889624834,0.003438033862039447,-0.0
232,5,-2.4941722585936077e-05,5.274951035971753e-05,0.00015189933765213937,-0.0023256060667335987,-0.0032512459438294172,-0.010199381038546562,-0.003829107852652669,-0.07700470089912415,-0.0071991183795034885,-0.10324456542730331,0.027217084541916847,-0.10312749445438385,0.0,0.0,0.0,0.0027594915591180325,-0.0014788544503971934,-0.0,0.0,0.0,0.0,0.0016642233822494745,0.02304394543170929,-0.0018899766728281975,14425.0,12613.0,11201.0,15914.0,0.46783310174942017,0.35172101855278015,0.27268949151039124,0.5755581855773926,0.0,0.0,0.0,0.0,15525.0,11001.0,12593.0,14731.0,1.653671145439148,-0.042221743665118036,0.07131071308341433,0.1128473599088784,0.005892840679734945,0.008458352647721767,0.0
237,5,8.442021339760686e-07,0.00010495124297449365,0.00020912890613544732,0.0021640686318278313,-0.007564706262201071,-0.010947301052510738,-0.0054566566832363605,-0.07681752741336823,-0.007007208187133074,-0.18979878723621368,-0.046265579760074615,0.050370726734399796,0.0,0.0,0.0,0.0027594915591180325,-0.0014788544503971934,-0.0,0.0,0.0,0.0,0.004443441051989794,0.02308194525539875,0.002097201533615589,15617.0,10552.0,13105.0,14714.0,0.5531659722328186,0.2397134155035019,0.3816356062889099,0.48785480856895447,0.0,0.0,0.0,0.0,14037.0,12908.0,10920.0,16214.0,1.653671145439148,-0.04359633234199487,0.07169448502623084,0.11187070346779364,0.005892840679734945,0.008458352647721767,0.0
242,5,-1.1431066013756208e-06,0.00016344468167517334,0.0002839069638866931,0.0006271504098549485,-0.010045095346868038,-0.013352287001907825,-0.0054566566832363605,-0.07681752741336823,-0.007007208187133074,-0.18979878723621368,-0.046265579760074615,0.050370726734399796,0.0,0.0,0.0,0.009150276891887188,0.001974164741113782,-0.0,0.0,0.0,0.0,0.004443441051989794,0.02308194525539875,0.002097201533615589,15617.0,10552.0,13105.0,14714.0,0.5531659722328186,0.2397134155035019,0.3816356062889099,0.48785480856895447,0.0,0.0,0.0,0.0,14037.0,12908.0,10920.0,16214.0,1.7067021131515503,-0.0438842449404909,0.0712635336111282,0.11271291269407971,-0.00811847671866417,0.028946062549948692,0.0
247,5,-1.0557810128375422e-05,0.00021539515000768006,0.00033707733382470906,-0.0008789042476564646,-0.010252093896269798,-0.011721359565854073,-0.00814499706029892,-0.07636328041553497,-0.007610740605741739,-0.41953545808792114,-0.1533639281988144,0.08530443161725998,0.0,0.0,0.0,0.009150276891887188,0.001974164741113782,-0.0,0.0,0.0,0.0,0.009646903723478317,0.020864661782979965,-0.002041454892605543,13652.0,12198.0,11885.0,16236.0,0.4162444770336151,0.3274281322956085,0.3097287118434906,0.6002698540687561,0.0,0.0,0.0,0.0,14024.0,12367.0,11386.0,16257.0,1.7067021131515503,-0.04496244302036621,0.07041371874539648,0.11309963445772991,-0.00811847671866417,0.028946062549948692,0.0
253,5,-1.3595639757113531e-05,0.0002750458661466837,0.0004418673343025148,-0.0007161013199947774,-0.011258923448622227,-0.017263345420360565,-0.00814499706029892,-0.07636328041553497,-0.007610740605741739,-0.41953545808792114,-0.1533639281988144,0.08530443161725998,0.0,0.0,0.0,0.012341690249741077,-0.0008037955849431455,-0.0,0.0,0.0,0.0,0.009646903723478317,0.020864661782979965,-0.002041454892605543,13652.0,12198.0,11885.0,16236.0,0.4162444770336151,0.3274281322956085,0.3097287118434906,0.6002698540687561,0.0,0.0,0.0,0.0,14024.0,12367.0,11386.0,16257.0,1.7325365543365479,-0.04446091198653215,0.07112274964876805,0.11246342324694207,0.003355419496074319,0.03963196277618408,0.0
258,5,-5.617928036372177e-05,0.00036335387267172337,0.0005239552701823413,-0.005396477412432432,-0.015100531280040741,-0.01675589010119438,-0.01337028481066227,-0.07375585287809372,-0.007318422198295593,-0.47536972165107727,-0.3067302405834198,-0.10035187005996704,0.0,0.0,0.0,0.012341690249741077,-0.0008037955849431455,-0.0,0.0,0.0,0.0,0.013989957049489021,0.01643572561442852,-0.00220781983807683,13184.0,12520.0,12713.0,16440.0,0.38654083013534546,0.3462071418762207,0.3577282428741455,0.6162258982658386,0.0,0.0,0.0,0.0,14688.0,10752.0,13624.0,14936.0,1.7325365543365479,-0.04525058359090647,0.07035576096104838,0.11352357150553528,0.003355419496074319,0.03963196277618408,0.0
263,5,-0.00012117880396544933,0.00041544431587681174,0.0006346009904518723,-0.009958533570170403,-0.01229106541723013,-0.01997983828186989,-0.01337028481066227,-0.07375585287809372,-0.007318422198295593,-0.47536972165107727,-0.3067302405834198,-0.10035187005996704,0.0,0.0,0.0,0.017658483237028122,-0.004760867916047573,-0.0,0.0,0.0,0.0,0.013989957049489021,0.01643572561442852,-0.00220781983807683,13184.0,12520.0,12713.0,16440.0,0.38654083013534546,0.3462071418762207,0.3577282428741455,0.6162258982658386,0.0,0.0,0.0,0.0,14688.0,10752.0,13624.0,14936.0,1.7913849353790283,-0.04700517720070418,0.06834375088997212,0.11351119955527542,0.02054743282496929,0.05862864479422569,0.0
268,5,-0.00014923998969607055,0.0005117631517350674,0.0006768049788661301,-0.0073507558554410934,-0.016474686563014984,-0.013056417927145958,-0.017382601276040077,-0.07020821422338486,-0.007116654422134161,-0.508154571056366,-0.6239091753959656,0.07141382992267609,0.0,0.0,0.0,0.017658483237028122,-0.004760867916047573,-0.0,0.0,0.0,0.0,0.016056513413786888,0.008889855816960335,0.0013491761637851596,13881.0,11410.0,14728.0,14928.0,0.43120428919792175,0.2837285101413727,0.4888056814670563,0.502963662147522,0.0,0.0,0.0,0.0,12719.0,12855.0,12820.0,16465.0,1.7913849353790283,-0.044220593847563085,0.0662294111056565,0.11494417737007524,0.02054743282496929,0.05862864479422569,0.0
273,5,-0.0002605000918265432,0.0005462325643748045,0.0008177104173228145,-0.01629151590168476,-0.01072620041668415,-0.022131219506263733,-0.017382601276040077,-0.07020821422338486,-0.007116654422134161,-0.508154571056366,-0.6239091753959656,0.07141382992267609,0.0,0.0,0.0,0.019221331924200058,-0.006498061586171389,-0.0,0.0,0.0,0.0,0.016056513413786888,0.008889855816960335,0.0013491761637851596,13881.0,11410.0,14728.0,14928.0,0.43120428919792175,0.2837285101413727,0.4888056814670563,0.502963662147522,0.0,0.0,0.0,0.0,12719.0,12855.0,12820.0,16465.0,1.813374400138855,-0.04294468688662852,0.06260265014096157,0.11578881152299034,0.028388334438204765,0.06459976732730865,0.0
278,5,-0.00034327691537328064,0.0006138228927738965,0.0008793611777946353,-0.0164498221129179,-0.012401326559484005,-0.016250576823949814,-0.02270100638270378,-0.06152553856372833,-0.007473091594874859,-0.364391952753067,-0.855023980140686,-0.07905513048171997,0.0,0.0,0.0,0.019221331924200058,-0.006498061586171389,-0.0,0.0,0.0,0.0,0.01655900850892067,-0.00012182958016637713,-0.0035223374143242836,11235.0,14406.0,14122.0,16274.0,0.2744442820549011,0.4665217399597168,0.4472196102142334,0.6031992435455322,0.0,0.0,0.0,0.0,12860.0,12583.0,14609.0,15378.0,1.813374400138855,-0.04162764593405782,0.05902863335041857,0.11724923169358631,0.028388334438204765,0.06459976732730865,0.0
283,5,-0.0004285004979465157,0.0006263069808483124,0.0009349976317025721,-0.01680675894021988,-0.006458616815507412,-0.01317660789936781,-0.02270100638270378,-0.06152553856372833,-0.007473091594874859,-0.364391952753067,-0.855023980140686,-0.07905513048171997,0.0,0.0,0.0,0.00822815764695406,-0.014956417493522167,-0.0,0.0,0.0,0.0,0.01655900850892067,-0.00012182958016637713,-0.0035223374143242836,11235.0,14406.0,14122.0,16274.0,0.2744442820549011,0.4665217399597168,0.4472196102142334,0.6031992435455322,0.0,0.0,0.0,0.0,12860.0,12583.0,14609.0,15378.0,1.8143987655639648,-0.037498009542673245,0.05471386923589785,0.11776523255251006,0.06538548320531845,0.02767164818942547,0.0
288,5,-0.0005367004196159542,0.0006105910870246589,0.0009689239668659866,-0.019706696271896362,-0.0006975407595746219,-0.009341797791421413,-0.02270100638270378,-0.06152553856372833,-0.007473091594874859,-0.364391952753067,-0.855023980140686,-0.07905513048171997,0.0,0.0,0.0,0.00822815764695406,-0.014956417493522167,-0.0,0.0,0.0,0.0,0.01445790845900774,-0.011612409725785255,0.0021950206719338894,13191.0,13145.0,16452.0,13448.0,0.38696882128715515,0.3840865194797516,0.6171733140945435,0.4031563103199005,0.0,0.0,0.0,0.0,12099.0,13787.0,15187.0,15207.0,1.8143987655639648,-0.03567583043026556,0.05017670280859708,0.11764838190137698,0.06538548320531845,0.02767164818942547,0.0
293,5,-0.000633813557215035,0.0005904815625399351,0.0010431867558509111,-0.019536253064870834,0.0021341252140700817,-0.012648261152207851,-0.02270100638270378,-0.06152553856372833,-0.007473091594874859,-0.364391952753067,-0.855023980140686,-0.07905513048171997,0.0,0.0,0.0,0.00822815764695406,-0.014956417493522167,-0.0,0.0,0.0,0.0,0.01445790845900774,-0.011612409725785255,0.0021950206719338894,13191.0,13145.0,16452.0,13448.0,0.38696882128715515,0.3840865194797516,0.6171733140945435,0.4031563103199005,0.0,0.0,0.0,0.0,12099.0,13787.0,15187.0,15207.0,1.8143987655639648,-0.031296735874247035,0.0449091490067308,0.11758245822450095,0.06538548320531845,0.02767164818942547,0.0
298,5,-0.0007408620440401137,0.000537609274033457,0.0011354907182976604,-0.02066032402217388,0.007198329549282789,-0.01613578014075756,-0.022907866165041924,-0.04035528004169464,-0.006944832392036915,0.299150675535202,-1.1439861059188843,-0.03386944904923439,0.0,0.0,0.0,-0.0013994581531733274,-0.017409797757864,-0.0,0.0,0.0,0.0,0.00972195528447628,-0.015906458720564842,-0.0031303702853620052,11328.0,15571.0,14962.0,14586.0,0.27935653924942017,0.5497179627418518,0.5053631067276001,0.4789368510246277,0.0,0.0,0.0,0.0,11903.0,14648.0,15578.0,14445.0,1.829655647277832,-0.02791112230071925,0.03953754769856236,0.11836422503760162,0.07675252109766006,-0.004746107384562492,0.0
303,5,-0.0008628855575807393,0.0004539502551779151,0.001226015854626894,-0.022906949743628502,0.012918412685394287,-0.017317328602075577,-0.022907866165041924,-0.04035528004169464,-0.006944832392036915,0.299150675535202,-1.1439861059188843,-0.03386944904923439,0.0,0.0,0.0,-0.0013994581531733274,-0.017409797757864,-0.0,0.0,0.0,0.0,0.00972195528447628,-0.015906458720564842,-0.0031303702853620052,11328.0,15571.0,14962.0,14586.0,0.27935653924942017,0.5497179627418518,0.5053631067276001,0.4789368510246277,0.0,0.0,0.0,0.0,11903.0,14648.0,15578.0,14445.0,1.829655647277832,-0.024103551996950218,0.03586936262896726,0.11795409221888742,0.07675252109766006,-0.004746107384562492,0.0
308,5,-0.0009094070992432535,0.00033881221315823495,0.0012618153123185039,-0.014745363034307957,0.018983928486704826,-0.011222855187952518,-0.0192492064088583,-0.03142809867858887,-0.005963497329503298,0.5778087377548218,-1.0511082410812378,0.045151375234127045,0.0,0.0,0.0,-0.013091608881950378,-0.019876014441251755,-0.0,0.0,0.0,0.0,-0.0006723346305079758,-0.021198121830821037,0.0020019442308694124,13548.0,14934.0,16187.0,11798.0,0.4095977246761322,0.5033976435661316,0.596511960029602,0.304891437292099,0.0,0.0,0.0,0.0,12518.0,16457.0,14740.0,13018.0,1.8931238651275635,-0.0227187356271934,0.029411407825244186,0.11699689164909755,0.09065555036067963,-0.04593651741743088,0.0
313,5,-0.0009756233193911612,0.00034374953247606754,0.001244535786099732,-0.013844091445207596,0.007001091260462999,-0.0024156065192073584,-0.0192492064088583,-0.03142809867858887,-0.005963497329503298,0.5778087377548218,-1.0511082410812378,0.045151375234127045,0.0,0.0,0.0,-0.013091608881950378,-0.019876014441251755,-0.0,0.0,0.0,0.0,-0.0006723346305079758,-0.021198121830821037,0.0020019442308694124,13548.0,14934.0,16187.0,11798.0,0.4095977246761322,0.5033976435661316,0.596511960029602,0.304891437292099,0.0,0.0,0.0,0.0,12518.0,16457.0,14740.0,13018.0,1.8931238651275635,-0.012704413373287763,0.030089658013431598,0.11849852928354192,0.09065555036067963,-0.04593651741743088,0.0
319,5,-0.0009930188534781337,0.00027925308677367866,0.001245393417775631,-0.007625102531164885,0.010540011338889599,-0.001069151097908616,-0.011137699708342552,-0.020650740712881088,-0.006289567332714796,0.7251493334770203,-0.7631068229675293,0.004584942013025284,0.0,0.0,0.0,-0.0073329065926373005,-0.013271773234009743,-0.0,0.0,0.0,0.0,-0.007730020675808191,-0.01790819689631462,-0.001928614336065948,12779.0,16485.0,14279.0,13245.0,0.36168843507766724,0.619777500629425,0.4578520953655243,0.39033758640289307,0.0,0.0,0.0,0.0,14671.0,15853.0,15230.0,11939.0,1.7916264533996582,-0.008121781255266369,0.027101190925448743,0.11897382572090447,0.05729330703616142,-0.024351464584469795,0.0
324,5,-0.0010427245870232582,0.00019750188221223652,0.0012579836184158921,-0.009014728479087353,0.014026150107383728,-0.0019384932238608599,-0.011137699708342552,-0.020650740712881088,-0.006289567332714796,0.7251493334770203,-0.7631068229675293,0.004584942013025284,0.0,0.0,0.0,-0.0073329065926373005,-0.013271773234009743,-0.0,0.0,0.0,0.0,-0.007730020675808191,-0.01790819689631462,-0.001928614336065948,12779.0,16485.0,14279.0,13245.0,0.36168843507766724,0.619777500629425,0.4578520953655243,0.39033758640289307,0.0,0.0,0.0,0.0,14671.0,15853.0,15230.0,11939.0,1.7916264533996582,-0.004746676329010574,0.025988218026692565,0.11846721003530263,0.05729330703616142,-0.024351464584469795,0.0
329,5,-0.001085552852600813,1.4674609701614827e-05,0.0013849524548277259,-0.008745277300477028,0.027549732476472855,-0.016011660918593407,-0.005311702378094196,-0.016275325790047646,-0.005488474387675524,0.7038857936859131,-0.3654811978340149,0.020623110234737396,0.0,0.0,0.0,-0.015447752550244331,-0.009127671830356121,-0.0,0.0,0.0,0.0,-0.013904212974011898,-0.011746554635465145,0.0016210178146138787,15164.0,15528.0,14982.0,12066.0,0.5198643803596497,0.5465614199638367,0.5067873597145081,0.3199106752872467,0.0,0.0,0.0,0.0,14090.0,15667.0,13280.0,13352.0,1.7986936569213867,-0.00901101110740581,0.02035885268606115,0.1166008080404798,0.03955589979887009,-0.051499105989933014,0.0
334,5,-0.0010852576233446598,8.136046380968764e-05,0.001298802555538714,-0.003462695749476552,0.003017590381205082,0.003933335654437542,-0.005311702378094196,-0.016275325790047646,-0.005488474387675524,0.7038857936859131,-0.3654811978340149,0.020623110234737396,0.0,0.0,0.0,-0.015447752550244331,-0.009127671830356121,-0.0,0.0,0.0,0.0,-0.013904212974011898,-0.011746554635465145,0.0016210178146138787,15164.0,15528.0,14982.0,12066.0,0.5198643803596497,0.5465614199638367,0.5067873597145081,0.3199106752872467,0.0,0.0,0.0,0.0,14090.0,15667.0,13280.0,13352.0,1.7986936569213867,0.0007833873168518748,0.026548853304645285,0.11874730432115368,0.03955589979887009,-0.051499105989933014,0.0
339,5,-0.0010852976702153683,4.7671925130998716e-05,0.0013312618248164654,-0.0013898788020014763,0.005249660462141037,-0.0023217792622745037,0.002006785711273551,-0.014646376483142376,-0.0054412889294326305,0.5104209184646606,0.023339755833148956,0.06317456066608429,0.0,0.0,0.0,-0.0034762276336550713,-0.004673748277127743,-0.0,0.0,0.0,0.0,-0.011270235292613506,-0.00016292369400616735,-0.0002873613266274333,14725.0,14947.0,13287.0,13487.0,0.4886457920074463,0.5043246150016785,0.3929697275161743,0.40568631887435913,0.0,0.0,0.0,0.0,15659.0,13838.0,14028.0,12850.0,1.6847468614578247,0.001674543199338774,0.027182041710976317,0.11913104139321061,0.01897350884974003,-0.010855499655008316,-0.0
344,5,-0.0010494269663468003,-8.745377999730408e-05,0.0013230956392362714,0.0037485382054001093,0.018314948305487633,5.122864240547642e-05,0.002006785711273551,-0.014646376483142376,-0.0054412889294326305,0.5104209184646606,0.023339755833148956,0.06317456066608429,0.0,0.0,0.0,-0.0034762276336550713,-0.004673748277127743,-0.0,0.0,0.0,0.0,-0.011270235292613506,-0.00016292369400616735,-0.0002873613266274333,14725.0,14947.0,13287.0,13487.0,0.4886457920074463,0.5043246150016785,0.3929697275161743,0.40568631887435913,0.0,0.0,0.0,0.0,15659.0,13838.0,14028.0,12850.0,1.6847468614578247,-0.0025822107358940876,0.024805675225038463,0.11730302184341262,0.01897350884974003,-0.010855499655008316,-0.0
349,5,-0.0010560611262917519,-2.918481004599016e-05,0.0012901672162115574,0.0007033185684122145,0.0003337032103445381,0.0039719040505588055,0.002006785711273551,-0.014646376483142376,-0.0054412889294326305,0.5104209184646606,0.023339755833148956,0.06317456066608429,0.0,0.0,0.0,-0.020602334290742874,0.0018936835695058107,-0.0,0.0,0.0,0.0,-0.011270235292613506,-0.00016292369400616735,-0.0002873613266274333,14725.0,14947.0,13287.0,13487.0,0.4886457920074463,0.5043246150016785,0.3929697275161743,0.40568631887435913,0.0,0.0,0.0,0.0,15659.0,13838.0,14028.0,12850.0,1.8110026121139526,0.0033738832588214142,0.02978800764980924,0.11867240995036246,-0.00826201494783163,-0.06914937496185303,-0.0
354,5,-0.0010709544876590371,-4.663364961743355e-05,0.001326702767983079,-0.0015058801509439945,0.002227341989055276,-0.002795516513288021,0.0048643071204423904,-0.01589796505868435,-0.0049750651232898235,0.2241196632385254,0.21918056905269623,-0.0358487144112587,0.0,0.0,0.0,-0.020602334290742874,0.0018936835695058107,-0.0,0.0,0.0,0.0,-0.010609556920826435,0.0075746579095721245,-0.00014580527204088867,15252.0,14378.0,12849.0,14043.0,0.5262326002120972,0.4645759165287018,0.3659103810787201,0.4419747292995453,0.0,0.0,0.0,0.0,14536.0,14968.0,12044.0,14869.0,1.8110026121139526,0.002905382055577683,0.02987907478723592,0.11881755777726868,-0.00826201494783163,-0.06914937496185303,-0.0
359,5,-0.001079077017493546,-7.57336601964198e-05,0.001353663858026266,-0.0015770619502291083,0.004382937680929899,-0.004353535361588001,0.0048643071204423904,-0.01589796505868435,-0.0049750651232898235,0.2241196632385254,0.21918056905269623,-0.0358487144112587,0.0,0.0,0.0,-0.0027859339024871588,-0.002882853150367737,-0.0,0.0,0.0,0.0,-0.010609556920826435,0.0075746579095721245,-0.00014580527204088867,15252.0,14378.0,12849.0,14043.0,0.5262326002120972,0.4645759165287018,0.3659103810787201,0.4419747292995453,0.0,0.0,0.0,0.0,14536.0,14968.0,12044.0,14869.0,1.6647292375564575,0.0016449064315392909,0.028902017376194706,0.11827379488855344,0.011564203538000584,-0.008596505038440228,0.0
364,5,-0.001139021827839315,-0.00013854274584446102,0.0013947467086836696,-0.007824202999472618,0.009290266782045364,-0.006671348121017218,0.0061045559123158455,-0.0180977750569582,-0.005380307324230671,-0.0028509139083325863,0.13605892658233643,0.007984727621078491,0.0,0.0,0.0,-0.0027859339024871588,-0.002882853150367737,-0.0,0.0,0.0,0.0,-0.004749301355332136,0.005968630313873291,-0.0005892173503525555,14165.0,13734.0,12469.0,14454.0,0.45015424489974976,0.42160630226135254,0.3432011604309082,0.4697851538658142,0.0,0.0,0.0,0.0,14527.0,13171.0,13215.0,13949.0,1.6647292375564575,-0.001755637783484437,0.029166645964677183,0.11685254692275905,0.011564203538000584,-0.008596505038440228,0.0
369,5,-0.0011694779386743903,-0.0001519990764791146,0.0014869485748931766,-0.006784413475543261,0.005330866202712059,-0.01373276300728321,0.0061045559123158455,-0.0180977750569582,-0.005380307324230671,-0.0028509139083325863,0.13605892658233643,0.007984727621078491,0.0,0.0,0.0,-0.010906456038355827,-0.008401148952543736,-0.0,0.0,0.0,0.0,-0.004749301355332136,0.005968630313873291,-0.0005892173503525555,14165.0,13734.0,12469.0,14454.0,0.45015424489974976,0.42160630226135254,0.3432011604309082,0.4697851538658142,0.0,0.0,0.0,0.0,14527.0,13171.0,13215.0,13949.0,1.7604862451553345,-0.004231794116511975,0.02473692231894282,0.11681280198070153,0.03563627228140831,-0.03558845818042755,0.0
374,5,-0.00121906993445009,-7.17498260200955e-05,0.001367708551697433,-0.008664795197546482,-0.007497564423829317,0.008815699256956577,0.00507162744179368,-0.018416769802570343,-0.005236746743321419,-0.22536228597164154,-0.09362086653709412,-0.03468365594744682,0.0,0.0,0.0,-0.010906456038355827,-0.008401148952543736,-0.0,0.0,0.0,0.0,0.0042294692248106,-0.0016004081116989255,-0.00013372331159189343,14685.0,14320.0,13249.0,14514.0,0.48579615354537964,0.4606474041938782,0.39059364795684814,0.4739654064178467,0.0,0.0,0.0,0.0,13979.0,14794.0,13125.0,14844.0,1.7604862451553345,-0.0015321480352937051,0.02678446141681829,0.11855496735436961,0.03563627228140831,-0.03558845818042755,0.0
379,5,-0.0012658694759011269,-4.533471292234026e-05,0.0013476881431415677,-0.00908186286687851,-0.006168839521706104,0.005928726401180029,0.00507162744179368,-0.018416769802570343,-0.005236746743321419,-0.22536228597164154,-0.09362086653709412,-0.03468365594744682,0.0,0.0,0.0,0.00852860789746046,-0.009281152859330177,-0.0,0.0,0.0,0.0,0.0042294692248106,-0.0016004081116989255,-0.00013372331159189343,14685.0,14320.0,13249.0,14514.0,0.48579615354537964,0.4606474041938782,0.39059364795684814,0.4739654064178467,0.0,0.0,0.0,0.0,13979.0,14794.0,13125.0,14844.0,1.7543652057647705,-0.003208764960349871,0.02515115329155335,0.11899342850885627,0.039233025163412094,0.02773301862180233,-0.0
384,5,-0.0013439375907182693,-6.193329318193719e-05,0.0013757646083831787,-0.013000928796827793,-0.00047570603783242404,-0.000997692346572876,0.0012911050580441952,-0.016089657321572304,-0.005310541484504938,-0.38949739933013916,-0.2915564477443695,0.03920910879969597,0.0,0.0,0.0,0.00852860789746046,-0.009281152859330177,-0.0,0.0,0.0,0.0,0.004941361956298351,-0.0065357983112335205,-0.002035838318988681,13198.0,13532.0,13989.0,13869.0,0.38737383484840393,0.4085298478603363,0.43838390707969666,0.43044164776802063,0.0,0.0,0.0,0.0,13235.0,13325.0,14414.0,13595.0,1.7543652057647705,-0.004953421885888349,0.02336058577546175,0.11868507586777499,0.039233025163412094,0.02773301862180233,-0.0
390,5,-0.0014136829413473606,-4.627153975889087e-05,0.0014205655315890908,-0.01356980949640274,-0.0020696925930678844,-0.005775189958512783,0.0012911050580441952,-0.016089657321572304,-0.005310541484504938,-0.38949739933013916,-0.2915564477443695,0.03920910879969597,0.0,0.0,0.0,0.0004419900942593813,-0.013130811043083668,-0.0,0.0,0.0,0.0,0.004941361956298351,-0.0065357983112335205,-0.002035838318988681,13198.0,13532.0,13989.0,13869.0,0.38737383484840393,0.4085298478603363,0.43838390707969666,0.43044164776802063,0.0,0.0,0.0,0.0,13235.0,13325.0,14414.0,13595.0,1.7757811546325684,-0.007243358082180162,0.020909181690967484,0.11866666388386495,0.05618499964475632,0.0014548242324963212,0.0
395,5,-0.0014935910003259778,-5.449528180179186e-05,0.0015093924012035131,-0.015016896650195122,0.0001589716994203627,-0.012969299219548702,-0.0022743314038962126,-0.013516722247004509,-0.005394264589995146,-0.44986119866371155,-0.351385235786438,-0.07124761492013931,0.0,0.0,0.0,0.0004419900942593813,-0.013130811043083668,-0.0,0.0,0.0,0.0,0.011025788262486458,-0.006966835353523493,0.00031906671938486397,12872.0,13630.0,15244.0,14112.0,0.3672809898853302,0.41485169529914856,0.5256657600402832,0.44656673073768616,0.0,0.0,0.0,0.0,12192.0,15007.0,13935.0,14745.0,1.7757811546325684,-0.010378501151375938,0.017654474377728647,0.11813089230162994,0.05618499964475632,0.0014548242324963212,0.0
400,5,-0.0016285099554806948,-0.00011236312275286764,0.0016011077677831054,-0.02219703048467636,0.0070077297277748585,-0.016193559393286705,-0.0022743314038962126,-0.013516722247004509,-0.005394264589995146,-0.44986119866371155,-0.351385235786438,-0.07124761492013931,0.0,0.0,0.0,-0.0002654471027199179,-0.014907530508935452,-0.0,0.0,0.0,0.0,0.011025788262486458,-0.006966835353523493,0.00031906671938486397,12872.0,13630.0,15244.0,14112.0,0.3672809898853302,0.41485169529914856,0.5256657600402832,0.44656673073768616,0.0,0.0,0.0,0.0,12192.0,15007.0,13935.0,14745.0,1.7976734638214111,-0.015113140418230775,0.016512670174054174,0.11702603318652083,0.06457319855690002,-0.0008844989934004843,0.0
405,5,-0.0016362580936402082,-0.00014859801740385592,0.001633096020668745,-0.009808584116399288,0.00715128006413579,-0.010316017083823681,-0.010474830865859985,-0.008011927828192711,-0.005823247600346804,-0.34431639313697815,-0.19076068699359894,-0.03497166186571121,0.0,0.0,0.0,-0.0002654471027199179,-0.014907530508935452,-0.0,0.0,0.0,0.0,0.009240599349141121,-0.005820587743073702,-0.002396147232502699,12040.0,14741.0,14178.0,15117.0,0.3184645175933838,0.4897657036781311,0.45103931427001953,0.5165116190910339,0.0,0.0,0.0,0.0,12624.0,13825.0,14972.0,14433.0,1.7976734638214111,-0.0192741307857683,0.012215836495604983,0.11652162484688831,0.06457319855690002,-0.0008844989934004843,0.0
410,5,-0.0017567705363035202,-0.00010853807179955766,0.001796152675524354,-0.018384933471679688,-0.0019466823432594538,-0.023693207651376724,-0.010474830865859985,-0.008011927828192711,-0.005823247600346804,-0.34431639313697815,-0.19076068699359894,-0.03497166186571121,0.0,0.0,0.0,-0.008425917476415634,-0.010754212737083435,-0.0,0.0,0.0,0.0,0.009240599349141121,-0.005820587743073702,-0.002396147232502699,12040.0,14741.0,14178.0,15117.0,0.3184645175933838,0.4897657036781311,0.45103931427001953,0.5165116190910339,0.0,0.0,0.0,0.0,12624.0,13825.0,14972.0,14433.0,1.7687485218048096,-0.01904059267978781,0.01216159315423219,0.11751398719698028,0.045832425355911255,-0.027623740956187248,0.0
415,5,-0.0017842920497059822,-8.680623432155699e-05,0.001733823912218213,-0.010656546801328659,-0.0033864928409457207,-0.0019978240597993135,-0.013573167845606804,-0.0059967138804495335,-0.005506481043994427,-0.19212917983531952,-0.13199402391910553,0.0073761725798249245,0.0,0.0,0.0,-0.008425917476415634,-0.010754212737083435,-0.0,0.0,0.0,0.0,0.007425209973007441,-0.005188430659472942,0.0002546912000980228,13314.0,13851.0,14968.0,14104.0,0.39464807510375977,0.42923206090927124,0.5058260560035706,0.4460749626159668,0.0,0.0,0.0,0.0,12888.0,14100.0,14834.0,14390.0,1.7687485218048096,-0.01668401303949504,0.014185103237429613,0.11867691336276831,0.045832425355911255,-0.027623740956187248,0.0
420,5,-0.0018118831794708967,-0.000140073912916705,0.0017171830404549837,-0.007573562674224377,0.005037523340433836,0.001197779318317771,-0.013573167845606804,-0.0059967138804495335,-0.005506481043994427,-0.19212917983531952,-0.13199402391910553,0.0073761725798249245,0.0,0.0,0.0,0.0037434205878525972,-0.011731059290468693,-0.0,0.0,0.0,0.0,0.007425209973007441,-0.005188430659472942,0.0002546912000980228,13314.0,13851.0,14968.0,14104.0,0.39464807510375977,0.42923206090927124,0.5058260560035706,0.4460749626159668,0.0,0.0,0.0,0.0,12888.0,14100.0,14834.0,14390.0,1.7629437446594238,-0.016872176521450018,0.01387749499267237,0.1185534462552451,0.04983271658420563,0.012232459150254726,0.0
425,5,-0.0018536822171881795,-0.00016430352116003633,0.0017162809381261468,-0.008045298978686333,0.004922563210129738,0.0005873562186025083,-0.014475861564278603,-0.005318268667906523,-0.0058572604320943356,-0.06651583313941956,-0.05939091369509697,0.021970899775624275,0.0,0.0,0.0,0.0037434205878525972,-0.011731059290468693,-0.0,0.0,0.0,0.0,0.003094016807153821,-0.0030966957565397024,-0.001284023281186819,13128.0,14524.0,13982.0,14503.0,0.38305503129959106,0.4746466875076294,0.4378793239593506,0.4731674790382385,0.0,0.0,0.0,0.0,12793.0,14573.0,14426.0,14735.0,1.7629437446594238,-0.01638177075488331,0.01410175029985577,0.1184169002002447,0.04983271658420563,0.012232459150254726,0.0
430,5,-0.001908687874674797,-0.00019264045113231987,0.0017190288053825498,-0.009818808175623417,0.005369456019252539,-9.48056040215306e-05,-0.014475861564278603,-0.005318268667906523,-0.0058572604320943356,-0.06651583313941956,-0.05939091369509697,0.021970899775624275,0.0,0.0,0.0,-0.005980599205940962,-0.009610484354197979,-0.0,0.0,0.0,0.0,0.003094016807153821,-0.0030966957565397024,-0.001284023281186819,13128.0,14524.0,13982.0,14503.0,0.38305503129959106,0.4746466875076294,0.4378793239593506,0.4731674790382385,0.0,0.0,0.0,0.0,12793.0,14573.0,14426.0,14735.0,1.7458492517471313,-0.016626561034596945,0.01351047702268189,0.11897398503837099,0.04042867198586464,-0.019353311508893967,-0.0
435,5,-0.0019654494244605303,-0.00021913793170824647,0.001741577871143818,-0.010738911107182503,0.005327481310814619,-0.002743805991485715,-0.01464634109288454,-0.004751291591674089,-0.005518920253962278,0.014366192743182182,-0.026394952088594437,-0.021186742931604385,0.0,0.0,0.0,-0.005980599205940962,-0.009610484354197979,-0.0,0.0,0.0,0.0,0.0018208724213764071,-0.0026977460365742445,-0.00033504035673104227,13614.0,14235.0,14223.0,14104.0,0.41379934549331665,0.45487773418426514,0.45402151346206665,0.44604992866516113,0.0,0.0,0.0,0.0,13940.0,13801.0,14699.0,13722.0,1.7458492517471313,-0.016990748801131297,0.013262321102934025,0.11874018931745624,0.04042867198586464,-0.019353311508893967,-0.0
440,5,-0.002023809589445591,-0.0002654499257914722,0.0017374914605170488,-0.011298767291009426,0.0076884315349161625,-0.0006071535171940923,-0.01464634109288454,-0.004751291591674089,-0.005518920253962278,0.014366192743182182,-0.026394952088594437,-0.021186742931604385,0.0,0.0,0.0,-0.006440950557589531,-0.01196939405053854,-0.0,0.0,0.0,0.0,0.0018208724213764071,-0.0026977460365742445,-0.00033504035673104227,13614.0,14235.0,14223.0,14104.0,0.41379934549331665,0.45487773418426514,0.45402151346206665,0.44604992866516113,0.0,0.0,0.0,0.0,13940.0,13801.0,14699.0,13722.0,1.7735854387283325,-0.016563810064686695,0.013388792295133227,0.11878812424167333,0.05115131661295891,-0.0211741104722023,0.0
445,5,-0.0020667933858931065,-0.0003028127539437264,0.0017546206945553422,-0.009677568450570107,0.007558912970125675,-0.0022983697708696127,-0.014454130083322525,-0.004403214436024427,-0.005474423989653587,0.020136335864663124,-0.04430283233523369,0.04118827357888222,0.0,0.0,0.0,-0.006440950557589531,-0.01196939405053854,-0.0,0.0,0.0,0.0,0.005179975181818008,-0.0030470427591353655,0.00023025504196994007,13559.0,13810.0,14639.0,14066.0,0.4102464020252228,0.42657050490379333,0.48260173201560974,0.443525105714798,0.0,0.0,0.0,0.0,13100.0,14286.0,14094.0,14572.0,1.7735854387283325,-0.0175760936070957,0.01207905128769474,0.11935896342381047,0.05115131661295891,-0.0211741104722023,0.0
450,5,-0.002134803682565689,-0.00034615458571352065,0.001778475008904934,-0.012032258324325085,0.008224583230912685,-0.0037818639539182186,-0.014454130083322525,-0.004403214436024427,-0.005474423989653587,0.020136335864663124,-0.04430283233523369,0.04118827357888222,0.0,0.0,0.0,-0.009112967178225517,-0.011153454892337322,-0.0,0.0,0.0,0.0,0.005179975181818008,-0.0030470427591353655,0.00023025504196994007,13559.0,13810.0,14639.0,14066.0,0.4102464020252228,0.42657050490379333,0.48260173201560974,0.443525105714798,0.0,0.0,0.0,0.0,13100.0,14286.0,14094.0,14572.0,1.776277780532837,-0.01834571797326247,0.011377704404327374,0.11943979982623164,0.04773590713739395,-0.030003251507878304,0.0
456,5,-0.0023047749418765306,-0.00048210390377789736,0.0017630207585170865,-0.013261048123240471,0.012697238475084305,0.00633347500115633,-0.014076322317123413,-0.0038327749352902174,-0.005328769329935312,0.022939316928386688,-0.08207304775714874,-0.033654145896434784,0.0,0.0,0.0,-0.009112967178225517,-0.011153454892337322,-0.0,0.0,0.0,0.0,0.00186975859105587,-0.003045277437195182,-0.00102219358086586,13229.0,14420.0,13910.0,14251.0,0.3893090486526489,0.46749699115753174,0.4331119656562805,0.45593124628067017,0.0,0.0,0.0,0.0,14060.0,13628.0,14603.0,13523.0,1.776277780532837,-0.020686625654666238,0.010186471064597179,0.11798721727592103,0.04773590713739395,-0.030003251507878304,0.0
461,5,-0.0024235050659626722,-0.0005379279027692974,0.0018807542510330677,-0.019552050158381462,0.01177777349948883,-0.011594628915190697,-0.014076322317123413,-0.0038327749352902174,-0.005328769329935312,0.022939316928386688,-0.08207304775714874,-0.033654145896434784,0.0,0.0,0.0,-0.014751519076526165,-0.014109867624938488,-0.0,0.0,0.0,0.0,0.00186975859105587,-0.003045277437195182,-0.00102219358086586,13229.0,14420.0,13910.0,14251.0,0.3893090486526489,0.46749699115753174,0.4331119656562805,0.45593124628067017,0.0,0.0,0.0,0.0,14060.0,13628.0,14603.0,13523.0,1.8382465839385986,-0.021422968421479022,0.00592580010253224,0.11812970099430754,0.06249092146754265,-0.05025976151227951,-0.0
466,5,-0.0024817073717713356,-0.0005305050290189683,0.0017654771218076348,-0.014805074781179428,0.003820365760475397,0.009195411577820778,-0.013773329555988312,-0.002817684318870306,-0.005055963061749935,0.022459005936980247,-0.1579665094614029,0.03499399125576019,0.0,0.0,0.0,-0.014751519076526165,-0.014109867624938488,-0.0,0.0,0.0,0.0,0.0016291114734485745,-0.0061575500294566154,0.0007360659656114876,13810.0,14106.0,14838.0,13465.0,0.4265689253807068,0.44617974758148193,0.49659067392349243,0.40424609184265137,0.0,0.0,0.0,0.0,13349.0,14535.0,14191.0,14155.0,1.8382465839385986,-0.014906102943724556,0.009750702544215306,0.11910989066451652,0.06249092146754265,-0.05025976151227951,-0.0
471,5,-0.002599684987217188,-0.0005851535242982209,0.0017398709896951914,-0.0200793519616127,0.008085963316261768,0.006750891916453838,-0.013773329555988312,-0.002817684318870306,-0.005055963061749935,0.022459005936980247,-0.1579665094614029,0.03499399125576019,0.0,0.0,0.0,-0.005123398266732693,-0.015834687277674675,-0.0,0.0,0.0,0.0,0.0016291114734485745,-0.0061575500294566154,0.0007360659656114876,13810.0,14106.0,14838.0,13465.0,0.4265689253807068,0.44617974758148193,0.49659067392349243,0.40424609184265137,0.0,0.0,0.0,0.0,13349.0,14535.0,14191.0,14155.0,1.8153597116470337,-0.014605478511023033,0.009067914107179834,0.1196230977612385,0.06926283240318298,-0.01723955012857914,-0.0
476,5,-0.0026840376667678356,-0.000618159887380898,0.001763407257385552,-0.018154053017497063,0.007195149082690477,-0.00012399852857924998,-0.01354176551103592,-0.0007556712371297181,-0.004888308700174093,0.00020098804088775069,-0.1841127723455429,0.014585108496248722,0.0,0.0,0.0,-0.005123398266732693,-0.015834687277674675,-0.0,0.0,0.0,0.0,0.0011438915971666574,-0.007199856452643871,-0.0004162149562034756,13337.0,14632.0,14478.0,13810.0,0.3961302936077118,0.4821474850177765,0.47144463658332825,0.4265553653240204,0.0,0.0,0.0,0.0,13909.0,14728.0,15009.0,13516.0,1.8153597116470337,-0.013873795511447356,0.009085168860167317,0.11970165275594949,0.06926283240318298,-0.01723955012857914,-0.0
