timestamp,dt,pos_x,pos_y,pos_z,vel_x,vel_y,vel_z,roll,pitch,yaw,agv_x,agv_y,agv_z,x_ref,y_ref,z_ref,roll_ref,pitch_ref,yaw_ref,x_vel_ref,y_vel_ref,z_vel_ref,x_torque,y_torque,z_torque,w0,w1,w2,w3,u0,u1,u2,u3,m0req,m1req,m2req,m3req,thrust0,thrust1,thrust2,thrust3,thrust_ref,roll_vicon,pitch_vicon,yaw_vicon,acc_x,acc_y,acc_z
5,5,0.0,0.0,0.0,0.0014534424990415573,-0.0004642607527785003,-0.000482189905596897,-0.004026435781270266,-0.0775451809167862,-0.07196833193302155,-0.0003521627513691783,-0.00011574431118788198,-0.001913410029374063,0.0,0.0,0.0,0.0003428282216191292,0.0008255990105681121,-0.0,0.0,0.0,0.0,0.0009010900394059718,0.023648453876376152,-0.007444226182997227,1495.0,1495.0,1495.0,1495.0,0.0,0.0,0.0,0.0,0.0,0.0,0.0,0.0,1495.0,1495.0,1495.0,1495.0,2.739732265472412,0.04782642550942074,-0.08168631878145209,0.03239610460473492,-0.00545040937140584,0.0017409778665751219,0.0
34,29,0.0,0.0,0.0,-0.0012535976711660624,8.633838297100738e-05,0.0007203231216408312,-0.004026435781270266,-0.0775451809167862,-0.07196833193302155,-0.0003521627513691783,-0.00011574431118788198,-0.001913410029374063,0.0,0.0,0.0,0.0003428282216191292,0.0008255990105681121,-0.0,0.0,0.0,0.0,0.0009010900394059718,0.023648453876376152,-0.007444226182997227,1495.0,1495.0,1495.0,1495.0,0.0,0.0,0.0,0.0,0.0,0.0,0.0,0.0,1495.0,1495.0,1495.0,1495.0,2.739732265472412,0.04783270211790923,-0.08206462098162345,0.03272594090292322,-0.00545040937140584,0.0017409778665751219,0.0
39,5,0.0,0.0,0.0,-0.0007061701617203653,0.0008785551763139665,0.0016554802423343062,-0.004026507027447224,-0.07755010575056076,-0.07201576232910156,-0.0011816963087767363,0.006161071360111237,-0.009584253653883934,0.0,0.0,0.0,0.0003428282216191292,0.0008255990105681121,-0.0,0.0,0.0,0.0,0.0008741508354432881,0.023680785670876503,-0.007359509356319904,1495.0,1495.0,1495.0,1495.0,0.0,0.0,0.0,0.0,0.0,0.0,0.0,0.0,1495.0,1495.0,1495.0,1495.0,2.739732265472412,0.04785864799744449,-0.08175136328441532,0.032386220573888666,-0.00545040937140584,0.0017409778665751219,0.0
45,5,0.0,0.0,0.0,-0.0019863122142851353,-0.000577937753405422,0.0003137583553325385,-0.004026507027447224,-0.07755010575056076,-0.07201576232910156,-0.0011816963087767363,0.006161071360111237,-0.009584253653883934,0.0,0.0,0.0,-0.000648597429972142,-0.0004010257252957672,-0.0,0.0,0.0,0.0,0.0008741508354432881,0.023680785670876503,-0.007359509356319904,1495.0,1495.0,1495.0,1495.0,0.0,0.0,0.0,0.0,0.0,0.0,0.0,0.0,1495.0,1495.0,1495.0,1495.0,2.7404167652130127,0.04824548308427659,-0.08187390930008283,0.032305020603222406,0.0026481382083147764,-0.003294582013040781,0.0
53,8,0.0,0.0,0.0,0.00042441379628144205,-0.00149380206130445,-0.0020810910500586033,-0.0040334840305149555,-0.07760275155305862,-0.07209793478250504,-0.00023599884298164397,0.007324486970901489,-0.009648886509239674,0.0,0.0,0.0,0.0011023292317986488,0.00024091536761261523,-0.0,0.0,0.0,0.0,0.0008938408573158085,0.02361108548939228,-0.007334247697144747,1495.0,1495.0,1495.0,1495.0,0.0,0.0,0.0,0.0,0.0,0.0,0.0,0.0,1495.0,1495.0,1495.0,1495.0,2.741603374481201,0.04829415744089649,-0.08174975988246232,0.032517785495757526,-0.0015915516996756196,0.005601757671684027,0.0
58,5,0.0,0.0,0.0,0.0007723401649855077,0.0014947539893910289,-0.0018789785681292415,-0.0040334840305149555,-0.07760275155305862,-0.07209793478250504,-0.00023599884298164397,0.007324486970901489,-0.009648886509239674,0.0,0.0,0.0,0.0011023292317986488,0.00024091536761261523,-0.0,0.0,0.0,0.0,0.0008938408573158085,0.02361108548939228,-0.007334247697144747,1495.0,1495.0,1495.0,1495.0,0.0,0.0,0.0,0.0,0.0,0.0,0.0,0.0,1495.0,1495.0,1495.0,1495.0,2.741603374481201,0.04775083265443481,-0.08191192557405937,0.03255562345543094,-0.0015915516996756196,0.005601757671684027,0.0
63,5,1.4795085007790476e-05,-1.8906627019532607e-06,-2.0647292330977507e-05,0.002084346255287528,0.000824781134724617,0.001726083573885262,-0.004056110978126526,-0.07762288302183151,-0.07218316942453384,0.001478936872445047,0.0038388906978070736,-0.00474504753947258,0.0,0.0,0.0,-0.0006104086642153561,0.0011949529871344566,-0.0,0.0,0.0,0.0,0.0006920169107615948,0.023243753239512444,-0.00731794536113739,16317.0,18146.0,13414.0,20479.0,0.6065840721130371,0.757788896560669,0.401006817817688,0.9750369787216187,0.0,0.0,0.0,0.0,16316.0,18119.0,13405.0,20501.0,2.742833137512207,0.04768791918886626,-0.08187606833332184,0.03271303665720592,-0.007897723466157913,-0.003103334456682205,0.0
71,8,1.639320544200018e-05,1.9322529624332674e-05,-1.720657201076392e-05,0.00015846980386413634,-0.0015609890688210726,-0.0005617525894194841,-0.004056110978126526,-0.07762288302183151,-0.07218316942453384,0.001478936872445047,0.0038388906978070736,-0.00474504753947258,0.0,0.0,0.0,-0.0006104086642153561,0.0011949529871344566,-0.0,0.0,0.0,0.0,0.0006920169107615948,0.023243753239512444,-0.00731794536113739,16317.0,18146.0,13414.0,20479.0,0.6065840721130371,0.757788896560669,0.401006817817688,0.9750369787216187,0.0,0.0,0.0,0.0,16316.0,18119.0,13405.0,20501.0,2.742833137512207,0.04782530301933421,-0.08212030676915397,0.03296310174894319,-0.007897723466157913,-0.003103334456682205,0.0
76,5,5.065470304543851e-06,3.6743792861670954e-06,-2.840717752405908e-05,-0.001295940368436277,0.0012533825356513262,0.0011193716200068593,-0.004061900079250336,-0.07764534652233124,-0.07223843783140182,-0.003291485132649541,0.008864087052643299,-0.006027418654412031,0.0,0.0,0.0,0.0011719678295776248,0.0001035422901622951,-0.0,0.0,0.0,0.0,0.0007208907627500594,0.023356111720204353,-0.007445976138114929,16288.0,18166.0,13369.0,20512.0,0.6043548583984375,0.7595658302307129,0.3981441557407379,0.9783519506454468,0.0,0.0,0.0,0.0,16301.0,18163.0,13390.0,20492.0,2.743628978729248,0.047732633786652635,-0.0821621562019755,0.032663332156507546,-0.0006845335592515767,0.005960043985396624,0.0
81,5,-4.6452141759800725e-06,2.6339148462284356e-05,-2.4340466552530415e-05,-0.0016836582217365503,-0.0022184192202985287,-4.025663292850368e-05,-0.004061900079250336,-0.07764534652233124,-0.07223843783140182,-0.003291485132649541,0.008864087052643299,-0.006027418654412031,0.0,0.0,0.0,0.0011719678295776248,0.0001035422901622951,-0.0,0.0,0.0,0.0,0.0007208907627500594,0.023356111720204353,-0.007445976138114929,16288.0,18166.0,13369.0,20512.0,0.6043548583984375,0.7595658302307129,0.3981441557407379,0.9783519506454468,0.0,0.0,0.0,0.0,16301.0,18163.0,13390.0,20492.0,2.743628978729248,0.048114484431345125,-0.08176657238464814,0.0326414155374447,-0.0006845335592515767,0.005960043985396624,0.0
86,5,-4.794178948941408e-06,2.4461089196847752e-05,-2.9267930585774593e-05,-0.0006913390825502574,-0.0006620007334277034,0.0005751930293627083,-0.004071047529578209,-0.07768663763999939,-0.07228495925664902,0.0013476272579282522,0.0031386588234454393,-0.002048368100076914,0.0,0.0,0.0,0.0016639495734125376,-0.0009586266241967678,-0.0,0.0,0.0,0.0,0.0010338592110201716,0.0235273540019989,-0.0073537747375667095,16356.0,18123.0,13386.0,20510.0,0.6096629500389099,0.7558464407920837,0.39920514822006226,0.9781185984611511,0.0,0.0,0.0,0.0,16348.0,18132.0,13384.0,20510.0,2.744302272796631,0.047795648436478565,-0.08204107720559933,0.032640334601845324,0.0063391742296516895,0.008464090526103973,0.0
91,5,-1.2673045830524643e-06,2.7277190383756533e-05,-2.4868793843779713e-05,0.00014668928633909672,-0.0006027324125170708,-0.00029781911871396005,-0.004071047529578209,-0.07768663763999939,-0.07228495925664902,0.0013476272579282522,0.0031386588234454393,-0.002048368100076914,0.0,0.0,0.0,0.0016639495734125376,-0.0009586266241967678,-0.0,0.0,0.0,0.0,0.0010338592110201716,0.0235273540019989,-0.0073537747375667095,16356.0,18123.0,13386.0,20510.0,0.6096629500389099,0.7558464407920837,0.39920514822006226,0.9781185984611511,0.0,0.0,0.0,0.0,16348.0,18132.0,13384.0,20510.0,2.744302272796631,0.04800836549298736,-0.08168564010503337,0.032113191572659815,0.0063391742296516895,0.008464090526103973,0.0
96,5,-1.6246560335275717e-05,4.005536027307244e-07,-2.862868132069707e-05,-0.0017388350097462535,0.002984103513881564,0.0003320588730275631,-0.004071047529578209,-0.07768663763999939,-0.07228495925664902,0.0013476272579282522,0.0031386588234454393,-0.002048368100076914,0.0,0.0,0.0,0.0016639495734125376,-0.0009586266241967678,-0.0,0.0,0.0,0.0,0.0010338592110201716,0.0235273540019989,-0.0073537747375667095,16356.0,18123.0,13386.0,20510.0,0.6096629500389099,0.7558464407920837,0.39920514822006226,0.9781185984611511,0.0,0.0,0.0,0.0,16348.0,18132.0,13384.0,20510.0,2.744302272796631,0.0485974836220568,-0.08158754818619998,0.03222347026788898,0.0063391742296516895,0.008464090526103973,0.0
101,5,-1.4317886780190747e-05,8.050195901887491e-06,-2.1085712432977743e-05,-0.0004640932020265609,0.000275684375083074,-0.0007723327144049108,-0.004060705192387104,-0.07765883207321167,-0.07231777906417847,0.00048134339158423245,-0.003789900103583932,-0.0013116361806169152,0.0,0.0,0.0,-0.002199445851147175,-0.0009995742002502084,-0.0,0.0,0.0,0.0,0.001070850295946002,0.023425443097949028,-0.007411683909595013,16355.0,18125.0,13402.0,20498.0,0.6095908880233765,0.7559876441955566,0.40025031566619873,0.9770042896270752,0.0,0.0,0.0,0.0,16281.0,18157.0,13413.0,20530.0,2.744305372238159,0.048013420632330016,-0.08164927438135128,0.03218650062592672,0.0066099511459469795,-0.011188030242919922,0.0
106,5,-3.406597215871443e-06,9.186117495119106e-06,-1.6040987247833982e-05,0.0011237175203859806,-2.603683969937265e-05,-0.0009143002098426223,-0.004060705192387104,-0.07765883207321167,-0.07231777906417847,0.00048134339158423245,-0.003789900103583932,-0.0013116361806169152,0.0,0.0,0.0,2.915873847086914e-05,0.0006343044224195182,-0.0,0.0,0.0,0.0,0.001070850295946002,0.023425443097949028,-0.007411683909595013,16355.0,18125.0,13402.0,20498.0,0.6095908880233765,0.7559876441955566,0.40025031566619873,0.9770042896270752,0.0,0.0,0.0,0.0,16281.0,18157.0,13413.0,20530.0,2.7447705268859863,0.04801725830604765,-0.08184434564561062,0.032301854825035295,-0.004195228684693575,0.00014834855392109603,0.0
111,5,7.760095286357682e-06,9.524597771815024e-06,-1.356433676846791e-05,0.0017894899938255548,-5.1032384362770244e-05,-0.0006629180861636996,-0.004084412008523941,-0.07760730385780334,-0.07237444072961807,0.0005204458138905466,0.001543541089631617,-0.005582981277257204,0.0,0.0,0.0,2.915873847086914e-05,0.0006343044224195182,-0.0,0.0,0.0,0.0,0.0003851174551527947,0.02316492423415184,-0.007361221592873335,16287.0,18153.0,13405.0,20534.0,0.6042152643203735,0.7584582567214966,0.4004357159137726,0.9805197715759277,0.0,0.0,0.0,0.0,16276.0,18164.0,13386.0,20544.0,2.7447705268859863,0.04779837860514583,-0.08169930032414668,0.032488509872410365,-0.004195228684693575,0.00014834855392109603,0.0
116,5,1.2032728591293562e-05,8.277488632302266e-06,-4.801112027053023e-06,0.0012285120319575071,0.00012924012844450772,-0.0013167541474103928,-0.004084412008523941,-0.07760730385780334,-0.07237444072961807,0.0005204458138905466,0.001543541089631617,-0.005582981277257204,0.0,0.0,0.0,2.915873847086914e-05,0.0006343044224195182,-0.0,0.0,0.0,0.0,0.0003851174551527947,0.02316492423415184,-0.007361221592873335,16287.0,18153.0,13405.0,20534.0,0.6042152643203735,0.7584582567214966,0.4004357159137726,0.9805197715759277,0.0,0.0,0.0,0.0,16276.0,18164.0,13386.0,20544.0,2.7447705268859863,0.047420514284352455,-0.08204796233737004,0.032782865306480904,-0.004195228684693575,0.00014834855392109603,0.0
122,5,1.0386909707449377e-05,4.045183231937699e-06,-6.331189069896936e-06,0.00029390654526650906,0.0005595726543106139,-0.00034309239708818495,-0.004092838149517775,-0.07760599255561829,-0.07240839302539825,0.00113156798761338,0.002754419343546033,-0.0024284319952130318,0.0,0.0,0.0,-8.624430483905599e-05,0.0007063570083118975,-0.0,0.0,0.0,0.0,0.0008261046605184674,0.023678509518504143,-0.00740323681384325,16334.0,18183.0,13409.0,20475.0,0.6078873872756958,0.7610210180282593,0.40069329738616943,0.9747036695480347,0.0,0.0,0.0,0.0,16289.0,18221.0,13355.0,20510.0,2.745586395263672,0.04834033416913011,-0.08209784239637397,0.03252168337157997,-0.004673166200518608,-0.00043890858069062233,0.0
127,5,1.1487888514238875e-05,-3.300134267192334e-06,-2.401350502623245e-05,0.0002496800443623215,0.0011052672052755952,0.001984640955924988,-0.0041062976233661175,-0.0775928869843483,-0.07247855514287949,0.00027942421729676425,-0.0027041153516620398,-0.001632987055927515,0.0,0.0,0.0,-0.0008178130956366658,0.0001510628790128976,-0.0,0.0,0.0,0.0,0.0008101565181277692,0.02357427217066288,-0.007403641007840633,16323.0,18158.0,13394.0,20528.0,0.6070270538330078,0.7588386535644531,0.3997391164302826,0.979981541633606,0.0,0.0,0.0,0.0,16311.0,18160.0,13380.0,20536.0,2.74607515335083,0.04781191402885427,-0.08172372676758587,0.03249365304053103,-0.0009995900327339768,-0.004162698518484831,0.0
132,5,1.8992175682797097e-05,2.9778098905808292e-05,-1.4453821677307133e-05,0.0010003865463659167,-0.003527281107380986,-0.0003533057461027056,-0.0041062976233661175,-0.0775928869843483,-0.07247855514287949,0.00027942421729676425,-0.0027041153516620398,-0.001632987055927515,0.0,0.0,0.0,-0.0008178130956366658,0.0001510628790128976,-0.0,0.0,0.0,0.0,0.0008101565181277692,0.02357427217066288,-0.007403641007840633,16323.0,18158.0,13394.0,20528.0,0.6070270538330078,0.7588386535644531,0.3997391164302826,0.979981541633606,0.0,0.0,0.0,0.0,16311.0,18160.0,13380.0,20536.0,2.74607515335083,0.04883851348898602,-0.08192089384082074,0.03250267934384672,-0.0009995900327339768,-0.004162698518484831,0.0
137,5,-8.309201803058386e-06,5.169893483980559e-06,-3.611708598327823e-05,-0.002876010723412037,0.0015420722775161266,0.002458269475027919,-0.0041062976233661175,-0.0775928869843483,-0.07247855514287949,0.00027942421729676425,-0.0027041153516620398,-0.001632987055927515,0.0,0.0,0.0,-0.0008178130956366658,0.0001510628790128976,-0.0,0.0,0.0,0.0,0.0008101565181277692,0.02357427217066288,-0.007403641007840633,16323.0,18158.0,13394.0,20528.0,0.6070270538330078,0.7588386535644531,0.3997391164302826,0.979981541633606,0.0,0.0,0.0,0.0,16311.0,18160.0,13380.0,20536.0,2.74607515335083,0.04796897983839279,-0.08211433721051897,0.032651290876236895,-0.0009995900327339768,-0.004162698518484831,0.0
142,5,-1.6356689229723997e-06,1.5400924894493073e-05,-3.5158664104528725e-05,-0.0003495803102850914,-0.0006108948728069663,0.0008682971238158643,-0.0041062976233661175,-0.0775928869843483,-0.07247855514287949,0.00027942421729676425,-0.0027041153516620398,-0.001632987055927515,0.0,0.0,0.0,-0.0011300492333248258,-0.0016361792804673314,-0.0,0.0,0.0,0.0,0.0006509139202535152,0.023540442809462547,-0.0076317014172673225,16253.0,18240.0,13292.0,20580.0,0.6015815138816833,0.7660461068153381,0.3933107256889343,0.9851368069648743,0.0,0.0,0.0,0.0,16326.0,18153.0,13396.0,20529.0,2.74708890914917,0.04815497039132793,-0.08189611346378477,0.0323888255199337,0.01083066314458847,-0.005754114128649235,0.0
147,5,-8.1503891635748e-08,8.912667908589356e-06,-3.532877963152714e-05,4.666767199523747e-05,0.0005342329386621714,0.00036773289320990443,-0.0041062976233661175,-0.0775928869843483,-0.07247855514287949,0.00027942421729676425,-0.0027041153516620398,-0.001632987055927515,0.0,0.0,0.0,-0.0011300492333248258,-0.0016361792804673314,-0.0,0.0,0.0,0.0,0.0006509139202535152,0.023540442809462547,-0.0076317014172673225,16253.0,18240.0,13292.0,20580.0,0.6015815138816833,0.7660461068153381,0.3933107256889343,0.9851368069648743,0.0,0.0,0.0,0.0,16326.0,18153.0,13396.0,20529.0,2.74708890914917,0.048224919280014544,-0.08176338490146212,0.03255821818169499,0.01083066314458847,-0.005754114128649235,0.0
152,5,5.038969064230514e-08,1.7934127754415385e-05,-2.0984607544960454e-05,3.4494300052756444e-05,-0.0008688819943927228,-0.0015742075629532337,-0.004102551378309727,-0.07756409049034119,-0.07254327833652496,0.0037415081169456244,0.0008732052519917488,-0.01046382449567318,0.0,0.0,0.0,-0.0003837659314740449,2.6381621864857152e-05,-0.0,0.0,0.0,0.0,0.0006839949637651443,0.023560069501399994,-0.0075860400684177876,16281.0,18211.0,13325.0,20564.0,0.6037546992301941,0.763496458530426,0.3953412175178528,0.9834827780723572,0.0,0.0,0.0,0.0,16256.0,18236.0,13299.0,20577.0,2.7470836639404297,0.0478554085307922,-0.0816199675296082,0.03253121624262027,-0.00017463257245253772,-0.001954100327566266,0.0
157,5,-1.1866573004226666e-06,1.0982054845953826e-05,-1.2114072887925431e-05,-0.0001346479111816734,0.0004866958479396999,-0.0016941472422331572,-0.004102551378309727,-0.07756409049034119,-0.07254327833652496,0.0037415081169456244,0.0008732052519917488,-0.01046382449567318,0.0,0.0,0.0,-0.0003837659314740449,2.6381621864857152e-05,-0.0,0.0,0.0,0.0,0.0006839949637651443,0.023560069501399994,-0.0075860400684177876,16281.0,18211.0,13325.0,20564.0,0.6037546992301941,0.763496458530426,0.3953412175178528,0.9834827780723572,0.0,0.0,0.0,0.0,16256.0,18236.0,13299.0,20577.0,2.7470836639404297,0.04831713101990611,-0.08182470400214462,0.03233770679502778,-0.00017463257245253772,-0.001954100327566266,0.0
162,5,6.004068382026162e-06,1.3060110177320894e-05,-2.6322219127905555e-05,0.000809027929790318,-5.468832023325376e-05,0.001027318648993969,-0.004102551378309727,-0.07756409049034119,-0.07254327833652496,0.0037415081169456244,0.0008732052519917488,-0.01046382449567318,0.0,0.0,0.0,-0.0003463965258561075,-7.722816371824592e-05,-0.0,0.0,0.0,0.0,0.0006839949637651443,0.023560069501399994,-0.0075860400684177876,16281.0,18211.0,13325.0,20564.0,0.6037546992301941,0.763496458530426,0.3953412175178528,0.9834827780723572,0.0,0.0,0.0,0.0,16256.0,18236.0,13299.0,20577.0,2.748014211654663,0.047594741187729696,-0.08183830559643515,0.03287798415367043,0.000511383346747607,-0.001764416228979826,0.0
167,5,6.5971632601247165e-09,1.112869540520478e-05,-3.30860166286584e-06,-0.0003960853791795671,0.00020989451149944216,-0.0023507066071033478,-0.0040985881350934505,-0.07756175100803375,-0.07269977778196335,0.0021331480238586664,-0.000897230813279748,-0.01658429205417633,0.0,0.0,0.0,-0.0003463965258561075,-7.722816371824592e-05,-0.0,0.0,0.0,0.0,0.0005883441190235317,0.022924240678548813,-0.007590784691274166,16209.0,18289.0,13318.0,20565.0,0.5982173085212708,0.7703644633293152,0.3949355483055115,0.9835715889930725,0.0,0.0,0.0,0.0,16260.0,18242.0,13365.0,20537.0,2.748014211654663,0.04804082678739933,-0.08204587704737508,0.03301506176856506,0.000511383346747607,-0.001764416228979826,0.0
172,5,4.8719789447204676e-06,-7.342067874560598e-06,-2.3813558073015884e-05,0.0004254116793163121,0.002300449414178729,0.0015203120419755578,-0.0040985881350934505,-0.07756175100803375,-0.07269977778196335,0.0021331480238586664,-0.000897230813279748,-0.01658429205417633,0.0,0.0,0.0,-0.00014232924149837345,-0.0002241104666609317,-0.0,0.0,0.0,0.0,0.0005883441190235317,0.022924240678548813,-0.007590784691274166,16209.0,18289.0,13318.0,20565.0,0.5982173085212708,0.7703644633293152,0.3949355483055115,0.9835715889930725,0.0,0.0,0.0,0.0,16260.0,18242.0,13365.0,20537.0,2.7502622604370117,0.04769518413348463,-0.08168881255360107,0.03176167900947501,0.0014852109597995877,-0.0007255657692439854,0.0
177,5,-2.5739286684256513e-06,1.6051761122071184e-05,-1.6409012459916994e-05,-0.0007233442738652229,-0.0018870796775445342,-0.000280420616036281,-0.004066116642206907,-0.07756444066762924,-0.07233618199825287,-0.007713917177170515,-0.022320089861750603,0.008377003483474255,0.0,0.0,0.0,-0.00014232924149837345,-0.0002241104666609317,-0.0,0.0,0.0,0.0,0.000736862188205123,0.02330012433230877,-0.004879241809248924,16833.0,17700.0,14068.0,20086.0,0.6475346088409424,0.7193766832351685,0.4436466693878174,0.9365257024765015,0.0,0.0,0.0,0.0,16138.0,18333.0,13163.0,20678.0,2.7502622604370117,0.04805805962621858,-0.0820184301434013,0.03242683541588812,0.0014852109597995877,-0.0007255657692439854,0.0
182,5,5.460630291054258e-06,2.9326924050110392e-05,-1.7467276848037727e-05,0.0006748093874193728,-0.002347851637750864,1.4823367564531509e-05,-0.004066116642206907,-0.07756444066762924,-0.07233618199825287,-0.007713917177170515,-0.022320089861750603,0.008377003483474255,0.0,0.0,0.0,0.0014082278357818723,-0.00041221806895919144,-0.0,0.0,0.0,0.0,0.000736862188205123,0.02330012433230877,-0.004879241809248924,16833.0,17700.0,14068.0,20086.0,0.6475346088409424,0.7193766832351685,0.4436466693878174,0.9365257024765015,0.0,0.0,0.0,0.0,16138.0,18333.0,13163.0,20678.0,2.745037794113159,0.047927758216523016,-0.08244662722169117,0.03359547812810499,0.0027266338001936674,0.007165220566093922,0.0
188,5,-5.915822384849889e-06,6.942747404536931e-06,-1.3202911759435665e-05,-0.001095250598154962,0.0017469606827944517,-0.0005057943635620177,-0.0040014879778027534,-0.07758566737174988,-0.07309282571077347,0.043029025197029114,0.024830380454659462,0.15698282420635223,0.0,0.0,0.0,0.0014082278357818723,-0.00041221806895919144,-0.0,0.0,0.0,0.0,0.0002368126151850447,0.0241061020642519,-0.007770690135657787,16977.0,17631.0,14031.0,20060.0,0.6592169404029846,0.713546097278595,0.44118839502334595,0.9340627789497375,0.0,0.0,0.0,0.0,15139.0,19138.0,12051.0,21358.0,2.745037794113159,0.04795223540653658,-0.08231054101493257,0.032042252127024724,0.0027266338001936674,0.007165220566093922,0.0
193,5,-8.186700142687187e-06,-1.2341594811005052e-05,-1.6680538465152495e-05,-0.0007106055272743106,0.0030129053629934788,0.00021499743161257356,-0.0040014879778027534,-0.07758566737174988,-0.07309282571077347,0.043029025197029114,0.024830380454659462,0.15698282420635223,0.0,0.0,0.0,-0.0012749010929837823,-0.0006233792519196868,-0.0,0.0,0.0,0.0,0.0002368126151850447,0.0241061020642519,-0.007770690135657787,16977.0,17631.0,14031.0,20060.0,0.6592169404029846,0.713546097278595,0.44118839502334595,0.9340627789497375,0.0,0.0,0.0,0.0,15139.0,19138.0,12051.0,21358.0,2.755898952484131,0.04851478150403219,-0.08193151590261345,0.031171597242128302,0.004139683675020933,-0.006512505933642387,0.0
198,5,4.723036181530915e-05,0.00010492242290638387,-1.3956459042674396e-05,0.006365805398672819,-0.012866520322859287,-0.00024089049838948995,-0.004074426367878914,-0.0771697536110878,-0.07218531519174576,0.012714564800262451,-0.028933512046933174,-0.3203515410423279,0.0,0.0,0.0,-0.0012749010929837823,-0.0006233792519196868,-0.0,0.0,0.0,0.0,0.0011150924256071448,0.02207244746387005,-0.01106721069663763,14143.0,19900.0,10822.0,21985.0,0.4486791491508484,0.9186145663261414,0.25318247079849243,1.1297860145568848,0.0,0.0,0.0,0.0,13063.0,20624.0,9047.0,22681.0,2.755898952484131,0.05355183258510816,-0.08229363561777583,0.03450485090759317,0.004139683675020933,-0.006512505933642387,0.0
203,5,3.2013987947721034e-05,8.916304796002805e-05,3.376609674887732e-05,0.0007203572313301265,-0.0032554829958826303,-0.0058230627328157425,-0.004074426367878914,-0.0771697536110878,-0.07218531519174576,0.012714564800262451,-0.028933512046933174,-0.3203515410423279,0.0,0.0,0.0,0.009603720158338547,0.0036511612124741077,-0.0,0.0,0.0,0.0,0.0011150924256071448,0.02207244746387005,-0.01106721069663763,14143.0,19900.0,10822.0,21985.0,0.4486791491508484,0.9186145663261414,0.25318247079849243,1.1297860145568848,0.0,0.0,0.0,0.0,13063.0,20624.0,9047.0,22681.0,2.7430062294006348,0.053334654956929926,-0.08274983236110015,0.03351122460377532,-0.024131745100021362,0.04882730171084404,0.0
208,5,2.5843590265139937e-05,5.3730978834209964e-05,2.4227156245615333e-05,-0.0004523048992268741,0.002949655055999756,-0.0011845523258671165,-0.0036155106499791145,-0.07686448842287064,-0.07275069504976273,0.005071584600955248,-0.13297441601753235,0.34946587681770325,0.0,0.0,0.0,0.009603720158338547,0.0036511612124741077,-0.0,0.0,0.0,0.0,0.0004166076541878283,0.02273380011320114,-0.003894340479746461,18611.0,15816.0,16381.0,18243.0,0.7989450693130493,0.5681190490722656,0.6116278171539307,0.7663458585739136,0.0,0.0,0.0,0.0,17949.0,16610.0,15840.0,18796.0,2.7430062294006348,0.05438661261133067,-0.08291893699942053,0.0322393143492638,-0.024131745100021362,0.04882730171084404,0.0
213,5,1.5337303921114653e-05,6.633756856899709e-05,5.53005920664873e-05,-0.0014416762860491872,-0.0003329286992084235,-0.004202633164823055,-0.0036155106499791145,-0.07686448842287064,-0.07275069504976273,0.005071584600955248,-0.13297441601753235,0.34946587681770325,0.0,0.0,0.0,-0.002111078007146716,-0.0002343835076317191,-0.0,0.0,0.0,0.0,0.0004166076541878283,0.02273380011320114,-0.003894340479746461,18611.0,15816.0,16381.0,18243.0,0.7989450693130493,0.5681190490722656,0.6116278171539307,0.7663458585739136,0.0,0.0,0.0,0.0,17949.0,16610.0,15840.0,18796.0,2.7509992122650146,0.054148334087447576,-0.08362847229684098,0.03323196884361574,0.0015537046128883958,-0.010764719918370247,0.0
218,5,3.0794067242823076e-06,8.041905675781891e-05,7.789865048835054e-05,-0.0020476181525737047,-0.001822950318455696,-0.004392819944769144,-0.003955109044909477,-0.07573354989290237,-0.07349386066198349,0.0773845985531807,-0.013604397885501385,-0.2308197319507599,0.0,0.0,0.0,-0.002111078007146716,-0.0002343835076317191,-0.0,0.0,0.0,0.0,0.0003381410497240722,0.021637333557009697,-0.01600889302790165,13608.0,20381.0,9953.0,22321.0,0.41342151165008545,0.9654499292373657,0.21116244792938232,1.1658650636672974,0.0,0.0,0.0,0.0,17949.0,16610.0,15840.0,18796.0,2.7509992122650146,0.053344575475321794,-0.08495652984542688,0.03410205624833677,0.0015537046128883958,-0.010764719918370247,0.0
223,5,-1.635855187487323e-05,6.174120790092275e-05,9.098488953895867e-05,-0.0031516023445874453,0.0015121621545404196,-0.0033274770248681307,-0.003955109044909477,-0.07573354989290237,-0.07349386066198349,0.0773845985531807,-0.013604397885501385,-0.2308197319507599,0.0,0.0,0.0,0.0014221144374459982,-0.0011512950295582414,-0.0,0.0,0.0,0.0,0.0003381410497240722,0.021637333557009697,-0.01600889302790165,13608.0,20381.0,9953.0,22321.0,0.41342151165008545,0.9654499292373657,0.21116244792938232,1.1658650636672974,0.0,0.0,0.0,0.0,17949.0,16610.0,15840.0,18796.0,2.7616312503814697,0.05363720776584791,-0.08547704432651948,0.03307542865274089,0.0076613216660916805,0.00727961678057909,0.0
228,5,-2.6930591047857888e-05,6.469590880442411e-05,0.00012177571625215933,-0.002529285615310073,0.0002503003925085068,-0.005025890190154314,-0.0039208270609378815,-0.07416883856058121,-0.0729406401515007,-0.07373073697090149,-0.2249641865491867,-0.00824651774019003,0.0,0.0,0.0,0.0014221144374459982,-0.0011512950295582414,-0.0,0.0,0.0,0.0,0.003493417054414749,0.019411398097872734,-0.0027354571502655745,16382.0,17785.0,14516.0,20025.0,0.6116731762886047,0.7266222834587097,0.4740425944328308,0.9306681752204895,0.0,0.0,0.0,0.0,14808.0,19205.0,12250.0,21368.0,2.7616312503814697,0.053713206764919176,-0.08654355484609765,0.033441372286684,0.0076613216660916805,0.00727961678057909,0.0
234,5,-6.22944935457781e-05,7.806412759236991e-05,0.00019999897631350905,-0.005255382973700762,-0.0015040658181533217,-0.011397146619856358,-0.0039208270609378815,-0.07416883856058121,-0.0729406401515007,-0.07373073697090149,-0.2249641865491867,-0.00824651774019003,0.0,0.0,0.0,-0.00011389123392291367,-0.0014517024392262101,-0.0,0.0,0.0,0.0,0.003493417054414749,0.019411398097872734,-0.0027354571502655745,16382.0,17785.0,14516.0,20025.0,0.6116731762886047,0.7266222834587097,0.4740425944328308,0.9306681752204895,0.0,0.0,0.0,0.0,14808.0,19205.0,12250.0,21368.0,2.7537198066711426,0.05388688539099079,-0.08829041251256017,0.033822317222357796,0.009632723405957222,-0.0005813244497403502,0.0
239,5,-0.00010443043720442802,3.2405783713329583e-05,0.00029155967058613896,-0.007158466149121523,0.0048773749731481075,-0.015546141192317009,-0.003493670839816332,-0.07358419895172119,-0.07403555512428284,-0.011820615269243717,-0.178806871175766,0.1016901284456253,0.0,0.0,0.0,-0.00011389123392291367,-0.0014517024392262101,-0.0,0.0,0.0,0.0,-0.00043966626981273293,0.02082153595983982,-0.008562326431274414,16365.0,18229.0,13858.0,20181.0,0.6103629469871521,0.7650853991508484,0.42971497774124146,0.9458358883857727,0.0,0.0,0.0,0.0,17309.0,17252.0,15537.0,19014.0,2.7537198066711426,0.05517223725162357,-0.09013248411262713,0.03315913142664847,0.009632723405957222,-0.0005813244497403502,0.0
244,5,-0.00016059110930655152,1.8337095752940513e-05,0.0004143794940318912,-0.009602666832506657,0.0036391925532370806,-0.02095683477818966,-0.003493670839816332,-0.07358419895172119,-0.07403555512428284,-0.011820615269243717,-0.178806871175766,0.1016901284456253,0.0,0.0,0.0,-0.003528070403262973,-0.004108824301511049,-0.0,0.0,0.0,0.0,-0.00043966626981273293,0.02082153595983982,-0.008562326431274414,16365.0,18229.0,13858.0,20181.0,0.6103629469871521,0.7650853991508484,0.42971497774124146,0.9458358883857727,0.0,0.0,0.0,0.0,17309.0,17252.0,15537.0,19014.0,2.769378900527954,0.055685560633403484,-0.09285417111121574,0.033416113385746946,0.027418766170740128,-0.018110336735844612,0.0
249,5,-0.00021898325940128416,1.9896575395250693e-05,0.0006298579974099994,-0.010848124511539936,0.0012685394613072276,-0.03424016013741493,-0.0033439567778259516,-0.06944289058446884,-0.07345213741064072,0.19303302466869354,-0.3756415545940399,-0.13708913326263428,0.0,0.0,0.0,-0.003528070403262973,-0.004108824301511049,-0.0,0.0,0.0,0.0,-0.00036996262497268617,0.005243146792054176,-0.0044070053845644,14644.0,19730.0,12801.0,20862.0,0.48294129967689514,0.9023345708847046,0.3630298674106598,1.013325572013855,0.0,0.0,0.0,0.0,15190.0,19468.0,13101.0,20538.0,2.769378900527954,0.055853145521563646,-0.0963783626368981,0.03465357300128657,0.027418766170740128,-0.018110336735844612,0.0
254,5,-0.00029771047411486506,4.184924910077825e-05,0.000877050100825727,-0.013786515220999718,-0.002126905135810375,-0.04335911199450493,-0.0033439567778259516,-0.06944289058446884,-0.07345213741064072,0.19303302466869354,-0.3756415545940399,-0.13708913326263428,0.0,0.0,0.0,-0.0009077881695702672,-0.006295608822256327,-0.0,0.0,0.0,0.0,-0.00036996262497268617,0.005243146792054176,-0.0044070053845644,14644.0,19730.0,12801.0,20862.0,0.48294129967689514,0.9023345708847046,0.3630298674106598,1.013325572013855,0.0,0.0,0.0,0.0,15190.0,19468.0,13101.0,20538.0,2.76108717918396,0.055861152778884225,-0.10064291394828832,0.034509701960713686,0.04188578948378563,-0.0046459343284368515,0.0
259,5,-0.0003633201995398849,3.58023498847615e-05,0.0011315587908029556,-0.013387773185968399,-0.00012513436377048492,-0.04788469523191452,-0.0019259511027485132,-0.06542369723320007,-0.07317490875720978,-0.06316482275724411,-0.8645404577255249,0.15622754395008087,0.0,0.0,0.0,-0.0009077881695702672,-0.006295608822256327,-0.0,0.0,0.0,0.0,-0.0007843823404982686,-0.0019871166441589594,-0.008970638737082481,16355.0,18216.0,15954.0,18640.0,0.6095820069313049,0.7639490962028503,0.5786034464836121,0.8015852570533752,0.0,0.0,0.0,0.0,15604.0,18784.0,15768.0,18872.0,2.76108717918396,0.056308851162071745,-0.1053745693631227,0.03478491299754312,0.04188578948378563,-0.0046459343284368515,0.0
264,5,-0.0004636176454368979,8.344848902197555e-05,0.0014278418384492397,-0.01739080250263214,-0.0057675899006426334,-0.0547078438103199,-0.0019259511027485132,-0.06542369723320007,-0.07317490875720978,-0.06316482275724411,-0.8645404577255249,0.15622754395008087,0.0,0.0,0.0,0.00013069949636701494,-0.007857782766222954,-0.0,0.0,0.0,0.0,-0.0007843823404982686,-0.0019871166441589594,-0.008970638737082481,16355.0,18216.0,15954.0,18640.0,0.6095820069313049,0.7639490962028503,0.5786034464836121,0.8015852570533752,0.0,0.0,0.0,0.0,15604.0,18784.0,15768.0,18872.0,2.757155656814575,0.05504620310586351,-0.11141564546965192,0.036086341704107204,0.05220459774136543,0.0006679496727883816,0.0
269,5,-0.000580114487092942,0.0001330629165749997,0.0016910021658986807,-0.020935941487550735,-0.00826076790690422,-0.053462374955415726,-0.0019145139958709478,-0.05454375222325325,-0.0729844868183136,0.024739060550928116,-0.9613094925880432,-0.053689174354076385,0.0,0.0,0.0,0.00013069949636701494,-0.007857782766222954,-0.0,0.0,0.0,0.0,0.0035690469667315483,-0.015968870371580124,-0.00343732675537467,15082.0,18982.0,17438.0,17675.0,0.5139558911323547,0.8325194716453552,0.6973288655281067,0.7172829508781433,0.0,0.0,0.0,0.0,14742.0,19646.0,15447.0,19114.0,2.757155656814575,0.05408287655072522,-0.11855057963767064,0.037594600343388476,0.05220459774136543,0.0006679496727883816,0.0
274,5,-0.0007258587284013629,0.0001601747062522918,0.001959884539246559,-0.025863688439130783,-0.0065577225759625435,-0.05365082621574402,-0.0019145139958709478,-0.05454375222325325,-0.0729844868183136,0.024739060550928116,-0.9613094925880432,-0.053689174354076385,0.0,0.0,0.0,0.004989199806004763,-0.015214458107948303,-0.0,0.0,0.0,0.0,0.0035690469667315483,-0.015968870371580124,-0.00343732675537467,15082.0,18982.0,17438.0,17675.0,0.5139558911323547,0.8325194716453552,0.6973288655281067,0.7172829508781433,0.0,0.0,0.0,0.0,14742.0,19646.0,15447.0,19114.0,2.7546980381011963,0.05298362138589672,-0.125621365017056,0.03871819042130546,0.10098578035831451,0.02547476440668106,0.0
279,5,-0.0008832007297314703,0.0001788553927326575,0.0022050398401916027,-0.02922651916742325,-0.004864770919084549,-0.05087897181510925,-0.0029101669788360596,-0.04480419307947159,-0.07213898003101349,-0.3086138069629669,-1.4283479452133179,0.1464787870645523,0.0,0.0,0.0,0.004989199806004763,-0.015214458107948303,-0.0,0.0,0.0,0.0,0.003226372180506587,-0.017697947099804878,-0.007215504534542561,13498.0,20076.0,16556.0,18508.0,0.4063863158226013,0.9355581402778625,0.625436007976532,0.7897751927375793,0.0,0.0,0.0,0.0,14440.0,19509.0,16961.0,18090.0,2.7546980381011963,0.052741102019141534,-0.13313647208302667,0.03901578150668199,0.10098578035831451,0.02547476440668106,0.0
285,5,-0.0011498554376885295,0.00032256939448416233,0.002608232432976365,-0.026301519945263863,-0.014079704880714417,-0.03970542922616005,-0.0029101669788360596,-0.04480419307947159,-0.07213898003101349,-0.3086138069629669,-1.4283479452133179,0.1464787870645523,0.0,0.0,0.0,0.004989199806004763,-0.015214458107948303,-0.0,0.0,0.0,0.0,0.003226372180506587,-0.017697947099804878,-0.007215504534542561,13498.0,20076.0,16556.0,18508.0,0.4063863158226013,0.9355581402778625,0.625436007976532,0.7897751927375793,0.0,0.0,0.0,0.0,14440.0,19509.0,16961.0,18090.0,2.7546980381011963,0.04768327962729017,-0.1474064050944386,0.041198790172713766,0.10098578035831451,0.02547476440668106,0.0
290,5,-0.0012525145430117846,0.0004187432932667434,0.002725450089201331,-0.022839706391096115,-0.01717275008559227,-0.02994828298687935,-0.005485322792083025,-0.028720613569021225,-0.07135532051324844,-0.3006168007850647,-1.3879812955856323,0.025222744792699814,0.0,0.0,0.0,0.010735798627138138,-0.015883726999163628,-0.0,0.0,0.0,0.0,0.008011436089873314,-0.027318771928548813,-0.004242602735757828,13950.0,19430.0,17950.0,17519.0,0.43577849864959717,0.8739948272705078,0.7408415079116821,0.7040832042694092,0.0,0.0,0.0,0.0,13497.0,19917.0,17063.0,18221.0,2.7426974773406982,0.04553336283239224,-0.15287387957820378,0.04286632638537206,0.10496366024017334,0.05457649752497673,0.0
295,5,-0.0013642176054418087,0.00048639802844263613,0.0028503627981990576,-0.022540243342518806,-0.014987667091190815,-0.02696884423494339,-0.005485322792083025,-0.028720613569021225,-0.07135532051324844,-0.3006168007850647,-1.3879812955856323,0.025222744792699814,0.0,0.0,0.0,0.010735798627138138,-0.015883726999163628,-0.0,0.0,0.0,0.0,0.008011436089873314,-0.027318771928548813,-0.004242602735757828,13950.0,19430.0,17950.0,17519.0,0.43577849864959717,0.8739948272705078,0.7408415079116821,0.7040832042694092,0.0,0.0,0.0,0.0,13497.0,19917.0,17063.0,18221.0,2.7426974773406982,0.04286507294668753,-0.15819437812857204,0.04376737899100424,0.10496366024017334,0.05457649752497673,0.0
300,5,-0.0014603465097025037,0.0005595278344117105,0.0029356731101870537,-0.020551566034555435,-0.014770648442208767,-0.02102476917207241,-0.005485322792083025,-0.028720613569021225,-0.07135532051324844,-0.3006168007850647,-1.3879812955856323,0.025222744792699814,0.0,0.0,0.0,0.011631513945758343,-0.013986516743898392,-0.0,0.0,0.0,0.0,0.008011436089873314,-0.027318771928548813,-0.004242602735757828,13950.0,19430.0,17950.0,17519.0,0.43577849864959717,0.8739948272705078,0.7408415079116821,0.7040832042694092,0.0,0.0,0.0,0.0,13497.0,19917.0,17063.0,18221.0,2.7313108444213867,0.04146736162040869,-0.16264546665219012,0.044332215037944045,0.09204263985157013,0.058884114027023315,0.0
305,5,-0.0015392940258607268,0.0006344490684568882,0.0030169705860316753,-0.01769432984292507,-0.014898805879056454,-0.018165620043873787,-0.01341535896062851,-0.0032967685256153345,-0.0686429813504219,-0.4007267355918884,-0.985470175743103,0.11896239966154099,0.0,0.0,0.0,0.011631513945758343,-0.013986516743898392,-0.0,0.0,0.0,0.0,0.00770112220197916,-0.02331138215959072,-0.003906573168933392,13952.0,19205.0,17874.0,17701.0,0.4359259605407715,0.8530842065811157,0.734243631362915,0.719443678855896,0.0,0.0,0.0,0.0,14268.0,19246.0,17987.0,17431.0,2.7313108444213867,0.040755330812885,-0.16513034533720303,0.04453926148929264,0.09204263985157013,0.058884114027023315,0.0
310,5,-0.0015729330480098724,0.0007177621591836214,0.0030802912078797817,-0.01111441571265459,-0.015957094728946686,-0.01486470177769661,-0.01341535896062851,-0.0032967685256153345,-0.0686429813504219,-0.4007267355918884,-0.985470175743103,0.11896239966154099,0.0,0.0,0.0,0.011900616809725761,-0.011540552601218224,-0.0,0.0,0.0,0.0,0.00770112220197916,-0.02331138215959072,-0.003906573168933392,13952.0,19205.0,17874.0,17701.0,0.4359259605407715,0.8530842065811157,0.734243631362915,0.719443678855896,0.0,0.0,0.0,0.0,14268.0,19246.0,17987.0,17431.0,2.6914639472961426,0.038575738035666975,-0.16683930760439322,0.04520311005829352,0.07483877241611481,0.05936738848686218,0.0
315,5,-0.0015747707802802324,0.0007926916005089879,0.0030967476777732372,-0.004666290245950222,-0.01537436805665493,-0.00792067963629961,-0.01610085554420948,0.003181555075570941,-0.06768978387117386,-0.2607043981552124,-0.5274445414543152,0.10348889231681824,0.0,0.0,0.0,0.011900616809725761,-0.011540552601218224,-0.0,0.0,0.0,0.0,0.009191437624394894,-0.019026964902877808,-0.004532241728156805,14285.0,18956.0,17301.0,18137.0,0.4582465887069702,0.8301385641098022,0.6859089136123657,0.7570167779922485,0.0,0.0,0.0,0.0,13939.0,19229.0,17656.0,17902.0,2.6914639472961426,0.03865408876496566,-0.16750769878678484,0.046230545038394605,0.07483877241611481,0.05936738848686218,0.0
320,5,-0.0015779034001752734,0.0008542851428501308,0.0030871289782226086,-0.002242428483441472,-0.013540970161557198,-0.0020140085835009813,-0.01610085554420948,0.003181555075570941,-0.06768978387117386,-0.2607043981552124,-0.5274445414543152,0.10348889231681824,0.0,0.0,0.0,0.012499638833105564,-0.004059290513396263,-0.0,0.0,0.0,0.0,0.009191437624394894,-0.019026964902877808,-0.004532241728156805,14285.0,18956.0,17301.0,18137.0,0.4582465887069702,0.8301385641098022,0.6859089136123657,0.7570167779922485,0.0,0.0,0.0,0.0,13939.0,19229.0,17656.0,17902.0,2.6771535873413086,0.039908421414269334,-0.1674888225336314,0.04688321968893802,0.02618425525724888,0.06202385574579239,0.0
325,5,-0.0015534692211076617,0.0009380953852087259,0.003080470487475395,0.0020351221319288015,-0.015473620966076851,-6.603545443795156e-06,-0.017795352265238762,0.006958164740353823,-0.06622926890850067,-0.0042341323569417,-0.025247681885957718,0.12398668378591537,0.0,0.0,0.0,0.012499638833105564,-0.004059290513396263,-0.0,0.0,0.0,0.0,0.006895188242197037,-0.009489793330430984,-0.0038838740438222885,15163.0,18307.0,16666.0,18234.0,0.5198326110839844,0.7719020843505859,0.634185791015625,0.7655434608459473,0.0,0.0,0.0,0.0,14661.0,18710.0,17290.0,18107.0,2.6771535873413086,0.04116062074533061,-0.16679142852882817,0.047348325698326636,0.02618425525724888,0.06202385574579239,0.0
330,5,-0.0015079672448337078,0.0010412794072180986,0.00307094631716609,0.006274284329265356,-0.0185715239495039,0.0011402760865166783,-0.017795352265238762,0.006958164740353823,-0.06622926890850067,-0.0042341323569417,-0.025247681885957718,0.12398668378591537,0.0,0.0,0.0,0.012841680087149143,-0.00014727943926118314,-0.0,0.0,0.0,0.0,0.006895188242197037,-0.009489793330430984,-0.0038838740438222885,15163.0,18307.0,16666.0,18234.0,0.5198326110839844,0.7719020843505859,0.634185791015625,0.7655434608459473,0.0,0.0,0.0,0.0,14661.0,18710.0,17290.0,18107.0,2.655228614807129,0.040843020062591336,-0.16491646729985232,0.04796795090733981,0.00094223691849038,0.06319905817508698,0.0
335,5,-0.0014556264504790306,0.001148607349023223,0.00304534868337214,0.008790621533989906,-0.02030797116458416,0.003527833381667733,-0.0177710372954607,0.0060471417382359505,-0.06513379514217377,0.04000532627105713,0.17263373732566833,0.13334894180297852,0.0,0.0,0.0,0.012841680087149143,-0.00014727943926118314,-0.0,0.0,0.0,0.0,0.006039789412170649,-0.0014540416887030005,-0.0033826064318418503,15670.0,17922.0,16484.0,18355.0,0.5571480989456177,0.7383592128753662,0.6197419166564941,0.7762147188186646,0.0,0.0,0.0,0.0,15335.0,18190.0,16596.0,18273.0,2.655228614807129,0.03999171909978265,-0.1621803179094488,0.04820682650332033,0.00094223691849038,0.06319905817508698,0.0
340,5,-0.0014166977489367127,0.001220710575580597,0.0030375313945114613,0.008187690749764442,-0.016775567084550858,0.002349195769056678,-0.0177710372954607,0.0060471417382359505,-0.06513379514217377,0.04000532627105713,0.17263373732566833,0.13334894180297852,0.0,0.0,0.0,0.01686631701886654,0.0039202980697155,-0.0,0.0,0.0,0.0,0.006039789412170649,-0.0014540416887030005,-0.0033826064318418503,15670.0,17922.0,16484.0,18355.0,0.5571480989456177,0.7383592128753662,0.6197419166564941,0.7762147188186646,0.0,0.0,0.0,0.0,15335.0,18190.0,16596.0,18273.0,2.6388113498687744,0.04121182658467289,-0.1609029452776086,0.04906007256941713,-0.02492392621934414,0.08248970657587051,-0.0
345,5,-0.0013857660815119743,0.0012832317734137177,0.003042103722691536,0.006986867170780897,-0.01421277318149805,0.0003909945080522448,-0.016308870166540146,0.0029437888879328966,-0.06353083997964859,0.19591185450553894,0.3284706175327301,0.1457946002483368,0.0,0.0,0.0,0.01686631701886654,0.0039202980697155,-0.0,0.0,0.0,0.0,0.004117367323487997,0.004114630166441202,-0.003144684247672558,16180.0,17600.0,16099.0,18406.0,0.5959210395812988,0.7108875513076782,0.589676022529602,0.7806689739227295,0.0,0.0,0.0,0.0,15795.0,17746.0,16228.0,18485.0,2.6388113498687744,0.04389944415127729,-0.16007942486155824,0.049724365483817666,-0.02492392621934414,0.08248970657587051,-0.0
351,5,-0.0013435499276965857,0.0013527388218790293,0.003066036617383361,0.007860696874558926,-0.01402596477419138,-0.0027155333664268255,-0.016308870166540146,0.0029437888879328966,-0.06353083997964859,0.19591185450553894,0.3284706175327301,0.1457946002483368,0.0,0.0,0.0,0.0124613456428051,0.0029434121679514647,-0.0,0.0,0.0,0.0,0.004117367323487997,0.004114630166441202,-0.003144684247672558,16180.0,17600.0,16099.0,18406.0,0.5959210395812988,0.7108875513076782,0.589676022529602,0.7806689739227295,0.0,0.0,0.0,0.0,15795.0,17746.0,16228.0,18485.0,2.614104986190796,0.04603481386733734,-0.15858281627819482,0.04973662767139704,-0.018539229407906532,0.060377638787031174,-0.0
356,5,-0.0013141121016815305,0.0014335322193801403,0.0031024497002363205,0.006676813121885061,-0.015305592678487301,-0.005455785896629095,-0.014428195543587208,0.0007275125826708972,-0.062494635581970215,0.24594615399837494,0.2736952602863312,0.12067072838544846,0.0,0.0,0.0,0.0124613456428051,0.0029434121679514647,-0.0,0.0,0.0,0.0,0.002714336384087801,0.005484431982040405,-0.0034577669575810432,16127.0,17622.0,15766.0,18469.0,0.5918281674385071,0.7128059267997742,0.5642967820167542,0.7862977385520935,0.0,0.0,0.0,0.0,16098.0,17754.0,15586.0,18519.0,2.614104986190796,0.04680987695271029,-0.1578065412336781,0.05072399482281594,-0.018539229407906532,0.060377638787031174,-0.0
361,5,-0.001288610277697444,0.0015291485469788313,0.0031542384531348944,0.0057309465482831,-0.01759619452059269,-0.008396979421377182,-0.014428195543587208,0.0007275125826708972,-0.062494635581970215,0.24594615399837494,0.2736952602863312,0.12067072838544846,0.0,0.0,0.0,0.013561777770519257,0.0028380341827869415,-0.0,0.0,0.0,0.0,0.002714336384087801,0.005484431982040405,-0.0034577669575810432,16127.0,17622.0,15766.0,18469.0,0.5918281674385071,0.7128059267997742,0.5642967820167542,0.7862977385520935,0.0,0.0,0.0,0.0,16098.0,17754.0,15586.0,18519.0,2.5981321334838867,0.04729544625106636,-0.1570835066121189,0.051352545424334865,-0.01776602491736412,0.0653073787689209,0.0
366,5,-0.0012997137382626534,0.0015272089513018727,0.003175845369696617,0.0009599606273695827,-0.006805717013776302,-0.005951606668531895,-0.014428195543587208,0.0007275125826708972,-0.062494635581970215,0.24594615399837494,0.2736952602863312,0.12067072838544846,0.0,0.0,0.0,0.013561777770519257,0.0028380341827869415,-0.0,0.0,0.0,0.0,0.002714336384087801,0.005484431982040405,-0.0034577669575810432,16127.0,17622.0,15766.0,18469.0,0.5918281674385071,0.7128059267997742,0.5642967820167542,0.7862977385520935,0.0,0.0,0.0,0.0,16098.0,17754.0,15586.0,18519.0,2.5981321334838867,0.049908683218034655,-0.1572031535855272,0.05177014113351757,-0.01776602491736412,0.0653073787689209,0.0
371,5,-0.0013054580194875598,0.0016065530944615602,0.0032733946572989225,-0.00030532863456755877,-0.012243585661053658,-0.014086555689573288,-0.011144050396978855,-0.002059533027932048,-0.06103339418768883,0.23534053564071655,0.15943169593811035,0.13758917152881622,0.0,0.0,0.0,0.007113378960639238,-0.0005797729827463627,-0.0,0.0,0.0,0.0,0.0025542087387293577,0.006208862643688917,-0.0028893733397126198,16248.0,17409.0,15881.0,18282.0,0.6012409925460815,0.6948449611663818,0.5730266571044922,0.7696987390518188,0.0,0.0,0.0,0.0,16124.0,17410.0,15977.0,18024.0,2.5751683712005615,0.05177686800702397,-0.15852309407960655,0.05288695607895194,0.0035975307691842318,0.03395341709256172,0.0
376,5,-0.0013192027108743787,0.0017076496733352542,0.003360522910952568,-0.0017714954447001219,-0.017029032111167908,-0.016090020537376404,-0.011144050396978855,-0.002059533027932048,-0.06103339418768883,0.23534053564071655,0.15943169593811035,0.13758917152881622,0.0,0.0,0.0,0.007113378960639238,-0.0005797729827463627,-0.0,0.0,0.0,0.0,0.0025542087387293577,0.006208862643688917,-0.0028893733397126198,16248.0,17409.0,15881.0,18282.0,0.6012409925460815,0.6948449611663818,0.5730266571044922,0.7696987390518188,0.0,0.0,0.0,0.0,16124.0,17410.0,15977.0,18024.0,2.5751683712005615,0.05214310310822733,-0.15871224680168022,0.05295105348480649,0.0035975307691842318,0.03395341709256172,0.0
381,5,-0.001322442782111466,0.0018098038854077458,0.0034322456922382116,-0.001097409869544208,-0.019070109352469444,-0.015042737126350403,-0.009408225305378437,-0.0026388405822217464,-0.05988699570298195,0.2820056974887848,0.018857138231396675,0.14495837688446045,0.0,0.0,0.0,0.015462109819054604,-0.00226439256221056,-0.0,0.0,0.0,0.0,0.0011334458831697702,-0.0009653053130023181,-0.002933649579063058,16151.0,17538.0,15896.0,17948.0,0.5936580896377563,0.7056534290313721,0.5741509199142456,0.7406425476074219,0.0,0.0,0.0,0.0,16127.0,17560.0,16079.0,17784.0,2.557374954223633,0.05206190452559555,-0.15973619852383705,0.05404365265043387,0.013952297158539295,0.07328924536705017,0.0
386,5,-0.0013612646143883467,0.0018759691156446934,0.0035256282426416874,-0.005097579676657915,-0.01556787732988596,-0.017223002389073372,-0.009408225305378437,-0.0026388405822217464,-0.05988699570298195,0.2820056974887848,0.018857138231396675,0.14495837688446045,0.0,0.0,0.0,0.015462109819054604,-0.00226439256221056,-0.0,0.0,0.0,0.0,0.0011334458831697702,-0.0009653053130023181,-0.002933649579063058,16151.0,17538.0,15896.0,17948.0,0.5936580896377563,0.7056534290313721,0.5741509199142456,0.7406425476074219,0.0,0.0,0.0,0.0,16127.0,17560.0,16079.0,17784.0,2.557374954223633,0.051961782397691746,-0.16171073582633025,0.05501194836628193,0.013952297158539295,0.07328924536705017,0.0
391,5,-0.0014070634497329593,0.0019290870986878872,0.003635538974776864,-0.007534894626587629,-0.01260131224989891,-0.020078489556908607,-0.006498720031231642,-0.00134756148327142,-0.05818594992160797,0.2043769210577011,-0.21315959095954895,0.13230584561824799,0.0,0.0,0.0,0.01465778797864914,-0.004373218864202499,-0.0,0.0,0.0,0.0,0.0008394067408517003,-0.008081006817519665,-0.0029926453717052937,15742.0,17784.0,16074.0,17723.0,0.5624993443489075,0.7265538573265076,0.5877475142478943,0.7213314175605774,0.0,0.0,0.0,0.0,15593.0,17807.0,16288.0,17636.0,2.5303170680999756,0.053014796567290655,-0.16378574262209444,0.05600179730896552,0.02666121907532215,0.06874223798513412,0.0
396,5,-0.0014785827370360494,0.0019999241922050714,0.003760877763852477,-0.011596274562180042,-0.013540982268750668,-0.023072058334946632,-0.006498720031231642,-0.00134756148327142,-0.05818594992160797,0.2043769210577011,-0.21315959095954895,0.13230584561824799,0.0,0.0,0.0,0.01465778797864914,-0.004373218864202499,-0.0,0.0,0.0,0.0,0.0008394067408517003,-0.008081006817519665,-0.0029926453717052937,15742.0,17784.0,16074.0,17723.0,0.5624993443489075,0.7265538573265076,0.5877475142478943,0.7213314175605774,0.0,0.0,0.0,0.0,15593.0,17807.0,16288.0,17636.0,2.5303170680999756,0.05479354617160953,-0.16668969491618846,0.057153721455689505,0.02666121907532215,0.06874223798513412,0.0
401,5,-0.0015335347270593047,0.0020713009871542454,0.0038834449369460344,-0.011232749558985233,-0.013981598429381847,-0.023936891928315163,-0.005447279661893845,0.0015043328749015927,-0.05716037005186081,0.10310497879981995,-0.36095109581947327,0.14110784232616425,0.0,0.0,0.0,0.013270019553601742,-0.008532682433724403,-0.0,0.0,0.0,0.0,0.004321706481277943,-0.010533408261835575,-0.0021720416843891144,15172.0,17650.0,17040.0,16955.0,0.5204913020133972,0.7151283621788025,0.6643510460853577,0.6574042439460754,0.0,0.0,0.0,0.0,15511.0,17891.0,16471.0,17176.0,2.5138723850250244,0.0551323568008932,-0.16916458611297575,0.05797283866377685,0.051681749522686005,0.06183013692498207,0.0
406,5,-0.0015866142930462956,0.0021808051969856024,0.00401505408808589,-0.010862642899155617,-0.018733132630586624,-0.02536786161363125,-0.005447279661893845,0.0015043328749015927,-0.05716037005186081,0.10310497879981995,-0.36095109581947327,0.14110784232616425,0.0,0.0,0.0,0.013270019553601742,-0.008532682433724403,-0.0,0.0,0.0,0.0,0.004321706481277943,-0.010533408261835575,-0.0021720416843891144,15172.0,17650.0,17040.0,16955.0,0.5204913020133972,0.7151283621788025,0.6643510460853577,0.6574042439460754,0.0,0.0,0.0,0.0,15511.0,17891.0,16471.0,17176.0,2.5138723850250244,0.0550363542216915,-0.17150446059893,0.059102983772051865,0.051681749522686005,0.06183013692498207,0.0
411,5,-0.0016264797886833549,0.0022758825216442347,0.0040794252417981625,-0.009128924459218979,-0.01890254206955433,-0.017871642485260963,-0.005944056436419487,0.009265006519854069,-0.053877390921115875,-0.022777870297431946,-0.37701216340065,0.1509777307510376,0.0,0.0,0.0,0.013270019553601742,-0.008532682433724403,-0.0,0.0,0.0,0.0,0.004550468176603317,-0.010944196954369545,-0.0017517859814688563,15132.0,17582.0,16938.0,16829.0,0.5175663232803345,0.7094109058380127,0.6560759544372559,0.6472638845443726,0.0,0.0,0.0,0.0,15100.0,17670.0,17119.0,16918.0,2.5138723850250244,0.05361993019779647,-0.1741490490606139,0.06032237188395948,0.049530357122421265,0.08230318129062653,0.0
417,5,-0.0016654046485200524,0.00236118002794683,0.004163841251283884,-0.008322546258568764,-0.017796719446778297,-0.017278578132390976,-0.005944056436419487,0.009265006519854069,-0.053877390921115875,-0.022777870297431946,-0.37701216340065,0.1509777307510376,0.0,0.0,0.0,0.01804753765463829,-0.008355307392776012,-0.0,0.0,0.0,0.0,0.004550468176603317,-0.010944196954369545,-0.0017517859814688563,15132.0,17582.0,16938.0,16829.0,0.5175663232803345,0.7094109058380127,0.6560759544372559,0.6472638845443726,0.0,0.0,0.0,0.0,15100.0,17670.0,17119.0,16918.0,2.4605541229248047,0.053296500563554096,-0.1763458425425504,0.06144073771484745,0.049530357122421265,0.08230318129062653,0.0
422,5,-0.0017068659653887153,0.0024509963113814592,0.004260476212948561,-0.008304372429847717,-0.017896635457873344,-0.01850765012204647,-0.005944056436419487,0.009265006519854069,-0.053877390921115875,-0.022777870297431946,-0.37701216340065,0.1509777307510376,0.0,0.0,0.0,0.017497144639492035,-0.006822605151683092,-0.0,0.0,0.0,0.0,0.0066908495500683784,-0.014495395123958588,-0.0022607017308473587,14436.0,17858.0,17048.0,16831.0,0.46853700280189514,0.7329028248786926,0.6650272011756897,0.6474053263664246,0.0,0.0,0.0,0.0,15022.0,17637.0,17030.0,16777.0,2.4605014324188232,0.052689064800655896,-0.17817048883747202,0.061750893656093035,0.04044416919350624,0.07979195564985275,0.0
427,5,-0.0017130349297076464,0.0025361848529428244,0.004315000493079424,-0.004062023479491472,-0.017381275072693825,-0.013945968821644783,-0.005944056436419487,0.009265006519854069,-0.053877390921115875,-0.022777870297431946,-0.37701216340065,0.1509777307510376,0.0,0.0,0.0,0.017497144639492035,-0.006822605151683092,-0.0,0.0,0.0,0.0,0.0066908495500683784,-0.014495395123958588,-0.0022607017308473587,14436.0,17858.0,17048.0,16831.0,0.46853700280189514,0.7329028248786926,0.6650272011756897,0.6474053263664246,0.0,0.0,0.0,0.0,15022.0,17637.0,17030.0,16777.0,2.4605014324188232,0.05268458558763104,-0.17934368359854322,0.06211464071150048,0.04044416919350624,0.07979195564985275,0.0
432,5,-0.0017104014987125993,0.002601168118417263,0.004366423934698105,-0.0013088015839457512,-0.014750506728887558,-0.01174923311918974,-0.00849134847521782,0.017279652878642082,-0.05164944753050804,-0.08645499497652054,-0.2601116895675659,0.017884064465761185,0.0,0.0,0.0,0.017633937299251556,-0.004236369393765926,-0.0,0.0,0.0,0.0,0.00672486424446106,-0.012635987251996994,-0.004824190400540829,13497.0,18255.0,15936.0,17585.0,0.40628430247306824,0.7674028873443604,0.5771818161010742,0.7096850872039795,0.0,0.0,0.0,0.0,14291.0,17987.0,16841.0,17024.0,2.4234721660614014,0.051394082989287784,-0.18029679409282015,0.062331788218719125,0.02473517134785652,0.07920543849468231,0.0
437,5,-0.0016952211735770106,0.002704830374568701,0.004406867548823357,0.0012981167528778315,-0.018339689821004868,-0.009552874602377415,-0.00849134847521782,0.017279652878642082,-0.05164944753050804,-0.08645499497652054,-0.2601116895675659,0.017884064465761185,0.0,0.0,0.0,0.017633937299251556,-0.004236369393765926,-0.0,0.0,0.0,0.0,0.00672486424446106,-0.012635987251996994,-0.004824190400540829,13497.0,18255.0,15936.0,17585.0,0.40628430247306824,0.7674028873443604,0.5771818161010742,0.7096850872039795,0.0,0.0,0.0,0.0,14291.0,17987.0,16841.0,17024.0,2.4234721660614014,0.050242495041799465,-0.1800883777403043,0.06294013377919967,0.02473517134785652,0.07920543849468231,0.0
442,5,-0.001694375998340547,0.0027615083381533623,0.004405540879815817,0.0006206674734130502,-0.014137212187051773,-0.0036619706079363823,-0.009966769255697727,0.01963171921670437,-0.05104831978678703,-0.11051192134618759,-0.10700411349534988,0.0881456807255745,0.0,0.0,0.0,0.018642742186784744,-0.0007780118612572551,-0.0,0.0,0.0,0.0,0.007145967800170183,-0.010977639816701412,-0.0036753127351403236,14149.0,17717.0,16322.0,17274.0,0.4490884244441986,0.7208447456359863,0.6069595813751221,0.6836613416671753,0.0,0.0,0.0,0.0,13356.0,18328.0,15810.0,17728.0,2.4234955310821533,0.049767684127101655,-0.18020892150090653,0.06374856030184749,0.004542603623121977,0.08373651653528214,0.0
447,5,-0.0017200586153194308,0.00280696339905262,0.0043987100943923,-0.002833646722137928,-0.011109493672847748,-0.0006450900691561401,-0.009966769255697727,0.01963171921670437,-0.05104831978678703,-0.11051192134618759,-0.10700411349534988,0.0881456807255745,0.0,0.0,0.0,0.018642742186784744,-0.0007780118612572551,-0.0,0.0,0.0,0.0,0.007145967800170183,-0.010977639816701412,-0.0036753127351403236,14149.0,17717.0,16322.0,17274.0,0.4490884244441986,0.7208447456359863,0.6069595813751221,0.6836613416671753,0.0,0.0,0.0,0.0,13356.0,18328.0,15810.0,17728.0,2.4234955310821533,0.05137592028301051,-0.1799297470042505,0.0644148334881997,0.004542603623121977,0.08373651653528214,0.0
452,5,-0.0017337806057184935,0.0028425008058547974,0.004340650513768196,-0.002780091715976596,-0.00870827678591013,0.00670912628993392,-0.009966769255697727,0.01963171921670437,-0.05104831978678703,-0.11051192134618759,-0.10700411349534988,0.0881456807255745,0.0,0.0,0.0,0.018642742186784744,-0.0007780118612572551,-0.0,0.0,0.0,0.0,0.007145967800170183,-0.010977639816701412,-0.0036753127351403236,14149.0,17717.0,16322.0,17274.0,0.4490884244441986,0.7208447456359863,0.6069595813751221,0.6836613416671753,0.0,0.0,0.0,0.0,13356.0,18328.0,15810.0,17728.0,2.4234955310821533,0.052772064029338414,-0.17986450230330617,0.06516978026287211,0.004542603623121977,0.08373651653528214,0.0
457,5,-0.0017340101767331362,0.0028761127032339573,0.0042673135176301,-0.0011395943583920598,-0.007516756653785706,0.011484066024422646,-0.010001189075410366,0.019177144393324852,-0.050048429518938065,0.053861331194639206,0.18852996826171875,0.11996263265609741,0.0,0.0,0.0,0.01081783976405859,-0.0034489857498556376,-0.0,0.0,0.0,0.0,0.00501966942101717,-0.004723564255982637,-0.002192326821386814,15122.0,17107.0,16197.0,17188.0,0.5168648362159729,0.6698612570762634,0.597268283367157,0.6765070557594299,0.0,0.0,0.0,0.0,14564.0,17426.0,16410.0,17144.0,2.413151979446411,0.054110401364006466,-0.17765692021600005,0.06512902256208893,0.020054031163454056,0.048385851085186005,-0.0
462,5,-0.0017221947200596333,0.0029243864119052887,0.00419582286849618,0.0009620156488381326,-0.008799548260867596,0.013172512874007225,-0.010001189075410366,0.019177144393324852,-0.050048429518938065,0.053861331194639206,0.18852996826171875,0.11996263265609741,0.0,0.0,0.0,0.01081783976405859,-0.0034489857498556376,-0.0,0.0,0.0,0.0,0.00501966942101717,-0.004723564255982637,-0.002192326821386814,15122.0,17107.0,16197.0,17188.0,0.5168648362159729,0.6698612570762634,0.597268283367157,0.6765070557594299,0.0,0.0,0.0,0.0,14564.0,17426.0,16410.0,17144.0,2.413151979446411,0.05336506197332077,-0.17611848072260855,0.06564458486888711,0.020054031163454056,0.048385851085186005,-0.0
467,5,-0.0016841280739754438,0.0029775146394968033,0.004095300566405058,0.004952806048095226,-0.009895209223031998,0.01733168587088585,-0.008859735913574696,0.01658627949655056,-0.048887722194194794,0.12858399748802185,0.2715027630329132,0.08358265459537506,0.0,0.0,0.0,0.011074735783040524,-0.0010328360367566347,-0.0,0.0,0.0,0.0,0.004805285017937422,0.00019993829482700676,-0.0031340166460722685,14992.0,17059.0,15485.0,17550.0,0.5075469017028809,0.665952205657959,0.5433354377746582,0.7066609859466553,0.0,0.0,0.0,0.0,15098.0,16908.0,15876.0,17256.0,2.396292209625244,0.052722041652339166,-0.17347660161235054,0.0657382757011749,0.005963433068245649,0.049188725650310516,-0.0
472,5,-0.0016570196021348238,0.003019992494955659,0.00396751519292593,0.00523414695635438,-0.009055431932210922,0.022266896441578865,-0.008859735913574696,0.01658627949655056,-0.048887722194194794,0.12858399748802185,0.2715027630329132,0.08358265459537506,0.0,0.0,0.0,0.011074735783040524,-0.0010328360367566347,-0.0,0.0,0.0,0.0,0.004805285017937422,0.00019993829482700676,-0.0031340166460722685,14992.0,17059.0,15485.0,17550.0,0.5075469017028809,0.665952205657959,0.5433354377746582,0.7066609859466553,0.0,0.0,0.0,0.0,15098.0,16908.0,15876.0,17256.0,2.396292209625244,0.0527208294677851,-0.171507200203073,0.06595956409745075,0.005963433068245649,0.049188725650310516,-0.0
477,5,-0.001644684700295329,0.003034553723409772,0.003837060648947954,0.0035738341975957155,-0.005369508173316717,0.024561317637562752,-0.007595652248710394,0.014437106437981129,-0.048290323466062546,0.16786429286003113,0.2985929548740387,0.0619889497756958,0.0,0.0,0.0,0.011506134644150734,0.0018178581958636642,-0.0,0.0,0.0,0.0,0.0019291735952720046,0.0007744028116576374,-0.0035127555020153522,14994.0,17291.0,15121.0,17514.0,0.5076882839202881,0.6850272417068481,0.5167398452758789,0.703696608543396,0.0,0.0,0.0,0.0,15104.0,17151.0,14865.0,17574.0,2.376600980758667,0.0544131187237952,-0.16995660593394213,0.0660540226346695,-0.010409723035991192,0.050684694200754166,-0.0
