timestamp,dt,pos_x,pos_y,pos_z,vel_x,vel_y,vel_z,roll,pitch,yaw,agv_x,agv_y,agv_z,x_ref,y_ref,z_ref,roll_ref,pitch_ref,yaw_ref,x_vel_ref,y_vel_ref,z_vel_ref,x_torque,y_torque,z_torque,w0,w1,w2,w3,u0,u1,u2,u3,m0req,m1req,m2req,m3req,thrust0,thrust1,thrust2,thrust3,thrust_ref,roll_vicon,pitch_vicon,yaw_vicon,acc_x,acc_y,acc_z
5,5,0.0,0.0,0.0,0.0019510154379531741,-0.0038398178294301033,0.0024511932861059904,-0.04527197405695915,-0.017385561019182205,0.00011122533760499209,-0.003836176125332713,0.0023768949322402477,0.00016776134725660086,0.0,0.0,0.0,0.0046533942222595215,0.001818773802369833,-0.0,0.0,0.0,0.0,0.009074578993022442,0.00352092576213181,1.638618186916574e-06,1495.0,1495.0,1495.0,1495.0,0.0,0.0,0.0,0.0,0.0,0.0,0.0,0.0,1495.0,1495.0,1495.0,1495.0,1.6694227457046509,-0.04659182048617845,0.04021819634434611,0.018958591241010257,-0.007316308096051216,0.014399317093193531,0.0
35,30,0.0,0.0,0.0,0.00042201793985441327,-5.910446998314001e-05,0.0001130185992224142,-0.04527197405695915,-0.017385561019182205,0.00011122533760499209,-0.003836176125332713,0.0023768949322402477,0.00016776134725660086,0.0,0.0,0.0,0.0046533942222595215,0.001818773802369833,-0.0,0.0,0.0,0.0,0.009074578993022442,0.00352092576213181,1.638618186916574e-06,1495.0,1495.0,1495.0,1495.0,0.0,0.0,0.0,0.0,0.0,0.0,0.0,0.0,1495.0,1495.0,1495.0,1495.0,1.6694227457046509,-0.04661720430658369,0.040257869750894466,0.01926088441805647,-0.007316308096051216,0.014399317093193531,0.0
40,5,0.0,0.0,0.0,-0.00021675456082448363,2.199104528699536e-05,0.0019132794113829732,-0.045277297496795654,-0.017379289492964745,0.00014919345267117023,-0.003715611295774579,0.005734683014452457,-0.0028997138142585754,0.0,0.0,0.0,0.0046533942222595215,0.001818773802369833,-0.0,0.0,0.0,0.0,0.009993732906877995,0.003857491770759225,0.00011258242739131674,1495.0,1495.0,1495.0,1495.0,0.0,0.0,0.0,0.0,0.0,0.0,0.0,0.0,1495.0,1495.0,1495.0,1495.0,1.6694227457046509,-0.04652073570743621,0.04006271655024007,0.019257930983352222,-0.007316308096051216,0.014399317093193531,0.0
45,5,0.0,0.0,0.0,-0.002112404676154256,0.0003188873524777591,-0.002042805077508092,-0.045277297496795654,-0.017379289492964745,0.00014919345267117023,-0.003715611295774579,0.005734683014452457,-0.0028997138142585754,0.0,0.0,0.0,-2.7320676963427104e-05,-0.0002071431081276387,-0.0,0.0,0.0,0.0,0.009993732906877995,0.003857491770759225,0.00011258242739131674,1495.0,1495.0,1495.0,1495.0,0.0,0.0,0.0,0.0,0.0,0.0,0.0,0.0,1495.0,1495.0,1495.0,1495.0,1.6284600496292114,-0.046022981193363934,0.04057672297677094,0.019293973994908002,0.0008128295885398984,-8.246641664300114e-05,0.0
50,5,0.0,0.0,0.0,-0.002112404676154256,0.0003188873524777591,-0.002042805077508092,-0.045255765318870544,-0.01739436574280262,0.0001178901075036265,0.003994596656411886,0.001115221413783729,-0.0012373944045975804,0.0,0.0,0.0,-0.0003916020505130291,-0.001995454076677561,-0.0,0.0,0.0,0.0,0.009992992505431175,0.003880803007632494,9.129578756983392e-06,1495.0,1495.0,1495.0,1495.0,0.0,0.0,0.0,0.0,0.0,0.0,0.0,0.0,13286.0,12682.0,14071.0,14556.0,1.6474608182907104,-0.046022981193363934,0.04057672297677094,0.019293973994908002,0.007921517826616764,-0.0011958276154473424,0.0
65,16,1.908191916299984e-05,4.700916065303318e-07,1.0394624951004516e-05,0.0008395739714615047,-0.0016202029073610902,0.0014447421999648213,-0.045255765318870544,-0.01739436574280262,0.0001178901075036265,0.003994596656411886,0.001115221413783729,-0.0012373944045975804,0.0,0.0,0.0,-0.0003916020505130291,-0.001995454076677561,-0.0,0.0,0.0,0.0,0.009992992505431175,0.003880803007632494,9.129578756983392e-06,1495.0,1495.0,1495.0,1495.0,0.0,0.0,0.0,0.0,0.0,0.0,0.0,0.0,13286.0,12682.0,14071.0,14556.0,1.6474608182907104,-0.046125548526099035,0.04025217840713388,0.019329573647215277,0.007921517826616764,-0.0011958276154473424,0.0
73,8,1.1023579645552672e-05,7.170457138272468e-06,8.814208740659524e-06,-0.0006311712204478681,-0.0014521250268444419,0.0007675468805246055,-0.045255765318870544,-0.01739436574280262,0.0001178901075036265,0.003994596656411886,0.001115221413783729,-0.0012373944045975804,0.0,0.0,0.0,-0.0003916020505130291,-0.001995454076677561,-0.0,0.0,0.0,0.0,0.009992992505431175,0.003880803007632494,9.129578756983392e-06,1495.0,1495.0,1495.0,1495.0,0.0,0.0,0.0,0.0,0.0,0.0,0.0,0.0,13286.0,12682.0,14071.0,14556.0,1.6474608182907104,-0.04597930306748063,0.04007114827778015,0.019146140556670046,0.007921517826616764,-0.0011958276154473424,0.0
78,5,1.8677979824133217e-05,1.6211579350056127e-05,-1.3301159924594685e-05,0.0006660594372078776,-0.0016657846281304955,0.002960862824693322,-0.0452454574406147,-0.017390545457601547,0.00012119102757424116,-0.0013911454007029533,0.005367544014006853,-0.005726744420826435,0.0,0.0,0.0,0.0018022725125774741,-0.0005829182337038219,-0.0,0.0,0.0,0.0,0.009976535104215145,0.003880687989294529,0.00010893693979596719,13296.0,12668.0,14074.0,14556.0,0.39353832602500916,0.3550138771533966,0.4440167248249054,0.4768538177013397,0.0,0.0,0.0,0.0,13264.0,12703.0,14047.0,14580.0,1.641884684562683,-0.0453652676838165,0.04031501011787855,0.01900731964948132,0.0023062238469719887,0.0054849316366016865,-0.0
84,5,9.796277481655125e-06,3.2570787880104035e-06,-3.883646786562167e-05,-0.0013171156169846654,0.002023461740463972,0.002488057129085064,-0.0452454574406147,-0.017390545457601547,0.00012119102757424116,-0.0013911454007029533,0.005367544014006853,-0.005726744420826435,0.0,0.0,0.0,0.0018022725125774741,-0.0005829182337038219,-0.0,0.0,0.0,0.0,0.009976535104215145,0.003880687989294529,0.00010893693979596719,13296.0,12668.0,14074.0,14556.0,0.39353832602500916,0.3550138771533966,0.4440167248249054,0.4768538177013397,0.0,0.0,0.0,0.0,13264.0,12703.0,14047.0,14580.0,1.641884684562683,-0.04608553504491349,0.03993233312979767,0.019572521052634354,0.0023062238469719887,0.0054849316366016865,-0.0
89,5,1.7838627854871447e-06,3.5454067983664572e-06,-2.5400791855645366e-05,-0.00148833601269871,0.0007747853524051607,-0.000617058074567467,-0.045253731310367584,-0.017455685883760452,0.0001128270523622632,-0.0059497603215277195,0.0012995200231671333,-0.0023780418559908867,0.0,0.0,0.0,-0.0024749336298555136,-0.0012285936390981078,-0.0,0.0,0.0,0.0,0.009003008715808392,0.003155551850795746,-5.898158633499406e-05,13174.0,12753.0,13944.0,14399.0,0.3859160840511322,0.36010345816612244,0.4353885352611542,0.46605274081230164,0.0,0.0,0.0,0.0,13142.0,12621.0,13859.0,14348.0,1.6501612663269043,-0.045335006897992636,0.0402466110125871,0.019429399917914574,0.004885231144726276,-0.007570031099021435,0.0
94,5,5.129130840941798e-06,-1.434591581528366e-06,5.6877424867707305e-06,-0.00019390226225368679,0.0009075139532797039,-0.003977447282522917,-0.045253731310367584,-0.017455685883760452,0.0001128270523622632,-0.0059497603215277195,0.0012995200231671333,-0.0023780418559908867,0.0,0.0,0.0,-0.0011254030978307128,-0.0001773583353497088,-0.0,0.0,0.0,0.0,0.00896658655256033,0.003083056304603815,-3.8677699194522575e-06,13175.0,12757.0,13942.0,14397.0,0.3859558403491974,0.3603649437427521,0.4352724850177765,0.4658675491809845,0.0,0.0,0.0,0.0,13159.0,12771.0,13934.0,14408.0,1.6351960897445679,-0.046696044808353834,0.03997494804179756,0.01958104599943074,0.0006988324457779527,-0.003411036217585206,0.0
101,8,4.341197382018436e-06,-5.896273705729982e-06,4.802596322406316e-06,-0.000172112908330746,0.0008984074229374528,-0.001484761363826692,-0.045253731310367584,-0.017455685883760452,0.0001128270523622632,-0.0059497603215277195,0.0012995200231671333,-0.0023780418559908867,0.0,0.0,0.0,-0.0011254030978307128,-0.0001773583353497088,-0.0,0.0,0.0,0.0,0.00896658655256033,0.003083056304603815,-3.8677699194522575e-06,13175.0,12757.0,13942.0,14397.0,0.3859558403491974,0.3603649437427521,0.4352724850177765,0.4658675491809845,0.0,0.0,0.0,0.0,13159.0,12771.0,13934.0,14408.0,1.6351960897445679,-0.046396725795835335,0.04037351248820714,0.019114219951494094,0.0006988324457779527,-0.003411036217585206,0.0
106,5,1.8698287021834403e-05,-9.743396731209941e-06,1.5920497389743105e-05,0.0016540056094527245,0.0008210177184082568,-0.0019280527485534549,-0.045270275324583054,-0.017392300069332123,7.215471850940958e-05,0.002505723387002945,-0.0005862212856300175,0.0003793861251324415,0.0,0.0,0.0,-0.0010274183005094528,0.0015909139765426517,-0.0,0.0,0.0,0.0,0.009429369121789932,0.0033833393827080727,-1.6168400179594755e-05,13169.0,12654.0,13956.0,14398.0,0.3855738639831543,0.35416096448898315,0.4362031817436218,0.46594667434692383,0.0,0.0,0.0,0.0,13169.0,12761.0,13938.0,14403.0,1.6448359489440918,-0.04673278783434387,0.04002410638882106,0.019252201294919006,-0.006305518094450235,-0.0031324077863246202,0.0
114,7,5.959004738542717e-06,-1.735795012791641e-05,3.465544796199538e-05,-0.0015280082589015365,0.0017885991837829351,-0.0033060393761843443,-0.045270275324583054,-0.017392300069332123,7.215471850940958e-05,0.002505723387002945,-0.0005862212856300175,0.0003793861251324415,0.0,0.0,0.0,-0.0010274183005094528,0.0015909139765426517,-0.0,0.0,0.0,0.0,0.009429369121789932,0.0033833393827080727,-1.6168400179594755e-05,13169.0,12654.0,13956.0,14398.0,0.3855738639831543,0.35416096448898315,0.4362031817436218,0.46594667434692383,0.0,0.0,0.0,0.0,13169.0,12761.0,13938.0,14403.0,1.6448359489440918,-0.04621386716944123,0.040552485763274096,0.019449348771000692,-0.006305518094450235,-0.0031324077863246202,0.0
119,5,2.257088453916367e-05,1.581415602913694e-07,1.7615744582144544e-05,0.0013822222827002406,-0.0013864913489669561,0.0007223485154099762,-0.045270275324583054,-0.017392300069332123,7.215471850940958e-05,0.002505723387002945,-0.0005862212856300175,0.0003793861251324415,0.0,0.0,0.0,-0.0022245855070650578,-0.0014330858830362558,-0.0,0.0,0.0,0.0,0.009429369121789932,0.0033833393827080727,-1.6168400179594755e-05,13169.0,12654.0,13956.0,14398.0,0.3855738639831543,0.35416096448898315,0.4362031817436218,0.46594667434692383,0.0,0.0,0.0,0.0,13169.0,12761.0,13938.0,14403.0,1.6497926712036133,-0.045204802454471775,0.04076549970458997,0.0190549810810764,0.0056970794685184956,-0.006802779156714678,0.0
124,5,1.5400941265397705e-05,1.8486172848497517e-05,-2.244533970952034e-05,-0.00030750432051718235,-0.0027539602015167475,0.005096269305795431,-0.04529215022921562,-0.017426736652851105,6.396144453901798e-05,-0.0023016163613647223,0.008585238829255104,-0.0022785826586186886,0.0,0.0,0.0,-0.0022245855070650578,-0.0014330858830362558,-0.0,0.0,0.0,0.0,0.009464533999562263,0.003462648019194603,-5.129565033712424e-05,13146.0,12671.0,13927.0,14432.0,0.3841540813446045,0.3551943898200989,0.43424832820892334,0.4682878851890564,0.0,0.0,0.0,0.0,13184.0,12636.0,13972.0,14384.0,1.6497926712036133,-0.04711835581158826,0.04042241356206605,0.019499882220995413,0.0056970794685184956,-0.006802779156714678,0.0
129,5,1.7929409295902587e-05,8.510898624081165e-06,-3.131159974145703e-05,0.0001804143685149029,9.544873319100589e-05,0.0031024590134620667,-0.04529215022921562,-0.017426736652851105,6.396144453901798e-05,-0.0023016163613647223,0.008585238829255104,-0.0022785826586186886,0.0,0.0,0.0,-0.0022245855070650578,-0.0014330858830362558,-0.0,0.0,0.0,0.0,0.009464533999562263,0.003462648019194603,-5.129565033712424e-05,13146.0,12671.0,13927.0,14432.0,0.3841540813446045,0.3551943898200989,0.43424832820892334,0.4682878851890564,0.0,0.0,0.0,0.0,13184.0,12636.0,13972.0,14384.0,1.6497926712036133,-0.04653354226071194,0.04033580558988111,0.01948325775926808,0.0056970794685184956,-0.006802779156714678,0.0
134,5,5.998551841912558e-06,6.222804131539306e-06,-1.4603145245928317e-05,-0.001359537011012435,0.0003127508389297873,-0.0007640310213901103,-0.04531007260084152,-0.017490528523921967,7.056142203509808e-05,-0.0022240756079554558,0.005588439758867025,-0.0034101682249456644,0.0,0.0,0.0,-0.00010308442870154977,0.00019760588475037366,-0.0,0.0,0.0,0.0,0.008907674811780453,0.003831702284514904,-2.030339601333253e-05,13153.0,12691.0,13849.0,14386.0,0.3845682740211487,0.3563808798789978,0.4291033148765564,0.465143620967865,0.0,0.0,0.0,0.0,13229.0,12692.0,13878.0,14429.0,1.6284600496292114,-0.04577511218730148,0.04014969450601868,0.019228834501186242,-0.0007754054968245327,-0.0003111563855782151,0.0
139,5,4.293236997909844e-06,5.788538601336768e-06,-1.2848830920120236e-05,-0.0007484526140615344,0.0001772121904650703,-0.0005161301232874393,-0.04531007260084152,-0.017490528523921967,7.056142203509808e-05,-0.0022240756079554558,0.005588439758867025,-0.0034101682249456644,0.0,0.0,0.0,-0.00010308442870154977,0.00019760588475037366,-0.0,0.0,0.0,0.0,0.008907674811780453,0.003831702284514904,-2.030339601333253e-05,13153.0,12691.0,13849.0,14386.0,0.3845682740211487,0.3563808798789978,0.4291033148765564,0.465143620967865,0.0,0.0,0.0,0.0,13229.0,12692.0,13878.0,14429.0,1.6284600496292114,-0.04575467052344835,0.04008951769704924,0.019133360694514674,-0.0007754054968245327,-0.0003111563855782151,0.0
144,5,1.2790174878318794e-05,7.613032721565105e-06,-3.968027522205375e-05,0.0007202515262179077,-0.00014805440150666982,0.0030133211985230446,-0.04531581699848175,-0.01746278442442417,5.9373865951783955e-05,-0.0013004456413909793,-0.0011037775548174977,0.0002810406731441617,0.0,0.0,0.0,-0.0002089716581394896,-0.0007069971761666238,-0.0,0.0,0.0,0.0,0.008690029382705688,0.0033198229502886534,1.7615908291190863e-05,13230.0,12762.0,13929.0,14389.0,0.38938993215560913,0.360617458820343,0.4344167113304138,0.4653685688972473,0.0,0.0,0.0,0.0,13240.0,12752.0,13948.0,14371.0,1.6334922313690186,-0.04564723547064976,0.040456846431926395,0.0191226067839256,0.0027828295715153217,-0.0006327221053652465,0.0
149,5,7.81144194661465e-07,-9.370200132252648e-06,-1.168630478787236e-05,-0.001152983051724732,0.0019787661731243134,-0.002153947949409485,-0.04531581699848175,-0.01746278442442417,5.9373865951783955e-05,-0.0013004456413909793,-0.0011037775548174977,0.0002810406731441617,0.0,0.0,0.0,-0.0002089716581394896,-0.0007069971761666238,-0.0,0.0,0.0,0.0,0.008690029382705688,0.0033198229502886534,1.7615908291190863e-05,13230.0,12762.0,13929.0,14389.0,0.38938993215560913,0.360617458820343,0.4344167113304138,0.4653685688972473,0.0,0.0,0.0,0.0,13240.0,12752.0,13948.0,14371.0,1.6334922313690186,-0.045594532509550444,0.04028915376325516,0.019181031303499595,0.0027828295715153217,-0.0006327221053652465,0.0
154,5,1.1517392522364389e-05,-4.529611487669172e-06,-1.1663109944493044e-06,0.0008271565893664956,0.00021063584426883608,-0.002123978454619646,-0.04531581699848175,-0.01746278442442417,5.9373865951783955e-05,-0.0013004456413909793,-0.0011037775548174977,0.0002810406731441617,0.0,0.0,0.0,-0.002444386249408126,-0.0010868993122130632,-0.0,0.0,0.0,0.0,0.008690029382705688,0.0033198229502886534,1.7615908291190863e-05,13230.0,12762.0,13929.0,14389.0,0.38938993215560913,0.360617458820343,0.4344167113304138,0.4653685688972473,0.0,0.0,0.0,0.0,13240.0,12752.0,13948.0,14371.0,1.6491367816925049,-0.045977125998169326,0.04021183481414644,0.01918014385245483,0.0043191323056817055,-0.007471955381333828,0.0
159,5,5.666483048116788e-06,-1.9328010239405558e-05,4.066409383085556e-05,-0.000371246540453285,0.001860062126070261,-0.0058692400343716145,-0.04533254727721214,-0.017480412498116493,5.738327308790758e-05,-0.0012392732314765453,0.005429996643215418,-0.0010982309468090534,0.0,0.0,0.0,-0.002444386249408126,-0.0010868993122130632,-0.0,0.0,0.0,0.0,0.009046006016433239,0.003565431572496891,-0.00011121729767182842,13109.0,12658.0,13820.0,14384.0,0.3818388879299164,0.3544098436832428,0.42719516158103943,0.4650161564350128,0.0,0.0,0.0,0.0,13161.0,12596.0,13875.0,14337.0,1.6491367816925049,-0.04608612207624887,0.04045615413858,0.019065485867957786,0.0043191323056817055,-0.007471955381333828,0.0
164,5,-9.200851309287827e-06,-3.2540967367822304e-05,4.64626973553095e-05,-0.0019325787434354424,0.0023295797873288393,-0.0030435281805694103,-0.045317456126213074,-0.017491236329078674,3.328124148538336e-05,-0.00032508966978639364,0.005097240209579468,-0.004272317513823509,0.0,0.0,0.0,-0.0023221054580062628,-0.0003432234516367316,-0.0,0.0,0.0,0.0,0.009032289497554302,0.00338267395272851,5.5609005357837304e-05,13179.0,12630.0,13900.0,14341.0,0.3862178921699524,0.35271984338760376,0.4324900507926941,0.4620644450187683,0.0,0.0,0.0,0.0,13175.0,12591.0,13886.0,14319.0,1.6452986001968384,-0.046783605073025876,0.04109667909374592,0.01885302634918816,0.0013607314322143793,-0.007081650663167238,0.0
169,5,1.5671537767047994e-05,-2.7205171591049293e-06,1.770570634107571e-05,0.0022116550244390965,-0.0026466220151633024,0.002233427483588457,-0.045317456126213074,-0.017491236329078674,3.328124148538336e-05,-0.00032508966978639364,0.005097240209579468,-0.004272317513823509,0.0,0.0,0.0,-0.0023221054580062628,-0.0003432234516367316,-0.0,0.0,0.0,0.0,0.009032289497554302,0.00338267395272851,5.5609005357837304e-05,13179.0,12630.0,13900.0,14341.0,0.3862178921699524,0.35271984338760376,0.4324900507926941,0.4620644450187683,0.0,0.0,0.0,0.0,13175.0,12591.0,13886.0,14319.0,1.6452986001968384,-0.046461316646615874,0.04034268889538041,0.019573840936851966,0.0013607314322143793,-0.007081650663167238,0.0
175,5,1.6034422515076585e-05,-2.1909332645009272e-05,4.07066909247078e-06,0.0009282081737183034,0.0012440091231837869,0.002529575489461422,-0.045317456126213074,-0.017491236329078674,3.328124148538336e-05,-0.00032508966978639364,0.005097240209579468,-0.004272317513823509,0.0,0.0,0.0,0.0032189833000302315,0.002093968214467168,-0.0,0.0,0.0,0.0,0.009032289497554302,0.00338267395272851,5.5609005357837304e-05,13179.0,12630.0,13900.0,14341.0,0.3862178921699524,0.35271984338760376,0.4324900507926941,0.4620644450187683,0.0,0.0,0.0,0.0,13175.0,12591.0,13886.0,14319.0,1.6608737707138062,-0.045791700009226964,0.0401159105456639,0.01932203221177391,-0.008380232378840446,0.00990974623709917,-0.0
180,5,-1.2683366321653011e-06,-1.1191091289219912e-05,2.047558155027218e-05,-0.0017050477908924222,-0.0007885853992775083,-0.0009567592642270029,-0.04536980390548706,-0.01745179109275341,-2.7520691219251603e-06,-0.008980713784694672,-0.012150891125202179,0.026227204129099846,0.0,0.0,0.0,0.0032189833000302315,0.002093968214467168,-0.0,0.0,0.0,0.0,0.008648710325360298,0.0031777466647326946,-0.0003909549559466541,13489.0,12485.0,14188.0,14126.0,0.405766099691391,0.34416934847831726,0.4516957104206085,0.4475056231021881,0.0,0.0,0.0,0.0,13027.0,12782.0,13761.0,14479.0,1.6608737707138062,-0.047162167267143104,0.041131099157855386,0.018925515246219524,-0.008380232378840446,0.00990974623709917,-0.0
185,5,2.848327494575642e-05,2.1151830878807232e-05,-1.3186389878683258e-05,0.0028881742618978024,-0.004196584690362215,0.003656732849776745,-0.04536980390548706,-0.01745179109275341,-2.7520691219251603e-06,-0.008980713784694672,-0.012150891125202179,0.026227204129099846,0.0,0.0,0.0,0.0009497319697402418,-0.001614939421415329,-0.0,0.0,0.0,0.0,0.008648710325360298,0.0031777466647326946,-0.0003909549559466541,13489.0,12485.0,14188.0,14126.0,0.405766099691391,0.34416934847831726,0.4516957104206085,0.4475056231021881,0.0,0.0,0.0,0.0,13027.0,12782.0,13761.0,14479.0,1.6447935104370117,-0.046457903704241445,0.040174899189389345,0.01941807567007834,0.006400577258318663,0.0028954818844795227,0.0
190,5,1.1199824257346336e-05,-5.206073637964437e-06,-1.2787576451955829e-05,-0.0009187444229610264,0.0014843146782368422,0.001414835569448769,-0.04541607201099396,-0.01741606928408146,8.86229463503696e-05,-0.009044804610311985,0.0016987515846267343,-0.027097295969724655,0.0,0.0,0.0,0.0009497319697402418,-0.001614939421415329,-0.0,0.0,0.0,0.0,0.008672120049595833,0.00340680661611259,-0.00016169075388461351,12960.0,12997.0,13654.0,14620.0,0.3726823031902313,0.3749599754810333,0.41640689969062805,0.4812494218349457,0.0,0.0,0.0,0.0,13619.0,12345.0,14304.0,14006.0,1.6447935104370117,-0.04561549419213377,0.04030463808587293,0.019200569737888546,0.006400577258318663,0.0028954818844795227,0.0
195,5,1.2289038750168402e-05,1.4475479474640451e-05,8.182440069504082e-06,-0.00023679200967308134,-0.0017680604942142963,-0.0019504678202793002,-0.04541607201099396,-0.01741606928408146,8.86229463503696e-05,-0.009044804610311985,0.0016987515846267343,-0.027097295969724655,0.0,0.0,0.0,-0.0018366557778790593,-0.0008543364237993956,-0.0,0.0,0.0,0.0,0.008672120049595833,0.00340680661611259,-0.00016169075388461351,12960.0,12997.0,13654.0,14620.0,0.3726823031902313,0.3749599754810333,0.41640689969062805,0.4812494218349457,0.0,0.0,0.0,0.0,13619.0,12345.0,14304.0,14006.0,1.643477439880371,-0.04826689625862749,0.039162144350905224,0.019593919687539433,0.0033833254128694534,-0.005594993941485882,0.0
200,5,-2.9516561426135013e-06,-1.0707733963499777e-05,1.0974667929986026e-06,-0.00192360021173954,0.0023147615138441324,7.000968616921455e-05,-0.04551495611667633,-0.01743689924478531,0.00015318563964683563,-9.405555465491489e-05,0.0003224425599910319,0.038830116391181946,0.0,0.0,0.0,-0.0018366557778790593,-0.0008543364237993956,-0.0,0.0,0.0,0.0,0.00982752162963152,0.0038926564157009125,0.0015562932239845395,13642.0,12251.0,14374.0,14170.0,0.4156285226345062,0.33049651980400085,0.46428582072257996,0.4504629075527191,0.0,0.0,0.0,0.0,12810.0,13141.0,13509.0,14757.0,1.643477439880371,-0.046405002692265836,0.04003709491909307,0.019710170384280055,0.0033833254128694534,-0.005594993941485882,0.0
205,5,3.5909906728193164e-06,-1.0697560355765745e-05,-1.6566122212680057e-05,1.567754770803731e-05,0.0009246837580576539,0.0021476345136761665,-0.04551495611667633,-0.01743689924478531,0.00015318563964683563,-9.405555465491489e-05,0.0003224425599910319,0.038830116391181946,0.0,0.0,0.0,-0.002846402581781149,-0.0018112146062776446,-0.0,0.0,0.0,0.0,0.00982752162963152,0.0038926564157009125,0.0015562932239845395,13642.0,12251.0,14374.0,14170.0,0.4156285226345062,0.33049651980400085,0.46428582072257996,0.4504629075527191,0.0,0.0,0.0,0.0,12810.0,13141.0,13509.0,14757.0,1.6564606428146362,-0.04642598140208755,0.04006919018926605,0.019093102756789267,0.00722937798127532,-0.008739466778934002,-0.0
210,5,-3.951291728299111e-05,-4.1389663238078356e-05,2.6772102501126938e-05,-0.005166197661310434,0.004052925854921341,-0.004341532941907644,-0.04559050872921944,-0.01748104766011238,8.639572479296476e-05,0.005088489968329668,0.007967072539031506,0.09401918202638626,0.0,0.0,0.0,-0.002846402581781149,-0.0018112146062776446,-0.0,0.0,0.0,0.0,0.009437981061637402,0.0032217884436249733,0.001378475921228528,14090.0,11654.0,14826.0,13509.0,0.44508808851242065,0.29696977138519287,0.4957016706466675,0.4070339798927307,0.0,0.0,0.0,0.0,12664.0,13258.0,13445.0,15054.0,1.6564606428146362,-0.046315722477937596,0.04047438748547192,0.01875477535414355,0.00722937798127532,-0.008739466778934002,-0.0
215,5,-8.430279194726609e-06,-3.1284875149140134e-05,5.637687081616605e-06,0.0016634372295811772,0.0004085956607013941,0.0007995166233740747,-0.04559050872921944,-0.01748104766011238,8.639572479296476e-05,0.005088489968329668,0.007967072539031506,0.09401918202638626,0.0,0.0,0.0,-0.004915955476462841,-0.004802236799150705,-0.0,0.0,0.0,0.0,0.009437981061637402,0.0032217884436249733,0.001378475921228528,14090.0,11654.0,14826.0,13509.0,0.44508808851242065,0.29696977138519287,0.4957016706466675,0.4070339798927307,0.0,0.0,0.0,0.0,12664.0,13258.0,13445.0,15054.0,1.6929864883422852,-0.04635702047582422,0.03950068511398381,0.018761709686500216,0.0195903442800045,-0.01542647834867239,0.0
220,5,3.5712405406229664e-06,-3.429571370361373e-05,1.3408301128947642e-05,0.002105557359755039,0.0005247390363365412,-0.0006126670632511377,-0.045718926936388016,-0.017171088606119156,-0.00018966154311783612,-0.020876722410321236,-0.05882832035422325,0.014852841384708881,0.0,0.0,0.0,-0.004915955476462841,-0.004802236799150705,-0.0,0.0,0.0,0.0,0.009185096248984337,0.0027089088689535856,-0.00214689620770514,13293.0,12603.0,14105.0,14206.0,0.3933572471141815,0.35113486647605896,0.4460788071155548,0.4529065191745758,0.0,0.0,0.0,0.0,13016.0,12857.0,13809.0,14541.0,1.6929864883422852,-0.046269113408842516,0.03896316822242188,0.018971880162609686,0.0195903442800045,-0.01542647834867239,0.0
225,5,2.7409944323153468e-06,-1.8125407223124057e-05,5.55657570657786e-05,0.0007425933727063239,-0.0017305410001426935,-0.00530396169051528,-0.045718926936388016,-0.017171088606119156,-0.00018966154311783612,-0.020876722410321236,-0.05882832035422325,0.014852841384708881,0.0,0.0,0.0,-0.0007060979842208326,0.001993360463529825,-0.0,0.0,0.0,0.0,0.009185096248984337,0.0027089088689535856,-0.00214689620770514,13293.0,12603.0,14105.0,14206.0,0.3933572471141815,0.35113486647605896,0.4460788071155548,0.4529065191745758,0.0,0.0,0.0,0.0,13016.0,12857.0,13809.0,14541.0,1.6479829549789429,-0.04654788908850915,0.039132882577324286,0.018462184983135836,-0.007915712893009186,-0.0021568809170275927,0.0
230,5,-7.946125697344542e-05,-0.00010726354230428115,0.00027060258435085416,-0.009567232802510262,0.010004360228776932,-0.027926005423069,-0.045546770095825195,-0.017087355256080627,-0.00015967052604537457,0.036284517496824265,-0.0016244100406765938,-0.07040990144014359,0.0,0.0,0.0,-0.0007060979842208326,0.001993360463529825,-0.0,0.0,0.0,0.0,0.008632251061499119,0.0029663383029401302,-0.0017034518532454967,12540.0,13535.0,13267.0,15008.0,0.3473779559135437,0.40873265266418457,0.39172083139419556,0.5086292028427124,0.0,0.0,0.0,0.0,13091.0,13016.0,13800.0,14510.0,1.6479829549789429,-0.051615727034519415,0.03505330400102634,0.01730161745775645,-0.007915712893009186,-0.0021568809170275927,0.0
235,5,-1.433573015674483e-05,-2.6017860363936052e-05,9.288963337894529e-05,0.003988170064985752,-0.00574773782864213,0.010155152529478073,-0.045546770095825195,-0.017087355256080627,-0.00015967052604537457,0.036284517496824265,-0.0016244100406765938,-0.07040990144014359,0.0,0.0,0.0,-0.011638800613582134,-0.008532017469406128,-0.0,0.0,0.0,0.0,0.008632251061499119,0.0029663383029401302,-0.0017034518532454967,12540.0,13535.0,13267.0,15008.0,0.3473779559135437,0.40873265266418457,0.39172083139419556,0.5086292028427124,0.0,0.0,0.0,0.0,13091.0,13016.0,13800.0,14510.0,1.7664754390716553,-0.0449350438575537,0.0387979961061788,0.01832185533063322,0.036314208060503006,-0.03810716047883034,0.0
241,5,-3.703725087689236e-05,-4.5282631617737934e-05,0.00014729751273989677,-0.0011289145331829786,1.267738207388902e-05,-0.002466884208843112,-0.04462176188826561,-0.01682371273636818,-0.00041789948591031134,0.16985684633255005,-0.03114232048392296,-0.013422554358839989,0.0,0.0,0.0,-0.011638800613582134,-0.008532017469406128,-0.0,0.0,0.0,0.0,0.0077445232309401035,0.002087109489366412,-0.0009190286509692669,13297.0,13292.0,13923.0,14488.0,0.39361312985420227,0.3932875096797943,0.43398019671440125,0.47210565209388733,0.0,0.0,0.0,0.0,13719.0,12917.0,14278.0,14082.0,1.7664754390716553,-0.04340288815539152,0.03762069938636567,0.018785823068867013,0.036314208060503006,-0.03810716047883034,0.0
246,5,-6.76070703775622e-05,-6.348203896777704e-05,0.00021333764016162604,-0.004119944293051958,0.0021889996714890003,-0.00891156867146492,-0.04462176188826561,-0.01682371273636818,-0.00041789948591031134,0.16985684633255005,-0.03114232048392296,-0.013422554358839989,0.0,0.0,0.0,-9.803408465813845e-05,-0.0011243559420108795,-0.0,0.0,0.0,0.0,0.0077445232309401035,0.002087109489366412,-0.0009190286509692669,13297.0,13292.0,13923.0,14488.0,0.39361312985420227,0.3932875096797943,0.43398019671440125,0.47210565209388733,0.0,0.0,0.0,0.0,13719.0,12917.0,14278.0,14082.0,1.6378127336502075,-0.04328936494294953,0.035952994269260186,0.01875751352098519,0.004437311086803675,-0.000297611637506634,0.0
251,5,-9.009421773953363e-05,-0.00010604730778140947,0.000275932252407074,-0.00434643542394042,0.005983432289212942,-0.011075982823967934,-0.0436403788626194,-0.01640041545033455,-0.0005610890220850706,0.044570986181497574,-0.10758347809314728,-0.07971957325935364,0.0,0.0,0.0,-9.803408465813845e-05,-0.0011243559420108795,-0.0,0.0,0.0,0.0,0.0048466697335243225,-0.000477384717669338,0.00067668198607862,13470.0,13989.0,14215.0,14457.0,0.40459445118904114,0.43839773535728455,0.4535050690174103,0.4699781835079193,0.0,0.0,0.0,0.0,13001.0,13117.0,13747.0,14428.0,1.6378127336502075,-0.04056628531986882,0.0350702116223836,0.018409976469531648,0.004437311086803675,-0.000297611637506634,0.0
256,5,-0.0002402841637376696,-0.00018953897233586758,0.0005644216435030103,-0.01976136676967144,0.01241237297654152,-0.039049118757247925,-0.0436403788626194,-0.01640041545033455,-0.0005610890220850706,0.044570986181497574,-0.10758347809314728,-0.07971957325935364,0.0,0.0,0.0,-0.007295586168766022,-0.0040940530598163605,-0.0,0.0,0.0,0.0,0.0048466697335243225,-0.000477384717669338,0.00067668198607862,13470.0,13989.0,14215.0,14457.0,0.40459445118904114,0.43839773535728455,0.4535050690174103,0.4699781835079193,0.0,0.0,0.0,0.0,13001.0,13117.0,13747.0,14428.0,1.7025156021118164,-0.04403144745130045,0.02976694428048628,0.01739493994699878,0.016795143485069275,-0.023022519424557686,0.0
261,5,-0.00022175298363436013,-0.0001807321677915752,0.0005133507656864822,-0.005680806003510952,0.003908132668584585,-0.009491140954196453,-0.03925474360585213,-0.011984942480921745,-0.0009057784336619079,0.3558960258960724,-0.42226722836494446,0.007835441268980503,0.0,0.0,0.0,-0.007295586168766022,-0.0040940530598163605,-0.0,0.0,0.0,0.0,0.0034664315171539783,-0.0030364508274942636,-0.0009688000427559018,13063.0,13263.0,14095.0,13738.0,0.3790407180786133,0.3914753198623657,0.44545823335647583,0.4218384623527527,0.0,0.0,0.0,0.0,12879.0,14550.0,13696.0,14931.0,1.7025156021118164,-0.0381133029905652,0.02984193033720111,0.01884349684533124,0.016795143485069275,-0.023022519424557686,0.0
266,5,-0.00037609360879287124,-0.00023795163724571466,0.0008194067631848156,-0.02079319767653942,0.008429588750004768,-0.04052317887544632,-0.03925474360585213,-0.011984942480921745,-0.0009057784336619079,0.3558960258960724,-0.42226722836494446,0.007835441268980503,0.0,0.0,0.0,-0.00496812304481864,-0.005499716382473707,-0.0,0.0,0.0,0.0,0.0034664315171539783,-0.0030364508274942636,-0.0009688000427559018,13063.0,13263.0,14095.0,13738.0,0.3790407180786133,0.3914753198623657,0.44545823335647583,0.4218384623527527,0.0,0.0,0.0,0.0,12879.0,14550.0,13696.0,14931.0,1.6996501684188843,-0.03795701256166157,0.02582829407947348,0.017414469463158787,0.02252393215894699,-0.01565154455602169,0.0
271,5,-0.0003938207810278982,-0.0002493350184522569,0.00079094193642959,-0.010444537736475468,0.0047378395684063435,-0.012793490663170815,-0.03457801789045334,-0.006025342270731926,-0.000981633784249425,0.43719273805618286,-0.5668609142303467,-0.11330951005220413,0.0,0.0,0.0,-0.00496812304481864,-0.005499716382473707,-0.0,0.0,0.0,0.0,0.004786754958331585,-0.0039795455522835255,-0.0019227131269872189,11990.0,15037.0,13223.0,14704.0,0.3156421184539795,0.5107458233833313,0.38899409770965576,0.48713356256484985,0.0,0.0,0.0,0.0,13488.0,12886.0,14553.0,13197.0,1.6996501684188843,-0.03447452501188605,0.023447581919409953,0.01787859998354996,0.02252393215894699,-0.01565154455602169,0.0
276,5,-0.000509170233272016,-0.0003378503315616399,0.0009309504530392587,-0.018019752576947212,0.012516973540186882,-0.021918417885899544,-0.03457801789045334,-0.006025342270731926,-0.000981633784249425,0.43719273805618286,-0.5668609142303467,-0.11330951005220413,0.0,0.0,0.0,-0.005908506456762552,-0.009815257973968983,-0.0,0.0,0.0,0.0,0.004786754958331585,-0.0039795455522835255,-0.0019227131269872189,11990.0,15037.0,13223.0,14704.0,0.3156421184539795,0.5107458233833313,0.38899409770965576,0.48713356256484985,0.0,0.0,0.0,0.0,13488.0,12886.0,14553.0,13197.0,1.7477768659591675,-0.03375847920702679,0.01877101194712908,0.01731763642027839,0.04133567586541176,-0.01914113387465477,0.0
281,5,-0.0005955622182227671,-0.00032652742811478674,0.001051859580911696,-0.017574936151504517,0.003648043842986226,-0.02327645942568779,-0.03087512031197548,-0.0008529183687642217,-0.0007827825611457229,0.5425097346305847,-0.6680330634117126,0.05609441548585892,0.0,0.0,0.0,-0.005908506456762552,-0.009815257973968983,-0.0,0.0,0.0,0.0,0.0016233277274295688,-0.007439544424414635,0.0008396357879973948,13668.0,13678.0,14881.0,12830.0,0.4173036515712738,0.4179856479167938,0.4996195137500763,0.36474135518074036,0.0,0.0,0.0,0.0,12509.0,14633.0,13733.0,14211.0,1.7477768659591675,-0.02696910342487231,0.016233042417009378,0.017657418936860358,0.04133567586541176,-0.01914113387465477,0.0
286,5,-0.0007105469703674316,-0.0003655600012280047,0.0011669195955619216,-0.020828144624829292,0.006143124308437109,-0.0231177881360054,-0.03087512031197548,-0.0008529183687642217,-0.0007827825611457229,0.5425097346305847,-0.6680330634117126,0.05609441548585892,0.0,0.0,0.0,-0.00460366066545248,-0.01582801528275013,-0.0,0.0,0.0,0.0,0.0016233277274295688,-0.007439544424414635,0.0008396357879973948,13668.0,13678.0,14881.0,12830.0,0.4173036515712738,0.4179856479167938,0.4996195137500763,0.36474135518074036,0.0,0.0,0.0,0.0,12509.0,14633.0,13733.0,14211.0,1.8141145706176758,-0.02288243988544715,0.01229664891297081,0.01718829510055659,0.06918633729219437,-0.015480101108551025,0.0
291,5,-0.0008721419144421816,-0.00043047842336818576,0.0013236780650913715,-0.02772265486419201,0.010247460566461086,-0.028058135882019997,-0.03087512031197548,-0.0008529183687642217,-0.0007827825611457229,0.5425097346305847,-0.6680330634117126,0.05609441548585892,0.0,0.0,0.0,-0.00460366066545248,-0.01582801528275013,-0.0,0.0,0.0,0.0,2.5512905267532915e-05,-0.008898194879293442,-0.001872616820037365,12712.0,15220.0,14100.0,13716.0,0.35761550068855286,0.5239400863647461,0.44579586386680603,0.4204253852367401,0.0,0.0,0.0,0.0,13036.0,14360.0,14326.0,13365.0,1.8141145706176758,-0.022343023691388585,0.008474590250328378,0.016940072398284864,0.06918633729219437,-0.015480101108551025,0.0
297,5,-0.0009779836982488632,-0.00042175297858193517,0.0014473925111815333,-0.02379007451236248,0.003051930572837591,-0.02606898359954357,-0.03087512031197548,-0.0008529183687642217,-0.0007827825611457229,0.5425097346305847,-0.6680330634117126,0.05609441548585892,0.0,0.0,0.0,-0.01140646729618311,-0.0233923252671957,-0.0,0.0,0.0,0.0,2.5512905267532915e-05,-0.008898194879293442,-0.001872616820037365,12712.0,15220.0,14100.0,13716.0,0.35761550068855286,0.5239400863647461,0.44579586386680603,0.4204253852367401,0.0,0.0,0.0,0.0,13036.0,14360.0,14326.0,13365.0,1.9298778772354126,-0.016101579261002176,0.005715781679031417,0.017591715592854763,0.10876452177762985,-0.04080115258693695,0.0
302,5,-0.0010227169841527939,-0.0004530288279056549,0.0014035406056791544,-0.01488402672111988,0.004973873496055603,-0.005165369249880314,-0.017002828419208527,0.012946645729243755,-0.000485266704345122,0.8071885704994202,-0.6961910128593445,0.03340469300746918,0.0,0.0,0.0,-0.01140646729618311,-0.0233923252671957,-0.0,0.0,0.0,0.0,-0.003037966787815094,-0.011433371342718601,0.0014030277961865067,13834.0,14915.0,15156.0,12827.0,0.42814964056015015,0.5020459890365601,0.5193344950675964,0.36458444595336914,0.0,0.0,0.0,0.0,13423.0,14632.0,14721.0,13011.0,1.9298778772354126,-0.011438636846035072,0.002925366312613063,0.017866732837565208,0.10876452177762985,-0.04080115258693695,0.0
307,5,-0.0011279116151854396,-0.0004977644421160221,0.0014810957945883274,-0.018576957285404205,0.007357825990766287,-0.011372767388820648,-0.017002828419208527,0.012946645729243755,-0.000485266704345122,0.8071885704994202,-0.6961910128593445,0.03340469300746918,0.0,0.0,0.0,-0.006343825254589319,-0.014178511686623096,-0.0,0.0,0.0,0.0,-0.003037966787815094,-0.011433371342718601,0.0014030277961865067,13834.0,14915.0,15156.0,12827.0,0.42814964056015015,0.5020459890365601,0.5193344950675964,0.36458444595336914,0.0,0.0,0.0,0.0,13423.0,14632.0,14721.0,13011.0,1.7987573146820068,-0.00937754381699767,8.193450836697116e-05,0.017381831747409485,0.06145140528678894,-0.02115081250667572,0.0
312,5,-0.001238348544575274,-0.0005111523787491024,0.0015389940235763788,-0.020683225244283676,0.004549683537334204,-0.011496894992887974,-0.00686371885240078,0.020143678411841393,-0.000492627383209765,0.8684592843055725,-0.5194185376167297,0.034815751016139984,0.0,0.0,0.0,-0.006343825254589319,-0.014178511686623096,-0.0,0.0,0.0,0.0,-0.004147847183048725,-0.012349767610430717,-0.0005155073013156652,14025.0,15030.0,15003.0,12666.0,0.44075092673301697,0.5102181434631348,0.5082716941833496,0.35487380623817444,0.0,0.0,0.0,0.0,13204.0,15559.0,14479.0,13492.0,1.7987573146820068,-0.004255333388123905,-0.0018168426456013971,0.01850807658697198,0.06145140528678894,-0.02115081250667572,0.0
317,5,-0.00122348521836102,-0.0005304048536345363,0.0014006581623107195,-0.006489685270935297,0.00413016602396965,0.01200154609978199,-0.00686371885240078,0.020143678411841393,-0.000492627383209765,0.8684592843055725,-0.5194185376167297,0.034815751016139984,0.0,0.0,0.0,-0.005782577209174633,-0.018881672993302345,-0.0,0.0,0.0,0.0,-0.004147847183048725,-0.012349767610430717,-0.0005155073013156652,14025.0,15030.0,15003.0,12666.0,0.44075092673301697,0.5102181434631348,0.5082716941833496,0.35487380623817444,0.0,0.0,0.0,0.0,13204.0,15559.0,14479.0,13492.0,1.85491943359375,0.0012373642999008515,-0.0018057639766572676,0.018545670753237858,0.08438871055841446,-0.01988156884908676,0.0
322,5,-0.0013205069117248058,-0.0005774200544692576,0.0014489697059616446,-0.014238473027944565,0.007293893955647945,-0.0009967605583369732,-0.00686371885240078,0.020143678411841393,-0.000492627383209765,0.8684592843055725,-0.5194185376167297,0.034815751016139984,0.0,0.0,0.0,-0.005782577209174633,-0.018881672993302345,-0.0,0.0,0.0,0.0,-0.004147847183048725,-0.012349767610430717,-0.0005155073013156652,14025.0,15030.0,15003.0,12666.0,0.44075092673301697,0.5102181434631348,0.5082716941833496,0.35487380623817444,0.0,0.0,0.0,0.0,13204.0,15559.0,14479.0,13492.0,1.85491943359375,0.002459986435875883,-0.0022800494686104926,0.017494112984924634,0.08438871055841446,-0.01988156884908676,0.0
327,5,-0.0012998823076486588,-0.0005530190537683666,0.001319437986239791,-0.003220445243641734,-1.0565371667325962e-05,0.015145099721848965,0.0004494067979976535,0.02309923619031906,0.00012819209950976074,0.9110134840011597,-0.22700032591819763,0.013447216711938381,0.0,0.0,0.0,-0.005782577209174633,-0.018881672993302345,-0.0,0.0,0.0,0.0,-0.008121909573674202,-0.012126435525715351,0.001511387643404305,14518.0,15722.0,15006.0,13177.0,0.4742085039615631,0.5610465407371521,0.5085318088531494,0.3860909342765808,0.0,0.0,0.0,0.0,14986.0,15116.0,15788.0,12421.0,1.85491943359375,0.009664095568812144,-0.001896999050515975,0.019014669730155833,0.08438871055841446,-0.01988156884908676,0.0
332,5,-0.0013197424123063684,-0.0005897909868508577,0.0012797373346984386,-0.003671383485198021,0.004408405162394047,0.0108221136033535,0.0004494067979976535,0.02309923619031906,0.00012819209950976074,0.9110134840011597,-0.22700032591819763,0.013447216711938381,0.0,0.0,0.0,-0.0009684598771855235,-0.004758946131914854,-0.0,0.0,0.0,0.0,-0.008121909573674202,-0.012126435525715351,0.001511387643404305,14518.0,15722.0,15006.0,13177.0,0.4742085039615631,0.5610465407371521,0.5085318088531494,0.3860909342765808,0.0,0.0,0.0,0.0,14986.0,15116.0,15788.0,12421.0,1.678362250328064,0.013558796770369315,-0.0012433459481103171,0.01912027345696479,0.019246269017457962,-0.003012837842106819,-0.0
337,5,-0.0013324929168447852,-0.0007362694013863802,0.0013004668289795518,-0.002998611656948924,0.019340775907039642,0.0018413099460303783,0.011044283397495747,0.024088548496365547,0.0004077348276041448,0.8986726403236389,0.041902974247932434,0.06927447021007538,0.0,0.0,0.0,-0.0009684598771855235,-0.004758946131914854,-0.0,0.0,0.0,0.0,-0.008361694402992725,-0.007830155082046986,0.0011907857842743397,14907.0,14558.0,14698.0,12304.0,0.5014506578445435,0.47699230909347534,0.4867390990257263,0.3335753083229065,0.0,0.0,0.0,0.0,13902.0,15341.0,14165.0,13132.0,1.678362250328064,0.010158836072428396,-0.004271941888337867,0.01700278231873371,0.019246269017457962,-0.003012837842106819,-0.0
343,5,-0.0013395494315773249,-0.000664387596771121,0.0011760102352127433,-0.002046232810243964,-0.0008895106730051339,0.01567131094634533,0.011044283397495747,0.024088548496365547,0.0004077348276041448,0.8986726403236389,0.041902974247932434,0.06927447021007538,0.0,0.0,0.0,-0.022524045780301094,-0.004207721911370754,-0.0,0.0,0.0,0.0,-0.008361694402992725,-0.007830155082046986,0.0011907857842743397,14907.0,14558.0,14698.0,12304.0,0.5014506578445435,0.47699230909347534,0.4867390990257263,0.3335753083229065,0.0,0.0,0.0,0.0,13902.0,15341.0,14165.0,13132.0,1.8347989320755005,0.020620320030890153,0.0011903863563735588,0.019422467001424023,0.018598414957523346,-0.07659082114696503,-0.0
348,5,-0.00135401776060462,-0.0007619453244842589,0.0011224937625229359,-0.0025546886026859283,0.011351124383509159,0.012690509669482708,0.017862580716609955,0.022876650094985962,0.0006792015628889203,0.8272228837013245,0.2505207359790802,-0.019929872825741768,0.0,0.0,0.0,-0.022524045780301094,-0.004207721911370754,-0.0,0.0,0.0,0.0,-0.010171501897275448,-0.006267127580940723,0.00017187141929753125,14441.0,15503.0,13961.0,13475.0,0.46888267993927,0.544649600982666,0.4365203380584717,0.4048668146133423,0.0,0.0,0.0,0.0,15109.0,14724.0,14973.0,12487.0,1.8347989320755005,0.02314073360479251,-0.0009336184339678234,0.019976706598549606,0.018598414957523346,-0.07659082114696503,-0.0
353,5,-0.0014122837455943227,-0.0008022648980841041,0.0011794583406299353,-0.00801379419863224,0.009378799237310886,-0.0017595574026927352,0.017862580716609955,0.022876650094985962,0.0006792015628889203,0.8272228837013245,0.2505207359790802,-0.019929872825741768,0.0,0.0,0.0,-0.014346729964017868,-0.004024636931717396,-0.0,0.0,0.0,0.0,-0.010171501897275448,-0.006267127580940723,0.00017187141929753125,14441.0,15503.0,13961.0,13475.0,0.46888267993927,0.544649600982666,0.4365203380584717,0.4048668146133423,0.0,0.0,0.0,0.0,15109.0,14724.0,14973.0,12487.0,1.7589988708496094,0.02732791308325133,0.0019104193227954757,0.02036244537101534,0.01705683022737503,-0.046773511916399,-0.0
358,5,-0.0013535160105675459,-0.0008666295325383544,0.001030400744639337,0.0038466048426926136,0.0114752734079957,0.017183098942041397,0.026564808562397957,0.0192633718252182,0.0008370382711291313,0.6567785739898682,0.33334800601005554,0.0328730084002018,0.0,0.0,0.0,-0.014346729964017868,-0.004024636931717396,-0.0,0.0,0.0,0.0,-0.009514253586530685,-0.0019384785555303097,0.000745804572943598,14558.0,14091.0,13511.0,12568.0,0.47697433829307556,0.4451929032802582,0.40716788172721863,0.3490271270275116,0.0,0.0,0.0,0.0,14487.0,14108.0,13472.0,12673.0,1.7589988708496094,0.02993866396229201,0.003986225493994216,0.0202224364339221,0.01705683022737503,-0.046773511916399,-0.0
363,5,-0.0013611522736027837,-0.0009928640211001039,0.0009947005892172456,0.0006222960655577481,0.01973825693130493,0.011157255619764328,0.026564808562397957,0.0192633718252182,0.0008370382711291313,0.6567785739898682,0.33334800601005554,0.0328730084002018,0.0,0.0,0.0,-0.014699358493089676,0.001642559072934091,-0.0,0.0,0.0,0.0,-0.009514253586530685,-0.0019384785555303097,0.000745804572943598,14558.0,14091.0,13511.0,12568.0,0.47697433829307556,0.4451929032802582,0.40716788172721863,0.3490271270275116,0.0,0.0,0.0,0.0,14487.0,14108.0,13472.0,12673.0,1.755139708518982,0.025855614194442725,0.004034000495682158,0.018745347484356908,-0.006946043111383915,-0.04781786724925041,-0.0
368,5,-0.0013824525522068143,-0.0009655706235207617,0.0009948323713615537,-0.00230711349286139,0.0046200864017009735,0.004447092767804861,0.030489491298794746,0.01648191548883915,0.0009103735210373998,0.3343413472175598,0.35222703218460083,-0.03592294827103615,0.0,0.0,0.0,-0.014699358493089676,0.001642559072934091,-0.0,0.0,0.0,0.0,-0.009767596609890461,-0.00039463312714360654,0.000925214437302202,14744.0,15398.0,13186.0,13729.0,0.48994892835617065,0.5369731783866882,0.3866383731365204,0.4212384521961212,0.0,0.0,0.0,0.0,14919.0,15202.0,13377.0,13573.0,1.755139708518982,0.029439575795457685,0.006687823220829586,0.02053910018533142,-0.006946043111383915,-0.04781786724925041,-0.0
373,5,-0.0013992884196341038,-0.0010004857322201133,0.0009708418510854244,-0.0029431567527353764,0.006037853192538023,0.00465769087895751,0.030489491298794746,0.01648191548883915,0.0009103735210373998,0.3343413472175598,0.35222703218460083,-0.03592294827103615,0.0,0.0,0.0,-0.007186855189502239,-0.003975654020905495,-0.0,0.0,0.0,0.0,-0.009767596609890461,-0.00039463312714360654,0.000925214437302202,14744.0,15398.0,13186.0,13729.0,0.48994892835617065,0.5369731783866882,0.3866383731365204,0.4212384521961212,0.0,0.0,0.0,0.0,14919.0,15202.0,13377.0,13573.0,1.700943946838379,0.028917350791167785,0.008479699939313053,0.020599079529656856,0.016294389963150024,-0.022658472880721092,-0.0
378,5,-0.0014111410127952695,-0.0011317671742290258,0.0010105619439855218,-0.0025995769537985325,0.018168911337852478,-0.0029033333994448185,0.03239059820771217,0.012424962595105171,0.0011536352103576064,0.021003084257245064,0.33096015453338623,0.045377351343631744,0.0,0.0,0.0,-0.007186855189502239,-0.003975654020905495,-0.0,0.0,0.0,0.0,-0.007263706997036934,0.00013817331637255847,0.0005138653214089572,15045.0,14147.0,13874.0,12883.0,0.511339008808136,0.4489085376262665,0.43075618147850037,0.36799511313438416,0.0,0.0,0.0,0.0,15030.0,14082.0,14016.0,12818.0,1.700943946838379,0.019846906032588187,0.005829641463624543,0.019081777335946556,0.016294389963150024,-0.022658472880721092,-0.0
383,5,-0.0014646407216787338,-0.001036293338984251,0.0010183030972257257,-0.0074597857892513275,-0.004189289174973965,-0.00209026993252337,0.03239059820771217,0.012424962595105171,0.0011536352103576064,0.021003084257245064,0.33096015453338623,0.045377351343631744,0.0,0.0,0.0,-0.021949030458927155,-0.003984774928539991,-0.0,0.0,0.0,0.0,-0.007263706997036934,0.00013817331637255847,0.0005138653214089572,15045.0,14147.0,13874.0,12883.0,0.511339008808136,0.4489085376262665,0.43075618147850037,0.36799511313438416,0.0,0.0,0.0,0.0,15030.0,14082.0,14016.0,12818.0,1.8286161422729492,0.02466450461786347,0.01047364260949053,0.02063653329305806,0.01755385287106037,-0.07438460737466812,0.0
388,5,-0.0015144975623115897,-0.0010339366272091866,0.001031670835800469,-0.008966739289462566,-0.0019585234113037586,-0.0024402339477092028,0.030877918004989624,0.010560465976595879,0.0014563561417162418,-0.3294902443885803,0.1907503306865692,0.013303712010383606,0.0,0.0,0.0,-0.021949030458927155,-0.003984774928539991,-0.0,0.0,0.0,0.0,-0.007263706997036934,0.00013817331637255847,0.0005138653214089572,14615.0,14255.0,13719.0,13357.0,0.4809194505214691,0.45621249079704285,0.4206320345401764,0.3973757326602936,0.0,0.0,0.0,0.0,14493.0,14243.0,13787.0,13433.0,1.8286161422729492,0.021982124043166545,0.010847585982969197,0.020832754994523195,0.01755385287106037,-0.07438460737466812,0.0
393,5,-0.0015631827991455793,-0.00111468939576298,0.0011531378841027617,-0.009428921155631542,0.008906912058591843,-0.01555214449763298,0.030877918004989624,0.010560465976595879,0.0014563561417162418,-0.3294902443885803,0.1907503306865692,0.013303712010383606,0.0,0.0,0.0,0.0005051308544352651,-0.010027281939983368,-0.0,0.0,0.0,0.0,-0.007263706997036934,0.00013817331637255847,0.0005138653214089572,14615.0,14255.0,13719.0,13357.0,0.4809194505214691,0.45621249079704285,0.4206320345401764,0.3973757326602936,0.0,0.0,0.0,0.0,14493.0,14243.0,13787.0,13433.0,1.7384722232818604,0.009189442121519698,0.005504677210924136,0.018487064827252087,0.04200447350740433,0.0016277218237519264,0.0
398,5,-0.0015960142482072115,-0.000997351249679923,0.0010742256417870522,-0.0077113495208323,-0.010517803020775318,0.00324860867112875,0.02458610199391842,0.008855202235281467,0.001835772767663002,-0.6670742034912109,0.08297189325094223,0.038090143352746964,0.0,0.0,0.0,0.0005051308544352651,-0.010027281939983368,-0.0,0.0,0.0,0.0,-8.428908768109977e-05,-0.00259330659173429,0.0007777293212711811,14221.0,13610.0,14215.0,13078.0,0.4539119303226471,0.413566917181015,0.45351865887641907,0.37994644045829773,0.0,0.0,0.0,0.0,14167.0,13633.0,14248.0,13077.0,1.7384722232818604,0.014729098260104687,0.010494021606812183,0.020912594488152966,0.04200447350740433,0.0016277218237519264,0.0
403,5,-0.0016610383754596114,-0.0009564042557030916,0.0011013044277206063,-0.010887435637414455,-0.009120765142142773,-0.0019500021589919925,0.02458610199391842,0.008855202235281467,0.001835772767663002,-0.6670742034912109,0.08297189325094223,0.038090143352746964,0.0,0.0,0.0,0.010389923118054867,-0.008894423022866249,-0.0,0.0,0.0,0.0,-8.428908768109977e-05,-0.00259330659173429,0.0007777293212711811,14221.0,13610.0,14215.0,13078.0,0.4539119303226471,0.413566917181015,0.45351865887641907,0.37994644045829773,0.0,0.0,0.0,0.0,14167.0,13633.0,14248.0,13077.0,1.7615070343017578,0.011481568265005418,0.010318725020300177,0.02104658453740592,0.037750691175460815,0.03392275050282478,-0.0
408,5,-0.001762314816005528,-0.001000116695649922,0.0012947996146976948,-0.01650814898312092,0.001597181661054492,-0.02399943396449089,0.02458610199391842,0.008855202235281467,0.001835772767663002,-0.6670742034912109,0.08297189325094223,0.038090143352746964,0.0,0.0,0.0,0.010389923118054867,-0.008894423022866249,-0.0,0.0,0.0,0.0,-8.428908768109977e-05,-0.00259330659173429,0.0007777293212711811,14221.0,13610.0,14215.0,13078.0,0.4539119303226471,0.413566917181015,0.45351865887641907,0.37994644045829773,0.0,0.0,0.0,0.0,14167.0,13633.0,14248.0,13077.0,1.7615070343017578,-0.0004673136553091269,0.0038032821324888054,0.0194460870278711,0.037750691175460815,0.03392275050282478,-0.0
414,5,-0.0018102636095136404,-0.0008745443192310631,0.001225822139531374,-0.012357108294963837,-0.014429807662963867,-0.001322476309724152,0.018764251843094826,0.008670983836054802,0.0020353912841528654,-0.8139750361442566,-0.040538717061281204,0.005167514551430941,0.0,0.0,0.0,-0.0034198479261249304,-0.016354436054825783,-0.0,0.0,0.0,0.0,0.002533339662477374,-0.005177771672606468,0.0018476627301424742,13847.0,13628.0,14951.0,13241.0,0.429016649723053,0.41472935676574707,0.5046067237854004,0.3901194930076599,0.0,0.0,0.0,0.0,14554.0,14286.0,14699.0,13504.0,1.8184789419174194,0.004577305687905187,0.008795278270161659,0.021731795859988714,0.07165951281785965,-0.01152715366333723,0.0
419,5,-0.0018894897075369954,-0.0008426181157119572,0.001313692657276988,-0.014449975453317165,-0.009603068232536316,-0.01107344962656498,0.018764251843094826,0.008670983836054802,0.0020353912841528654,-0.8139750361442566,-0.040538717061281204,0.005167514551430941,0.0,0.0,0.0,-0.0034198479261249304,-0.016354436054825783,-0.0,0.0,0.0,0.0,0.002533339662477374,-0.005177771672606468,0.0018476627301424742,13847.0,13628.0,14951.0,13241.0,0.429016649723053,0.41472935676574707,0.5046067237854004,0.3901194930076599,0.0,0.0,0.0,0.0,14554.0,14286.0,14699.0,13504.0,1.8184789419174194,0.0013989631599612593,0.007123410764674927,0.02162915013744102,0.07165951281785965,-0.01152715366333723,0.0
424,5,-0.001964917406439781,-0.0008817994385026395,0.0013798917643725872,-0.014831325970590115,0.0008605340262874961,-0.012373266741633415,0.0042082094587385654,0.011405464261770248,0.002763772616162896,-0.6652193665504456,-0.26353272795677185,0.006334997713565826,0.0,0.0,0.0,0.009306877851486206,-0.014769871719181538,-0.0,0.0,0.0,0.0,0.0036434808280318975,-0.006780662108212709,0.0010101334191858768,13342.0,13956.0,14966.0,13759.0,0.3964602053165436,0.43617913126945496,0.5056660175323486,0.42320165038108826,0.0,0.0,0.0,0.0,13989.0,13530.0,15086.0,13038.0,1.816591501235962,-0.007207931846895155,0.002936504416869926,0.02026445222626152,0.06464743614196777,0.03133707493543625,0.0
429,5,-0.002093707676976919,-0.0007930604624561965,0.0014571176143363118,-0.021387340500950813,-0.010304464027285576,-0.014216416515409946,0.0042082094587385654,0.011405464261770248,0.002763772616162896,-0.6652193665504456,-0.26353272795677185,0.006334997713565826,0.0,0.0,0.0,0.009306877851486206,-0.014769871719181538,-0.0,0.0,0.0,0.0,0.0036434808280318975,-0.006780662108212709,0.0010101334191858768,13342.0,13956.0,14966.0,13759.0,0.3964602053165436,0.43617913126945496,0.5056660175323486,0.42320165038108826,0.0,0.0,0.0,0.0,13989.0,13530.0,15086.0,13038.0,1.816591501235962,-0.0049889263936194654,0.0038881379321139063,0.021984820904731358,0.06464743614196777,0.03133707493543625,0.0
434,5,-0.0021925221662968397,-0.0007616708753630519,0.001516925636678934,-0.020412692800164223,-0.007888533174991608,-0.012863530777394772,-0.0036473609507083893,0.014581693336367607,0.002941692480817437,-0.6251221895217896,-0.2752198576927185,0.01483132503926754,0.0,0.0,0.0,0.009805528447031975,-0.02022453024983406,-0.0,0.0,0.0,0.0,0.006429958622902632,-0.007116575725376606,0.0009230012656189501,13289.0,13836.0,15174.0,13703.0,0.39311644434928894,0.42824605107307434,0.520582914352417,0.4195616543292999,0.0,0.0,0.0,0.0,13454.0,13775.0,15165.0,13613.0,1.8837796449661255,-0.009015018794845984,0.0022728651162817045,0.02177742509667751,0.09179308265447617,0.034237101674079895,0.0
439,5,-0.00247016130015254,-0.0007123448885977268,0.0017957602394744754,-0.02734076976776123,-0.0071756537072360516,-0.028899064287543297,-0.0036473609507083893,0.014581693336367607,0.002941692480817437,-0.6251221895217896,-0.2752198576927185,0.01483132503926754,0.0,0.0,0.0,0.009805528447031975,-0.02022453024983406,-0.0,0.0,0.0,0.0,0.006429958622902632,-0.007116575725376606,0.0009230012656189501,13289.0,13836.0,15174.0,13703.0,0.39311644434928894,0.42824605107307434,0.520582914352417,0.4195616543292999,0.0,0.0,0.0,0.0,13454.0,13775.0,15165.0,13613.0,1.8837796449661255,-0.017197158426593126,-0.0006518884298063002,0.020581030913238558,0.09179308265447617,0.034237101674079895,0.0
444,5,-0.0024460041895508766,-0.0006291272584348917,0.001593982451595366,-0.008037463761866093,-0.012856376357376575,0.012653699144721031,-0.008348115719854832,0.01672910526394844,0.0031196523923426867,-0.547886848449707,-0.23343268036842346,0.009067162871360779,0.0,0.0,0.0,0.006395676173269749,-0.02491672709584236,-0.0,0.0,0.0,0.0,0.004672252107411623,-0.008984791114926338,0.0008777576731517911,13514.0,14346.0,15283.0,13711.0,0.4073888957500458,0.4624222218990326,0.5285490155220032,0.4201188385486603,0.0,0.0,0.0,0.0,13690.0,14239.0,15382.0,13537.0,1.9355660676956177,-0.015888575452875434,-0.00020031195546338135,0.021432187080824935,0.11619757860898972,0.022945506498217583,0.0
449,5,-0.0025421171449124813,-0.0005643736803904176,0.0016133785247802734,-0.014748544432222843,-0.01291297934949398,0.002733959350734949,-0.008348115719854832,0.01672910526394844,0.0031196523923426867,-0.547886848449707,-0.23343268036842346,0.009067162871360779,0.0,0.0,0.0,0.006395676173269749,-0.02491672709584236,-0.0,0.0,0.0,0.0,0.004672252107411623,-0.008984791114926338,0.0008777576731517911,13514.0,14346.0,15283.0,13711.0,0.4073888957500458,0.4624222218990326,0.5285490155220032,0.4201188385486603,0.0,0.0,0.0,0.0,13690.0,14239.0,15382.0,13537.0,1.9355660676956177,-0.018435114741976316,0.00015372271929468598,0.02106522331921135,0.11619757860898972,0.022945506498217583,0.0
454,5,-0.00265410915017128,-0.0005372025771066546,0.0016508792759850621,-0.019338460639119148,-0.008425728417932987,-0.003406511154025793,-0.014688540250062943,0.018895868211984634,0.003091373946517706,-0.5170156955718994,-0.1487424522638321,-0.01145718153566122,0.0,0.0,0.0,0.013238424435257912,-0.015607581473886967,-0.0,0.0,0.0,0.0,0.00781902577728033,-0.008089668117463589,0.0003986258525401354,13108.0,14249.0,15268.0,14186.0,0.3817822337150574,0.4558143615722656,0.5274388790130615,0.4515560269355774,0.0,0.0,0.0,0.0,13363.0,14095.0,15433.0,13921.0,1.8450628519058228,-0.02273581123916579,-0.00020645477335174282,0.02055510947144152,0.06938138604164124,0.0452723428606987,-0.0
459,5,-0.0027166269719600677,-0.0005238018347881734,0.0016880721086636186,-0.015237505547702312,-0.004978378769010305,-0.0058257388882339,-0.014688540250062943,0.018895868211984634,0.003091373946517706,-0.5170156955718994,-0.1487424522638321,-0.01145718153566122,0.0,0.0,0.0,0.013238424435257912,-0.015607581473886967,-0.0,0.0,0.0,0.0,0.00781902577728033,-0.008089668117463589,0.0003986258525401354,13108.0,14249.0,15268.0,14186.0,0.3817822337150574,0.4558143615722656,0.5274388790130615,0.4515560269355774,0.0,0.0,0.0,0.0,13363.0,14095.0,15433.0,13921.0,1.8450628519058228,-0.02935668499934765,-0.0042140530010640175,0.019274464558657212,0.06938138604164124,0.0452723428606987,-0.0
464,5,-0.002770026447251439,-0.0003932387917302549,0.0015589422546327114,-0.012502951547503471,-0.017658915370702744,0.013165278360247612,-0.018610386177897453,0.0193235632032156,0.0031467238441109657,-0.4832006096839905,-0.025404972955584526,-0.011326956562697887,0.0,0.0,0.0,0.004660752136260271,-0.016443809494376183,-0.0,0.0,0.0,0.0,0.00896172784268856,-0.00817688275128603,0.0004991979221813381,13338.0,14446.0,15537.0,14473.0,0.39617234468460083,0.4692651033401489,0.547221302986145,0.4711209237575531,0.0,0.0,0.0,0.0,13714.0,14543.0,15854.0,14433.0,1.8218505382537842,-0.02446190338059017,0.0011713336803759607,0.020637101338340673,0.07218430936336517,0.015738902613520622,0.0
470,5,-0.002998650074005127,-0.0005987914628349245,0.0021109289955347776,-0.032436005771160126,0.01760275475680828,-0.06097228825092316,-0.018610386177897453,0.0193235632032156,0.0031467238441109657,-0.4832006096839905,-0.025404972955584526,-0.011326956562697887,0.0,0.0,0.0,0.004660752136260271,-0.016443809494376183,-0.0,0.0,0.0,0.0,0.00896172784268856,-0.00817688275128603,0.0004991979221813381,13338.0,14446.0,15537.0,14473.0,0.39617234468460083,0.4692651033401489,0.547221302986145,0.4711209237575531,0.0,0.0,0.0,0.0,13714.0,14543.0,15854.0,14433.0,1.8218505382537842,-0.04692705976031292,-0.010066730600790025,0.015765284833606178,0.07218430936336517,0.015738902613520622,0.0
475,5,-0.003061979077756405,-0.0005419692024588585,0.0021169520914554596,-0.020573901012539864,0.00022242798877414316,-0.02511170133948326,-0.023570489138364792,0.0190119631588459,0.0030516874976456165,-0.37959718704223633,0.0715726986527443,-0.008544561453163624,0.0,0.0,0.0,-0.01847429759800434,-0.02833149954676628,-0.0,0.0,0.0,0.0,0.008323046378791332,-0.008191919885575771,0.0005748813855461776,13594.0,14628.0,15707.0,14620.0,0.41254499554634094,0.4818565547466278,0.5598616600036621,0.48130282759666443,0.0,0.0,0.0,0.0,13714.0,14543.0,15854.0,14433.0,2.025561571121216,-0.048576867834458616,-0.009561407362840703,0.015603766343610942,0.13824030756950378,-0.06935488432645798,0.0
480,5,-0.003131147939711809,-0.0004896344617009163,0.002128317952156067,-0.016529807820916176,-0.006191200111061335,-0.011408564634621143,-0.023570489138364792,0.0190119631588459,0.0030516874976456165,-0.37959718704223633,0.0715726986527443,-0.008544561453163624,0.0,0.0,0.0,-0.01847429759800434,-0.02833149954676628,-0.0,0.0,0.0,0.0,0.008323046378791332,-0.008191919885575771,0.0005748813855461776,13594.0,14628.0,15707.0,14620.0,0.41254499554634094,0.4818565547466278,0.5598616600036621,0.48130282759666443,0.0,0.0,0.0,0.0,13714.0,14543.0,15854.0,14433.0,2.025561571121216,-0.05038572540576703,-0.008875962113288779,0.01546535206687004,0.13824030756950378,-0.06935488432645798,0.0
485,5,-0.003235951066017151,-0.0004410570836625993,0.002209579572081566,-0.019188309088349342,-0.008305761031806469,-0.014314831234514713,-0.02617819234728813,0.018190249800682068,0.0030206236988306046,-0.28449153900146484,0.1266796737909317,0.00480682123452425,0.0,0.0,0.0,0.00818119291216135,-0.019789526239037514,-0.0,0.0,0.0,0.0,0.007965755648911,-0.005388123914599419,0.0002359566424274817,13466.0,13919.0,15433.0,14421.0,0.40431204438209534,0.4337538182735443,0.5394865274429321,0.4675104320049286,0.0,0.0,0.0,0.0,13535.0,13885.0,15297.0,14193.0,1.8728914260864258,-0.053522467968517354,-0.009044906000329901,0.015374314805851356,0.08930113911628723,0.02840069681406021,0.0
