timestamp,dt,pos_x,pos_y,pos_z,vel_x,vel_y,vel_z,roll,pitch,yaw,agv_x,agv_y,agv_z,x_ref,y_ref,z_ref,roll_ref,pitch_ref,yaw_ref,x_vel_ref,y_vel_ref,z_vel_ref,x_torque,y_torque,z_torque,w0,w1,w2,w3,u0,u1,u2,u3,m0req,m1req,m2req,m3req,thrust0,thrust1,thrust2,thrust3,thrust_ref,roll_vicon,pitch_vicon,yaw_vicon,acc_x,acc_y,acc_z
5,5,0.0,0.0,0.0,0.0005868825828656554,-0.001144165638834238,0.000906723493244499,-0.0011829538270831108,-0.053760264068841934,-0.007607259321957827,-0.003121310845017433,0.004983595106750727,-0.005650321952998638,0.0,0.0,0.0,0.0014124666340649128,0.0005573106463998556,-0.0,0.0,0.0,0.0,0.00024028036568779498,0.016184844076633453,-0.000843005022034049,1495.0,1495.0,1495.0,1495.0,0.0,0.0,0.0,0.0,0.0,0.0,0.0,0.0,1495.0,1495.0,1495.0,1495.0,1.638829231262207,0.04429531253966436,-0.09016136033637744,0.01893116414789826,-0.002200809773057699,0.0042906212620437145,0.0
30,25,0.0,0.0,0.0,0.0005357936024665833,0.002507787896320224,0.002455193782225251,-0.0011829538270831108,-0.053760264068841934,-0.007607259321957827,-0.003121310845017433,0.004983595106750727,-0.005650321952998638,0.0,0.0,0.0,0.0014124666340649128,0.0005573106463998556,-0.0,0.0,0.0,0.0,0.00024028036568779498,0.016184844076633453,-0.000843005022034049,1495.0,1495.0,1495.0,1495.0,0.0,0.0,0.0,0.0,0.0,0.0,0.0,0.0,1495.0,1495.0,1495.0,1495.0,1.638829231262207,0.044274125635214726,-0.09031108863946495,0.019002615398621716,-0.002200809773057699,0.0042906212620437145,0.0
35,5,0.0,0.0,0.0,0.0015976622235029936,0.0014071216573938727,0.00023623107699677348,-0.0012081749737262726,-0.05372493341565132,-0.007643153425306082,-0.003990534693002701,-0.0038371591363102198,-0.0012358131352812052,0.0,0.0,0.0,-0.003071543760597706,0.0005048018065281212,-0.0,0.0,0.0,0.0,0.0005630429368466139,0.01615750789642334,-0.0008115619421005249,1495.0,1495.0,1495.0,1495.0,0.0,0.0,0.0,0.0,0.0,0.0,0.0,0.0,1495.0,1495.0,1495.0,1495.0,1.6518023014068604,0.04458365818900201,-0.09025856224915008,0.018844015297793684,-0.002009226009249687,-0.009404204785823822,0.0
40,5,0.0,0.0,0.0,0.0015552127733826637,0.0009966661455109715,-0.0025912532582879066,-0.0012081749737262726,-0.05372493341565132,-0.007643153425306082,-0.003990534693002701,-0.0038371591363102198,-0.0012358131352812052,0.0,0.0,0.0,-0.003071543760597706,0.0005048018065281212,-0.0,0.0,0.0,0.0,0.0005630429368466139,0.01615750789642334,-0.0008115619421005249,1495.0,1495.0,1495.0,1495.0,0.0,0.0,0.0,0.0,0.0,0.0,0.0,0.0,1495.0,1495.0,1495.0,1495.0,1.6518023014068604,0.044406596695409674,-0.09000872540191031,0.018797931558407976,-0.002009226009249687,-0.009404204785823822,0.0
45,5,0.0,0.0,0.0,0.002024133922532201,0.0012410577619448304,0.0012372385244816542,-0.0012081749737262726,-0.05372493341565132,-0.007643153425306082,-0.003990534693002701,-0.0038371591363102198,-0.0012358131352812052,0.0,0.0,0.0,-0.001226115389727056,0.0014717308804392815,-0.0,0.0,0.0,0.0,0.0005630429368466139,0.01615750789642334,-0.0008115619421005249,1495.0,1495.0,1495.0,1495.0,0.0,0.0,0.0,0.0,0.0,0.0,0.0,0.0,1495.0,1495.0,1495.0,1495.0,1.6445280313491821,0.04439964412893281,-0.08981594601708173,0.01900107285893149,-0.005832048133015633,-0.0037374980747699738,0.0
50,5,0.0,0.0,0.0,0.002024133922532201,0.0012410577619448304,0.0012372385244816542,-0.0012081749737262726,-0.05372493341565132,-0.007643153425306082,-0.003990534693002701,-0.0038371591363102198,-0.0012358131352812052,0.0,0.0,0.0,-0.001226115389727056,0.0014717308804392815,-0.0,0.0,0.0,0.0,0.0005630429368466139,0.01615750789642334,-0.0008115619421005249,1495.0,1495.0,1495.0,1495.0,0.0,0.0,0.0,0.0,0.0,0.0,0.0,0.0,1495.0,1495.0,1495.0,1495.0,1.6445280313491821,0.04439964412893281,-0.08981594601708173,0.01900107285893149,-0.005832048133015633,-0.0037374980747699738,0.0
55,5,-1.1471161087683868e-06,5.483237146108877e-06,8.346414688276127e-06,0.0001869370462372899,-0.0001270768843824044,0.0009067957289516926,-0.001236241078004241,-0.05375156179070473,-0.007635494694113731,-0.0031689524184912443,0.0035740574821829796,-0.0019271137425675988,0.0,0.0,0.0,-0.001521823345683515,0.0019092755392193794,-0.0,0.0,0.0,0.0,0.0005935978260822594,0.016397930681705475,-0.0007907066610641778,1495.0,1495.0,1495.0,1495.0,0.0,0.0,0.0,0.0,0.0,0.0,0.0,0.0,1495.0,1495.0,1495.0,1495.0,1.649873971939087,0.04437871726914655,-0.08998197774300738,0.018871853602788063,-0.00759050203487277,-0.004653966519981623,0.0
61,6,-1.8890499632107094e-05,2.468105776642915e-05,-9.71303234109655e-06,-0.0014537022216245532,-0.002208782359957695,0.0008640019805170596,-0.001236241078004241,-0.05375156179070473,-0.007635494694113731,-0.0031689524184912443,0.0035740574821829796,-0.0019271137425675988,0.0,0.0,0.0,-0.001521823345683515,0.0019092755392193794,-0.0,0.0,0.0,0.0,0.0005935978260822594,0.016397930681705475,-0.0007907066610641778,1495.0,1495.0,1495.0,1495.0,0.0,0.0,0.0,0.0,0.0,0.0,0.0,0.0,1495.0,1495.0,1495.0,1495.0,1.649873971939087,0.04427763354387804,-0.09002373039128429,0.018774187155959125,-0.00759050203487277,-0.004653966519981623,0.0
66,5,-3.553722854121588e-05,3.6363955587148666e-05,-9.375897207064554e-06,-0.0025790883228182793,-0.0022854607086628675,0.0003051445528399199,-0.001236241078004241,-0.05375156179070473,-0.007635494694113731,-0.0031689524184912443,0.0035740574821829796,-0.0019271137425675988,0.0,0.0,0.0,0.002747573424130678,-0.0013946638209745288,-0.0,0.0,0.0,0.0,0.0005935978260822594,0.016397930681705475,-0.0007907066610641778,1495.0,1495.0,1495.0,1495.0,0.0,0.0,0.0,0.0,0.0,0.0,0.0,0.0,14467.0,12724.0,12046.0,14943.0,1.6530711650848389,0.04446934971115346,-0.09013984880754239,0.018882228616322373,0.005555347073823214,0.008418765850365162,0.0
71,5,-4.535796324489638e-05,1.9588153008953668e-05,-2.8455468054744415e-05,-0.0022101234644651413,0.0010989122092723846,0.002411606488749385,-0.001236241078004241,-0.05375156179070473,-0.007635494694113731,-0.0031689524184912443,0.0035740574821829796,-0.0019271137425675988,0.0,0.0,0.0,0.002747573424130678,-0.0013946638209745288,-0.0,0.0,0.0,0.0,0.0005935978260822594,0.016397930681705475,-0.0007907066610641778,1495.0,1495.0,1495.0,1495.0,0.0,0.0,0.0,0.0,0.0,0.0,0.0,0.0,14467.0,12724.0,12046.0,14943.0,1.6530711650848389,0.044439861007728246,-0.08968231619549617,0.018680851283896065,0.005555347073823214,0.008418765850365162,0.0
76,5,-2.5818178983172402e-05,1.6509851775481366e-05,-3.576334347599186e-05,0.0014607248594984412,0.0008089609909802675,0.0018415877129882574,-0.0012177163735032082,-0.05377545207738876,-0.007619617972522974,0.0027318389620631933,0.0022323757875710726,0.0005831795861013234,0.0,0.0,0.0,-0.001311102299951017,-0.0021456549875438213,-0.0,0.0,0.0,0.0,-0.0003737658844329417,0.01626414619386196,-0.0007845332729630172,14473.0,12724.0,12052.0,14932.0,0.47110700607299805,0.358331561088562,0.31914907693862915,0.5032146573066711,0.0,0.0,0.0,0.0,14455.0,12744.0,12030.0,14950.0,1.65130615234375,0.04433034282363617,-0.09025083191038376,0.019083545717798425,0.008537656627595425,-0.004013030789792538,0.0
81,5,-2.2037853341316804e-05,3.01103154924931e-05,-8.17346005987929e-07,0.0010379289742559195,-0.0013084713136777282,-0.0034568847622722387,-0.0012177163735032082,-0.05377545207738876,-0.007619617972522974,0.0027318389620631933,0.0022323757875710726,0.0005831795861013234,0.0,0.0,0.0,-0.001311102299951017,-0.0021456549875438213,-0.0,0.0,0.0,0.0,-0.0003737658844329417,0.01626414619386196,-0.0007845332729630172,14473.0,12724.0,12052.0,14932.0,0.47110700607299805,0.358331561088562,0.31914907693862915,0.5032146573066711,0.0,0.0,0.0,0.0,14455.0,12744.0,12030.0,14950.0,1.65130615234375,0.044527112710325153,-0.08976762901349188,0.018667447430866263,0.008537656627595425,-0.004013030789792538,0.0
86,5,-7.962413292261772e-06,1.103399245039327e-05,1.073591920430772e-05,0.002104224404320121,0.001765770255587995,-0.0027691456489264965,-0.0012071446981281042,-0.05373391509056091,-0.007613291032612324,-0.0018165926449000835,-0.007103367708623409,-0.0007536137709394097,0.0,0.0,0.0,-0.001311102299951017,-0.0021456549875438213,-0.0,0.0,0.0,0.0,1.2122444786655251e-05,0.0165091585367918,-0.0007813472184352577,14400.0,12685.0,12006.0,14969.0,0.4660837650299072,0.3560412526130676,0.31650489568710327,0.505898118019104,0.0,0.0,0.0,0.0,14444.0,12748.0,12023.0,14962.0,1.65130615234375,0.04404141451532564,-0.09013453086476608,0.018820197322835557,0.008537656627595425,-0.004013030789792538,0.0
91,5,1.9355002223164774e-06,7.007873136899434e-06,3.0839277314953506e-05,0.0020294394344091415,0.0011894424678757787,-0.0035200610291212797,-0.0012071446981281042,-0.05373391509056091,-0.007613291032612324,-0.0018165926449000835,-0.007103367708623409,-0.0007536137709394097,0.0,0.0,0.0,-0.0021406924352049828,0.0019694725051522255,-0.0,0.0,0.0,0.0,1.2122444786655251e-05,0.0165091585367918,-0.0007813472184352577,14400.0,12685.0,12006.0,14969.0,0.4660837650299072,0.3560412526130676,0.31650489568710327,0.505898118019104,0.0,0.0,0.0,0.0,14444.0,12748.0,12023.0,14962.0,1.653452754020691,0.04400248349296972,-0.09013875503532938,0.018915774440301732,-0.007846795953810215,-0.006560757756233215,0.0
97,5,7.577880751341581e-06,-2.4833525458234362e-06,3.0172514016157947e-05,0.001488861395046115,0.0016147240530699492,-0.001328013022430241,-0.0012169417459517717,-0.05372050404548645,-0.007607259787619114,0.0015674085589125752,-4.7919380449457094e-05,-0.0001896059839054942,0.0,0.0,0.0,-0.0021406924352049828,0.0019694725051522255,-0.0,0.0,0.0,0.0,-8.239923045039177e-05,0.016729261726140976,-0.0007546598208136857,14462.0,12673.0,12026.0,14979.0,0.47037017345428467,0.35529690980911255,0.3176564574241638,0.5065504312515259,0.0,0.0,0.0,0.0,14464.0,12662.0,12050.0,14967.0,1.653452754020691,0.04454264612478331,-0.0903017246254157,0.019012460619916793,-0.005624682176858187,-0.006068688817322254,0.0
102,5,7.3200976657972205e-06,4.692227321356768e-06,2.2784937755204737e-05,0.0005646105855703354,-0.00021517998538911343,0.000355303956894204,-0.0012169417459517717,-0.05372050404548645,-0.007607259787619114,0.0015674085589125752,-4.7919380449457094e-05,-0.0001896059839054942,0.0,0.0,0.0,-0.001986478455364704,0.00141626363620162,-0.0,0.0,0.0,0.0,-8.239923045039177e-05,0.016729261726140976,-0.0007546598208136857,14462.0,12673.0,12026.0,14979.0,0.47037017345428467,0.35529690980911255,0.3176564574241638,0.5065504312515259,0.0,0.0,0.0,0.0,14464.0,12662.0,12050.0,14967.0,1.6481736898422241,0.04428884371769243,-0.09003399587337696,0.018729140418292597,-0.005624682176858187,-0.006068688817322254,0.0
107,5,-1.1859367077704519e-05,1.5592559066135436e-05,1.150064417743124e-05,-0.0020756914746016264,-0.0013941118959337473,0.0014962368877604604,-0.0011931421468034387,-0.05373046547174454,-0.007626303005963564,0.004470588639378548,0.0020120611879974604,0.0033427011221647263,0.0,0.0,0.0,-0.001986478455364704,0.00141626363620162,-0.0,0.0,0.0,0.0,0.0007388020167127252,0.015766525641083717,-0.0007643550634384155,14375.0,12683.0,12193.0,14965.0,0.4643997550010681,0.3559005856513977,0.32716870307922363,0.5056021213531494,0.0,0.0,0.0,0.0,14320.0,12738.0,12131.0,15021.0,1.6481736898422241,0.04434460730560978,-0.09011702861759388,0.01879123058970146,-0.005624682176858187,-0.006068688817322254,0.0
112,5,-2.0828760170843452e-05,6.094028321967926e-06,-2.6327872546971776e-05,-0.0019066038075834513,0.0005821789964102209,0.005137916654348373,-0.0011931421468034387,-0.05373046547174454,-0.007626303005963564,0.004470588639378548,0.0020120611879974604,0.0033427011221647263,0.0,0.0,0.0,0.0017359887715429068,-0.0019725237507373095,-0.0,0.0,0.0,0.0,0.0007388020167127252,0.015766525641083717,-0.0007643550634384155,14375.0,12683.0,12193.0,14965.0,0.4643997550010681,0.3559005856513977,0.32716870307922363,0.5056021213531494,0.0,0.0,0.0,0.0,14320.0,12738.0,12131.0,15021.0,1.6514285802841187,0.04466273138093917,-0.09012448411534936,0.018844285040813914,0.00784933753311634,0.0053139179944992065,-0.0
117,5,-3.756332444027066e-05,2.041837797150947e-05,-1.8983608242706396e-05,-0.002770789200440049,-0.0014860504306852818,0.0011738549219444394,-0.0011998205445706844,-0.05368964746594429,-0.007631246000528336,0.0012251974549144506,-0.005554655101150274,0.0029507081490010023,0.0,0.0,0.0,0.0017359887715429068,-0.0019725237507373095,-0.0,0.0,0.0,0.0,-2.748845327005256e-05,0.015408586710691452,-0.0007773354882374406,14384.0,12767.0,12147.0,14898.0,0.4649777114391327,0.3609558641910553,0.3245387375354767,0.5008338093757629,0.0,0.0,0.0,0.0,14508.0,12667.0,12081.0,14947.0,1.6514285802841187,0.043943615039953636,-0.09007620570088602,0.01864691990942159,0.00784933753311634,0.0053139179944992065,-0.0
122,5,-3.4894510463345796e-05,3.285261118435301e-05,-1.9181918105459772e-05,-0.0007880581542849541,-0.0020865281112492085,0.0004933392629027367,-0.0011998205445706844,-0.05368964746594429,-0.007631246000528336,0.0012251974549144506,-0.005554655101150274,0.0029507081490010023,0.0,0.0,0.0,0.0018496137345209718,-0.0026520804967731237,-0.0,0.0,0.0,0.0,-2.748845327005256e-05,0.015408586710691452,-0.0007773354882374406,14384.0,12767.0,12147.0,14898.0,0.4649777114391327,0.3609558641910553,0.3245387375354767,0.5008338093757629,0.0,0.0,0.0,0.0,14508.0,12667.0,12081.0,14947.0,1.6583045721054077,0.04422406143761208,-0.0899343755261545,0.018845655489307084,0.01059745717793703,0.005685301031917334,0.0
127,5,-3.674588515423238e-05,2.425816455797758e-05,-1.5367257219622843e-05,-0.0005373881431296468,0.00019672229245770723,-0.0002604236942715943,-0.0012071570381522179,-0.05366089940071106,-0.007597761694341898,-0.004820011556148529,0.007003491278737783,-0.003250015201047063,0.0,0.0,0.0,0.0018496137345209718,-0.0026520804967731237,-0.0,0.0,0.0,0.0,-0.00017066902364604175,0.016844917088747025,-0.0007481699576601386,14469.0,12704.0,11996.0,15019.0,0.4708471894264221,0.3571586012840271,0.31598252058029175,0.50946444272995,0.0,0.0,0.0,0.0,14423.0,12705.0,11983.0,15000.0,1.6583045721054077,0.044179159859984836,-0.09014283157064355,0.01877182722192143,0.01059745717793703,0.005685301031917334,0.0
132,5,-2.6006944608525373e-05,1.2550096471386496e-05,3.944193849747535e-06,0.0010737177217379212,0.0014836571644991636,-0.0024215434677898884,-0.0012071570381522179,-0.05366089940071106,-0.007597761694341898,-0.004820011556148529,0.007003491278737783,-0.003250015201047063,0.0,0.0,0.0,-0.00019963424711022526,-0.0005639767041429877,-0.0,0.0,0.0,0.0,-0.00017066902364604175,0.016844917088747025,-0.0007481699576601386,14469.0,12704.0,11996.0,15019.0,0.4708471894264221,0.3571586012840271,0.31598252058029175,0.50946444272995,0.0,0.0,0.0,0.0,14423.0,12705.0,11983.0,15000.0,1.6319855451583862,0.044493608613932,-0.08991161725243427,0.018692867444520023,0.002217835746705532,-0.0006038928986527026,0.0
137,5,-1.2085066373401787e-05,1.5362134945462458e-05,9.372695785714313e-06,0.00210011238232255,0.0002560181892476976,-0.001620037597604096,-0.0011959680123254657,-0.05369121953845024,-0.007583635859191418,0.005237724166363478,0.005292699672281742,0.0030590156093239784,0.0,0.0,0.0,-0.00028665343415923417,0.0019674524664878845,-0.0,0.0,0.0,0.0,0.0005242022452875972,0.015588298439979553,-0.0007347235805355012,14368.0,12703.0,12187.0,14937.0,0.4639069139957428,0.3571036756038666,0.3268471658229828,0.5035708546638489,0.0,0.0,0.0,0.0,14453.0,12688.0,12011.0,14963.0,1.6470444202423096,0.04430043804366688,-0.09028791429369132,0.01903461143956456,-0.0078083835542202,-0.0008751268615014851,0.0
142,5,1.034704200719716e-05,2.239172681584023e-05,7.95082360127708e-06,0.003531897906213999,-0.000741143710911274,-0.00047739045112393796,-0.0011959680123254657,-0.05369121953845024,-0.007583635859191418,0.005237724166363478,0.005292699672281742,0.0030590156093239784,0.0,0.0,0.0,-0.00028665343415923417,0.0019674524664878845,-0.0,0.0,0.0,0.0,0.0005242022452875972,0.015588298439979553,-0.0007347235805355012,14368.0,12703.0,12187.0,14937.0,0.4639069139957428,0.3571036756038666,0.3268471658229828,0.5035708546638489,0.0,0.0,0.0,0.0,14453.0,12688.0,12011.0,14963.0,1.6470444202423096,0.04425096714352899,-0.09013902257487645,0.018788619425312954,-0.0078083835542202,-0.0008751268615014851,0.0
147,5,1.6702078937669285e-05,8.939075087255333e-06,-3.5111781926389085e-06,0.002175363712012768,0.0013178607914596796,0.0011844841064885259,-0.0011959680123254657,-0.05369121953845024,-0.007583635859191418,0.005237724166363478,0.005292699672281742,0.0030590156093239784,0.0,0.0,0.0,-0.00028665343415923417,0.0019674524664878845,-0.0,0.0,0.0,0.0,0.0005242022452875972,0.015588298439979553,-0.0007347235805355012,14368.0,12703.0,12187.0,14937.0,0.4639069139957428,0.3571036756038666,0.3268471658229828,0.5035708546638489,0.0,0.0,0.0,0.0,14453.0,12688.0,12011.0,14963.0,1.6470444202423096,0.04451702650986837,-0.09037387433759557,0.01880787260655855,-0.0078083835542202,-0.0008751268615014851,0.0
153,5,4.706147592514753e-06,5.95386109125684e-06,1.701018300082069e-05,-0.0005693663260899484,0.0008853699546307325,-0.001988769741728902,-0.001160729443654418,-0.05368126556277275,-0.0075563532300293446,-0.00044945284025743604,7.19524614396505e-05,-0.0006685819826088846,0.0,0.0,0.0,-0.0015979699091985822,0.0020725701469928026,-0.0,0.0,0.0,0.0,0.0006018143030814826,0.01547010987997055,-0.0007641100091859698,14356.0,12766.0,12205.0,14978.0,0.4630667269229889,0.3609050214290619,0.32784971594810486,0.5064830780029297,0.0,0.0,0.0,0.0,14375.0,12685.0,12206.0,14930.0,1.6517301797866821,0.04447772665428548,-0.09018399541750811,0.01900184519423179,-0.00824896339327097,-0.004892332013696432,0.0
158,5,-3.420721895963652e-06,1.1478874512249604e-05,1.0761848898255266e-05,-0.0012029708595946431,-0.0003088536614086479,-4.570780220092274e-05,-0.001160729443654418,-0.05368126556277275,-0.0075563532300293446,-0.00044945284025743604,7.19524614396505e-05,-0.0006685819826088846,0.0,0.0,0.0,-0.0015979699091985822,0.0020725701469928026,-0.0,0.0,0.0,0.0,0.0006018143030814826,0.01547010987997055,-0.0007641100091859698,14356.0,12766.0,12205.0,14978.0,0.4630667269229889,0.3609050214290619,0.32784971594810486,0.5064830780029297,0.0,0.0,0.0,0.0,14375.0,12685.0,12206.0,14930.0,1.6517301797866821,0.0441887026205495,-0.08994322589062617,0.0186385772753392,-0.00824896339327097,-0.004892332013696432,0.0
163,5,-8.024067028600257e-06,1.7006113921524957e-05,-1.8687074771150947e-05,-0.0010335898259654641,-0.0007868102402426302,0.003515587653964758,-0.0011891236063092947,-0.05368233844637871,-0.007581537123769522,-0.0028285998851060867,0.0066489302553236485,-0.004118466284126043,0.0,0.0,0.0,0.0004023195942863822,-0.001147498027421534,-0.0,0.0,0.0,0.0,0.0002345294924452901,0.016075007617473602,-0.0008342309156432748,14300.0,12663.0,11975.0,14932.0,0.45928362011909485,0.35470715165138245,0.31475040316581726,0.5032443404197693,0.0,0.0,0.0,0.0,14342.0,12777.0,12198.0,14988.0,1.6384769678115845,0.044749718948745514,-0.09015649847696777,0.019170812403225494,0.004530478268861771,0.001221856102347374,0.0
168,5,-2.976762698381208e-05,1.4651924175268505e-05,-1.7906277207657695e-05,-0.003022663062438369,-3.222121449653059e-05,0.0013125392142683268,-0.0011891236063092947,-0.05368233844637871,-0.007581537123769522,-0.0028285998851060867,0.0066489302553236485,-0.004118466284126043,0.0,0.0,0.0,0.0004023195942863822,-0.001147498027421534,-0.0,0.0,0.0,0.0,0.0002345294924452901,0.016075007617473602,-0.0008342309156432748,14300.0,12663.0,11975.0,14932.0,0.45928362011909485,0.35470715165138245,0.31475040316581726,0.5032443404197693,0.0,0.0,0.0,0.0,14342.0,12777.0,12198.0,14988.0,1.6384769678115845,0.0443704403857485,-0.0902170121414016,0.018743411390895852,0.004530478268861771,0.001221856102347374,0.0
173,5,-4.140362216276117e-05,6.606066108361119e-06,-2.3018648789729923e-05,-0.0026053846813738346,0.0009526144713163376,0.001138500403612852,-0.0012035048566758633,-0.053728897124528885,-0.0076561965979635715,0.0011182690504938364,-0.0066452305763959885,0.025238187983632088,0.0,0.0,0.0,6.576925807166845e-05,-0.002880239160731435,-0.0,0.0,0.0,0.0,0.00013058062177151442,0.01673702336847782,-0.0008223761687986553,14517.0,12553.0,12129.0,14904.0,0.47413143515586853,0.34817269444465637,0.323498398065567,0.50124192237854,0.0,0.0,0.0,0.0,14922.0,12054.0,12623.0,14500.0,1.6568870544433594,0.044026297821891776,-0.09021473437476009,0.018882443778342764,0.011499335989356041,0.00020198746642563492,0.0
178,5,-2.3551399863208644e-05,2.3416596377501264e-05,-2.4646735255373642e-05,0.0011001128004863858,-0.0016362178139388561,0.0006507704383693635,-0.0012035048566758633,-0.053728897124528885,-0.0076561965979635715,0.0011182690504938364,-0.0066452305763959885,0.025238187983632088,0.0,0.0,0.0,6.576925807166845e-05,-0.002880239160731435,-0.0,0.0,0.0,0.0,0.00013058062177151442,0.01673702336847782,-0.0008223761687986553,14517.0,12553.0,12129.0,14904.0,0.47413143515586853,0.34817269444465637,0.323498398065567,0.50124192237854,0.0,0.0,0.0,0.0,14922.0,12054.0,12623.0,14500.0,1.6568870544433594,0.04480647892183685,-0.08998905108918592,0.01913571823657168,0.011499335989356041,0.00020198746642563492,0.0
183,5,-3.2330051908502355e-05,3.617516631493345e-05,-5.346225407265592e-06,-0.0006133929709903896,-0.002185515593737364,-0.0020557530224323273,-0.0012453466188162565,-0.05365695059299469,-0.007691829930990934,-0.004368058871477842,-0.0029702652245759964,-0.12062077969312668,0.0,0.0,0.0,0.0020536663942039013,0.0010073586599901319,-0.0,0.0,0.0,0.0,2.371350274188444e-05,0.016730817034840584,-0.0023153990041464567,13510.0,13687.0,10860.0,15854.0,0.4071139693260193,0.41853994131088257,0.2551138401031494,0.5709624290466309,0.0,0.0,0.0,0.0,13617.0,13609.0,10912.0,15795.0,1.6458920240402222,0.043971591477477166,-0.09001839108748011,0.018614320527657404,-0.003995180130004883,0.006265262141823769,0.0
188,5,-2.833017788361758e-06,8.72994314704556e-06,-9.587281965650618e-06,0.003294286783784628,0.0024192205164581537,-0.0003133743302896619,-0.0012453466188162565,-0.05365695059299469,-0.007691829930990934,-0.004368058871477842,-0.0029702652245759964,-0.12062077969312668,0.0,0.0,0.0,0.0020536663942039013,0.0010073586599901319,-0.0,0.0,0.0,0.0,2.371350274188444e-05,0.016730817034840584,-0.0023153990041464567,13510.0,13687.0,10860.0,15854.0,0.4071139693260193,0.41853994131088257,0.2551138401031494,0.5709624290466309,0.0,0.0,0.0,0.0,13617.0,13609.0,10912.0,15795.0,1.6458920240402222,0.04399225185140993,-0.09005036205541972,0.01828244302587282,-0.003995180130004883,0.006265262141823769,0.0
193,5,1.5119848285394255e-05,1.8927563360193744e-05,4.758133854920743e-06,0.003472058568149805,-0.0002560261928010732,-0.001846799743361771,-0.00114075664896518,-0.05370257794857025,-0.007330102380365133,-0.014140849001705647,-0.0009418614208698273,0.09822036325931549,0.0,0.0,0.0,-0.002920138882473111,0.0030712250154465437,-0.0,0.0,0.0,0.0,0.00042405168642289937,0.015715043991804123,-0.0038238423876464367,15471.0,11199.0,13443.0,13720.0,0.5423147082328796,0.272599458694458,0.402873158454895,0.4206896424293518,0.0,0.0,0.0,0.0,14328.0,12653.0,12054.0,14942.0,1.6670867204666138,0.04453219093415159,-0.09022165797656258,0.019298390121590254,-0.01233727391809225,-0.009023377671837807,0.0
198,5,8.36335493659135e-06,8.318008440255653e-06,2.2534946765517816e-05,0.0005780442152172327,0.0011707361554726958,-0.0028719373513013124,-0.00114075664896518,-0.05370257794857025,-0.007330102380365133,-0.014140849001705647,-0.0009418614208698273,0.09822036325931549,0.0,0.0,0.0,-0.002920138882473111,0.0030712250154465437,-0.0,0.0,0.0,0.0,0.00042405168642289937,0.015715043991804123,-0.0038238423876464367,15471.0,11199.0,13443.0,13720.0,0.5423147082328796,0.272599458694458,0.402873158454895,0.4206896424293518,0.0,0.0,0.0,0.0,14328.0,12653.0,12054.0,14942.0,1.6670867204666138,0.0446396550120612,-0.09003700652308458,0.018923177933245012,-0.01233727391809225,-0.009023377671837807,0.0
203,5,1.3819259947922546e-05,6.984693300182698e-06,1.2207388863316737e-05,0.0008859263616614044,0.000628292269539088,9.053196117747575e-05,-0.0013187179574742913,-0.05381321907043457,-0.007946701720356941,0.0017667989013716578,0.02989295870065689,0.01979404129087925,0.0,0.0,0.0,-0.0014298470923677087,0.0005603418685495853,-0.0,0.0,0.0,0.0,0.00042405168642289937,0.015715043991804123,-0.0038238423876464367,13851.0,13339.0,11480.0,15492.0,0.4292510747909546,0.39625781774520874,0.28748035430908203,0.543897807598114,0.0,0.0,0.0,0.0,15736.0,11054.0,13672.0,13590.0,1.638972520828247,0.044759365895409305,-0.09015554304155154,0.019119063012576633,-0.0022129733115434647,-0.004343797452747822,0.0
208,5,1.2668677982219378e-06,1.776879253156949e-05,3.3679261832730845e-05,-0.0011519165709614754,-0.001042775111272931,-0.002540412126109004,-0.0013187179574742913,-0.05381321907043457,-0.007946701720356941,0.0017667989013716578,0.02989295870065689,0.01979404129087925,0.0,0.0,0.0,-0.0014298470923677087,0.0005603418685495853,-0.0,0.0,0.0,0.0,0.00042405168642289937,0.015715043991804123,-0.0038238423876464367,13851.0,13339.0,11480.0,15492.0,0.4292510747909546,0.39625781774520874,0.28748035430908203,0.543897807598114,0.0,0.0,0.0,0.0,15736.0,11054.0,13672.0,13590.0,1.638972520828247,0.04494348433377123,-0.09002534269427187,0.01958284936578255,-0.0022129733115434647,-0.004343797452747822,0.0
214,5,-8.07023752713576e-06,-2.5979561542044394e-06,1.1186230040038936e-05,-0.00158121925778687,0.002026899950578809,0.0016829990781843662,-0.001204600092023611,-0.053930338472127914,-0.007280821446329355,0.022222459316253662,0.010615591891109943,-0.11689198017120361,0.0,0.0,0.0,0.0013174057239666581,-0.0010903609218075871,-0.0,0.0,0.0,0.0,0.000551194476429373,0.016709500923752785,-0.0025864874478429556,13380.0,13709.0,10769.0,15928.0,0.398843914270401,0.41994014382362366,0.25049594044685364,0.5766119956970215,0.0,0.0,0.0,0.0,13926.0,13202.0,11355.0,15484.0,1.6417180299758911,0.04528089522337023,-0.09017592863476104,0.018904614447822286,0.004313405603170395,0.004008911084383726,0.0
219,5,-1.285626603930723e-05,7.0234318627626635e-06,1.2653453268285375e-05,-0.0012068110518157482,-0.0003438066050875932,0.0004971328307874501,-0.001204600092023611,-0.053930338472127914,-0.007280821446329355,0.022222459316253662,0.010615591891109943,-0.11689198017120361,0.0,0.0,0.0,0.0013174057239666581,-0.0010903609218075871,-0.0,0.0,0.0,0.0,0.000551194476429373,0.016709500923752785,-0.0025864874478429556,13380.0,13709.0,10769.0,15928.0,0.398843914270401,0.41994014382362366,0.25049594044685364,0.5766119956970215,0.0,0.0,0.0,0.0,13926.0,13202.0,11355.0,15484.0,1.6417180299758911,0.04552141233323364,-0.08991352759784285,0.01959474133491535,0.004313405603170395,0.004008911084383726,0.0
224,5,-2.0966731426597107e-06,1.9517814507707953e-05,1.372745145999943e-06,0.0008084267028607428,-0.0016368486685678363,0.001552538014948368,-0.0009097098954953253,-0.05403072386980057,-0.006930348463356495,0.016367798671126366,0.00701602129265666,0.02386460267007351,0.0,0.0,0.0,0.0004374343261588365,-0.0011641636956483126,-0.0,0.0,0.0,0.0,-0.0009955571731552482,0.017520684748888016,0.0011541482526808977,15285.0,11876.0,12848.0,14360.0,0.5286796689033508,0.3091927468776703,0.36584487557411194,0.4633694589138031,0.0,0.0,0.0,0.0,14351.0,13036.0,11652.0,15305.0,1.638728380203247,0.04549122525324668,-0.09006745577055221,0.020296747790111508,0.004596982151269913,0.0013287044130265713,-0.0
229,5,6.279005447140662e-06,-4.661001185013447e-06,2.290151678607799e-05,0.0013284521410241723,0.0022467186208814383,-0.00196243729442358,-0.0009097098954953253,-0.05403072386980057,-0.006930348463356495,0.016367798671126366,0.00701602129265666,0.02386460267007351,0.0,0.0,0.0,0.0004374343261588365,-0.0011641636956483126,-0.0,0.0,0.0,0.0,-0.0009955571731552482,0.017520684748888016,0.0011541482526808977,15285.0,11876.0,12848.0,14360.0,0.5286796689033508,0.3091927468776703,0.36584487557411194,0.4633694589138031,0.0,0.0,0.0,0.0,14351.0,13036.0,11652.0,15305.0,1.638728380203247,0.04700886297387206,-0.08946447849563645,0.019530001693523362,0.004596982151269913,0.0013287044130265713,-0.0
234,5,1.585024074302055e-05,-1.7713849956635386e-05,5.051578409620561e-05,0.00167992920614779,0.0024650292471051216,-0.004098687320947647,-0.00041609222535043955,-0.054285768419504166,-0.007275611627846956,0.04219913110136986,0.034427251666784286,0.17016512155532837,0.0,0.0,0.0,-0.002758954418823123,0.001259676064364612,-0.0,0.0,0.0,0.0,-0.0025193244218826294,0.017776545137166977,-0.002956964075565338,13773.0,13734.0,10473.0,15710.0,0.42415851354599,0.42161935567855835,0.2358245998620987,0.5601155757904053,0.0,0.0,0.0,0.0,16110.0,10455.0,13822.0,13178.0,1.6523687839508057,0.048108187934902534,-0.0887681503670194,0.019575975505182388,-0.005015520378947258,-0.008450046181678772,0.0
239,5,3.959551759180613e-05,-3.43794708896894e-05,0.00010327536438126117,0.00352140492759645,0.002985886065289378,-0.007970624603331089,-0.00041609222535043955,-0.054285768419504166,-0.007275611627846956,0.04219913110136986,0.034427251666784286,0.17016512155532837,0.0,0.0,0.0,-0.002758954418823123,0.001259676064364612,-0.0,0.0,0.0,0.0,-0.0025193244218826294,0.017776545137166977,-0.002956964075565338,13773.0,13734.0,10473.0,15710.0,0.42415851354599,0.42161935567855835,0.2358245998620987,0.5601155757904053,0.0,0.0,0.0,0.0,16110.0,10455.0,13822.0,13178.0,1.6523687839508057,0.04908353000665596,-0.08806012893036923,0.019499410583469778,-0.005015520378947258,-0.008450046181678772,0.0
244,5,7.12889595888555e-05,-8.758060721447691e-05,0.00013423309428617358,0.005211775191128254,0.007578490301966667,-0.006903176661580801,0.0029189633205533028,-0.05538615956902504,-0.006144508719444275,0.3482843339443207,0.11984037607908249,0.049661554396152496,0.0,0.0,0.0,-0.003670851467177272,0.0033289403654634953,-0.0,0.0,0.0,0.0,-0.004454535897821188,0.018722284585237503,0.0017658923752605915,15506.0,11978.0,12287.0,14107.0,0.5449298024177551,0.3149528503417969,0.33260542154312134,0.4462403655052185,0.0,0.0,0.0,0.0,14148.0,13323.0,11034.0,15351.0,1.673317551612854,0.05148929298017015,-0.08736724994213795,0.019429203271210196,-0.013422473333775997,-0.011385495774447918,0.0
249,5,0.00012846631580032408,-9.76870724116452e-05,0.00019130337750539184,0.008945993147790432,0.004244172479957342,-0.0096097057685256,0.0029189633205533028,-0.05538615956902504,-0.006144508719444275,0.3482843339443207,0.11984037607908249,0.049661554396152496,0.0,0.0,0.0,-0.003670851467177272,0.0033289403654634953,-0.0,0.0,0.0,0.0,-0.004454535897821188,0.018722284585237503,0.0017658923752605915,15506.0,11978.0,12287.0,14107.0,0.5449298024177551,0.3149528503417969,0.33260542154312134,0.4462403655052185,0.0,0.0,0.0,0.0,14148.0,13323.0,11034.0,15351.0,1.673317551612854,0.05626462814456456,-0.08660933009919529,0.020237067552812547,-0.013422473333775997,-0.011385495774447918,0.0
254,5,0.00015399126277770847,-0.0001696099789114669,0.00020199934078846127,0.0066413902677595615,0.010328416712582111,-0.005127396900206804,0.008827190846204758,-0.05693531036376953,-0.0059456052258610725,0.6936900615692139,0.17337049543857574,0.04885981231927872,0.0,0.0,0.0,-0.005137342028319836,0.008227690123021603,-0.0,0.0,0.0,0.0,-0.009830293245613575,0.020573163405060768,-0.00011411889136070386,15781.0,12649.0,11372.0,14183.0,0.5654224157333374,0.35385119915008545,0.2817140817642212,0.4513811469078064,0.0,0.0,0.0,0.0,15126.0,12656.0,11577.0,14524.0,1.7277904748916626,0.06076365889545005,-0.08504962284424386,0.019513768265905507,-0.03425391763448715,-0.016452603042125702,0.0
259,5,0.00019498176698107272,-0.00026366289239376783,0.0002178170980187133,0.007575416937470436,0.015417719259858131,-0.00394908944144845,0.008827190846204758,-0.05693531036376953,-0.0059456052258610725,0.6936900615692139,0.17337049543857574,0.04885981231927872,0.0,0.0,0.0,-0.005137342028319836,0.008227690123021603,-0.0,0.0,0.0,0.0,-0.009830293245613575,0.020573163405060768,-0.00011411889136070386,15781.0,12649.0,11372.0,14183.0,0.5654224157333374,0.35385119915008545,0.2817140817642212,0.4513811469078064,0.0,0.0,0.0,0.0,15126.0,12656.0,11577.0,14524.0,1.7277904748916626,0.06613840637541216,-0.0838193203422586,0.018685113860806492,-0.03425391763448715,-0.016452603042125702,0.0
264,5,0.00025857557193376124,-0.0003874226822517812,0.0002102409052895382,0.01066142413765192,0.021018261089920998,-0.0006704930565319955,0.016072282567620277,-0.05884325131773949,-0.006007350515574217,1.1776492595672607,0.2964094281196594,-0.04482773691415787,0.0,0.0,0.0,-0.017745697870850563,0.00679054344072938,-0.0,0.0,0.0,0.0,-0.01773093268275261,0.023937858641147614,-0.0017529933247715235,15757.0,13914.0,9262.0,14828.0,0.5636638402938843,0.4333750307559967,0.1804347187280655,0.49584391713142395,0.0,0.0,0.0,0.0,15873.0,12677.0,11258.0,14144.0,1.801997423171997,0.07277957846406954,-0.08207297084087374,0.01783642238260641,-0.029480773955583572,-0.05926719307899475,0.0
269,5,0.00032651025685481727,-0.0005327591206878424,0.0001714267855277285,0.01241672970354557,0.025847679004073143,0.004389496054500341,0.016072282567620277,-0.05884325131773949,-0.006007350515574217,1.1776492595672607,0.2964094281196594,-0.04482773691415787,0.0,0.0,0.0,-0.017745697870850563,0.00679054344072938,-0.0,0.0,0.0,0.0,-0.01773093268275261,0.023937858641147614,-0.0017529933247715235,15757.0,13914.0,9262.0,14828.0,0.5636638402938843,0.4333750307559967,0.1804347187280655,0.49584391713142395,0.0,0.0,0.0,0.0,15873.0,12677.0,11258.0,14144.0,1.801997423171997,0.07944969880919105,-0.07989751532140911,0.01766189357628441,-0.029480773955583572,-0.05926719307899475,0.0
274,5,0.0003973385610152036,-0.0007093927124515176,0.00010250040213577449,0.013466089963912964,0.03153510019183159,0.010026965290307999,0.016072282567620277,-0.05884325131773949,-0.006007350515574217,1.1776492595672607,0.2964094281196594,-0.04482773691415787,0.0,0.0,0.0,-0.017745697870850563,0.00679054344072938,-0.0,0.0,0.0,0.0,-0.01773093268275261,0.023937858641147614,-0.0017529933247715235,15757.0,13914.0,9262.0,14828.0,0.5636638402938843,0.4333750307559967,0.1804347187280655,0.49584391713142395,0.0,0.0,0.0,0.0,15873.0,12677.0,11258.0,14144.0,1.801997423171997,0.08837732310074194,-0.0776914170746526,0.016303812389987515,-0.05268515273928642,-0.122161366045475,-0.0
279,5,0.0004775055276695639,-0.000907090085092932,-7.5887583079747856e-06,0.015006471425294876,0.036337725818157196,0.01722148433327675,0.0326262004673481,-0.06271260976791382,-0.00576451001688838,1.6842331886291504,0.3897058069705963,0.057257991284132004,0.0,0.0,0.0,-0.03342387452721596,0.011091044172644615,-0.0,0.0,0.0,0.0,-0.02621115930378437,0.027439994737505913,0.0007716919644735754,17348.0,13239.0,9523.0,13427.0,0.6897415518760681,0.3899511694908142,0.19176085293293,0.4018639028072357,0.0,0.0,0.0,0.0,16153.0,13767.0,9264.0,14532.0,1.9724928140640259,0.09903638046540512,-0.07548393235659351,0.01543247538901514,-0.05268515273928642,-0.122161366045475,-0.0
285,5,0.0005557743133977056,-0.0010821801843121648,-5.2081915782764554e-05,0.015394845046103,0.035545896738767624,0.012227772735059261,0.0326262004673481,-0.06271260976791382,-0.00576451001688838,2.1298487186431885,0.4661041498184204,-0.02686062827706337,0.0,0.0,0.0,-0.03342387452721596,0.011091044172644615,-0.0,0.0,0.0,0.0,-0.037043146789073944,0.031271759420633316,-0.0014060521498322487,17460.0,14727.0,6753.0,14175.0,0.6991621255874634,0.4887598752975464,0.0890486091375351,0.45081982016563416,0.0,0.0,0.0,0.0,17571.0,13624.0,9270.0,13772.0,1.9724928140640259,0.10937262770814715,-0.07175689159702611,0.013741205644039007,-0.06079132482409477,-0.13925597071647644,0.0
290,5,0.0006516565335914493,-0.0012705250410363078,-0.0001245976600330323,0.017663802951574326,0.03681974485516548,0.013592998497188091,0.04769732803106308,-0.06605521589517593,-0.005676599685102701,2.1298487186431885,0.4661041498184204,-0.02686062827706337,0.0,0.0,0.0,-0.037220269441604614,0.012502416037023067,-0.0,0.0,0.0,0.0,-0.037043146789073944,0.031271759420633316,-0.0014060521498322487,17460.0,14727.0,6753.0,14175.0,0.6991621255874634,0.4887598752975464,0.0890486091375351,0.45081982016563416,0.0,0.0,0.0,0.0,17571.0,13624.0,9270.0,13772.0,2.0193331241607666,0.12139914613401138,-0.06845979394380114,0.011496009301680363,-0.06079132482409477,-0.13925597071647644,0.0
295,5,0.0005965473246760666,-0.0017389946151524782,-0.0006640289793722332,0.00045241561019793153,0.07094424217939377,0.07016895711421967,0.07548494637012482,-0.0717763677239418,-0.005146408919245005,2.5635242462158203,0.4986257255077362,0.0011401138035580516,0.0,0.0,0.0,-0.037220269441604614,0.012502416037023067,-0.0,0.0,0.0,0.0,-0.0480538047850132,0.033453695476055145,0.0003520474710967392,18893.0,15144.0,6187.0,13181.0,0.8243954181671143,0.5184518098831177,0.07281365990638733,0.3863365948200226,0.0,0.0,0.0,0.0,18370.0,14859.0,7397.0,13662.0,2.0193331241607666,0.14132739588396087,-0.0793944735993649,0.016644315973973766,-0.004983553662896156,-0.2756183445453644,0.0
300,5,0.0006967487861402333,-0.001973693259060383,-0.000852026219945401,0.01220514252781868,0.05654153227806091,0.05062725022435188,0.07548494637012482,-0.0717763677239418,-0.005146408919245005,2.5635242462158203,0.4986257255077362,0.0011401138035580516,0.0,0.0,0.0,-0.0644272118806839,0.0008968355832621455,-0.0,0.0,0.0,0.0,-0.0480538047850132,0.033453695476055145,0.0003520474710967392,18893.0,15144.0,6187.0,13181.0,0.8243954181671143,0.5184518098831177,0.07281365990638733,0.3863365948200226,0.0,0.0,0.0,0.0,18370.0,14859.0,7397.0,13662.0,2.3108749389648438,0.1553936610912218,-0.07633656046054726,0.016217192082446007,-0.004983553662896156,-0.2756183445453644,0.0
305,5,0.0008061195258051157,-0.0022355031687766314,-0.0010889745317399502,0.018006542697548866,0.05403381586074829,0.048684701323509216,0.07548494637012482,-0.0717763677239418,-0.005146408919245005,2.5635242462158203,0.4986257255077362,0.0011401138035580516,0.0,0.0,0.0,-0.0644272118806839,0.0008968355832621455,-0.0,0.0,0.0,0.0,-0.0480538047850132,0.033453695476055145,0.0003520474710967392,18893.0,15144.0,6187.0,13181.0,0.8243954181671143,0.5184518098831177,0.07281365990638733,0.3863365948200226,0.0,0.0,0.0,0.0,18370.0,14859.0,7397.0,13662.0,2.3108749389648438,0.1705172463333489,-0.07275578006384105,0.015025066646433117,-0.004983553662896156,-0.2756183445453644,0.0
310,5,0.0009674251195974648,-0.002766704186797142,-0.0015122077893465757,0.026559295132756233,0.08535763621330261,0.0702618733048439,0.09766916185617447,-0.07599127292633057,-0.005172761157155037,3.0282342433929443,0.5831953287124634,0.08248069882392883,0.0,0.0,0.0,-0.05279054492712021,0.013604274019598961,-0.0,0.0,0.0,0.0,-0.06395000964403152,0.03734520077705383,-0.0011722000781446695,20386.0,15972.0,5608.0,12897.0,0.9658761024475098,0.5799334049224854,0.05785338580608368,0.36882999539375305,0.0,0.0,0.0,0.0,19301.0,16272.0,5971.0,14020.0,2.1984922885894775,0.185827172402318,-0.06893982091945314,0.013549905634682665,-0.0719669982790947,-0.21494285762310028,0.0
315,5,0.0010440958430990577,-0.003066827543079853,-0.0017689155647531152,0.019824203103780746,0.07015785574913025,0.05890967696905136,0.09766916185617447,-0.07599127292633057,-0.005172761157155037,3.0282342433929443,0.5831953287124634,0.08248069882392883,0.0,0.0,0.0,-0.05279054492712021,0.013604274019598961,-0.0,0.0,0.0,0.0,-0.06395000964403152,0.03734520077705383,-0.0011722000781446695,20386.0,15972.0,5608.0,12897.0,0.9658761024475098,0.5799334049224854,0.05785338580608368,0.36882999539375305,0.0,0.0,0.0,0.0,19301.0,16272.0,5971.0,14020.0,2.1984922885894775,0.20190245266148557,-0.06566196323825897,0.010411415614520884,-0.0719669982790947,-0.21494285762310028,0.0
320,5,0.0011882882099598646,-0.003283607540652156,-0.001898071845062077,0.02523276023566723,0.05407674238085747,0.039062630385160446,0.13435660302639008,-0.08305664360523224,-0.004159064963459969,3.036574125289917,0.5750986337661743,-0.19179879128932953,0.0,0.0,0.0,-0.06448373198509216,0.014201792888343334,-0.0,0.0,0.0,0.0,-0.0720660537481308,0.040066249668598175,-0.0008359758066944778,19725.0,18029.0,1495.0,14390.0,0.9019128084182739,0.7476100921630859,-0.09556551277637482,0.46537575125694275,0.0,0.0,0.0,0.0,21243.0,15609.0,6740.0,12172.0,2.345484495162964,0.2167906796109745,-0.06089269403480817,0.008186949806463058,-0.08009575307369232,-0.2799910306930542,0.0
325,5,0.0013257111422717571,-0.003467855742201209,-0.0019762550946325064,0.02658385969698429,0.043740492314100266,0.025007039308547974,0.13435660302639008,-0.08305664360523224,-0.004159064963459969,3.036574125289917,0.5750986337661743,-0.19179879128932953,0.0,0.0,0.0,-0.06448373198509216,0.014201792888343334,-0.0,0.0,0.0,0.0,-0.0720660537481308,0.040066249668598175,-0.0008359758066944778,19725.0,18029.0,1495.0,14390.0,0.9019128084182739,0.7476100921630859,-0.09556551277637482,0.46537575125694275,0.0,0.0,0.0,0.0,21243.0,15609.0,6740.0,12172.0,2.345484495162964,0.22699180980352626,-0.05724469779959075,0.0066529476955993466,-0.08009575307369232,-0.2799910306930542,0.0
330,5,0.0014669201336801052,-0.003646554658189416,-0.0019429210806265473,0.027578625828027725,0.03894004598259926,0.006002738606184721,0.15674248337745667,-0.08833169937133789,-0.00363317783921957,2.4737651348114014,0.7754890322685242,0.16712382435798645,0.0,0.0,0.0,-0.045684609562158585,0.020540904253721237,-0.0,0.0,0.0,0.0,-0.07811152935028076,0.04232976213097572,0.0018831745255738497,22477.0,16697.0,7927.0,12810.0,1.1828142404556274,0.636613667011261,0.12788280844688416,0.36356431245803833,0.0,0.0,0.0,0.0,22552.0,16428.0,7980.0,12993.0,2.1641533374786377,0.2342163127320054,-0.05388795190599451,0.004085677063807789,-0.10699798911809921,-0.1831437051296234,0.0
335,5,0.0016624709824100137,-0.0038004284724593163,-0.0019020490581169724,0.034497544169425964,0.03404088318347931,-0.0025035468861460686,0.15674248337745667,-0.08833169937133789,-0.00363317783921957,2.4737651348114014,0.7754890322685242,0.16712382435798645,0.0,0.0,0.0,-0.037433017045259476,0.02685214951634407,-0.0,0.0,0.0,0.0,-0.07811152935028076,0.04232976213097572,0.0018831745255738497,22477.0,16697.0,7927.0,12810.0,1.1828142404556274,0.636613667011261,0.12788280844688416,0.36356431245803833,0.0,0.0,0.0,0.0,22552.0,16428.0,7980.0,12993.0,2.142775058746338,0.24098999745718405,-0.04988764019630511,0.0028224483763281366,-0.13853229582309723,-0.1486126184463501,0.0
341,5,0.0018422980792820454,-0.003873587818816304,-0.001842533703893423,0.03537827357649803,0.022395474836230278,-0.00814326386898756,0.18048247694969177,-0.09682798385620117,-0.0031881530303508043,1.5952452421188354,0.6698500514030457,-0.3015627861022949,0.0,0.0,0.0,-0.037433017045259476,0.02685214951634407,-0.0,0.0,0.0,0.0,-0.07028133422136307,0.0450892336666584,-0.006808840204030275,19692.0,19430.0,1495.0,17235.0,0.8987371325492859,0.8739842772483826,-0.10763181000947952,0.6803949475288391,0.0,0.0,0.0,0.0,20054.0,18966.0,1495.0,17193.0,2.142775058746338,0.2457352742165611,-0.045509714164522874,0.0020322033729598707,-0.13853229582309723,-0.1486126184463501,0.0
346,5,0.002184402896091342,-0.004089702852070332,-0.0020301335025578737,0.03426589071750641,0.02431126870214939,0.018389318138360977,0.18048247694969177,-0.09682798385620117,-0.0031881530303508043,1.5952452421188354,0.6698500514030457,-0.3015627861022949,0.0,0.0,0.0,-0.037433017045259476,0.02685214951634407,-0.0,0.0,0.0,0.0,-0.07028133422136307,0.0450892336666584,-0.006808840204030275,19692.0,19430.0,1495.0,17235.0,0.8987371325492859,0.8739842772483826,-0.10763181000947952,0.6803949475288391,0.0,0.0,0.0,0.0,20054.0,18966.0,1495.0,17193.0,2.142775058746338,0.2529175044616588,-0.03541504993350527,-0.0007116641835906267,-0.13853229582309723,-0.1486126184463501,0.0
351,5,0.002184402896091342,-0.004089702852070332,-0.0020301335025578737,0.03426589071750641,0.02431126870214939,0.018389318138360977,0.1911543607711792,-0.10377226769924164,-0.0022808832582086325,1.127865195274353,0.9620255827903748,0.08280973136425018,0.0,0.0,0.0,-0.029376989230513573,0.027933014556765556,-0.0,0.0,0.0,0.0,-0.06287628412246704,0.05651189386844635,0.0007524809334427118,21733.0,15131.0,5243.0,14805.0,1.1031497716903687,0.5175037384033203,0.04929377883672714,0.49420613050460815,0.0,0.0,0.0,0.0,21714.0,15081.0,4473.0,15107.0,2.0891995429992676,0.2529175044616588,-0.03541504993350527,-0.0007116641835906267,-0.14054186642169952,-0.11373189091682434,0.0
356,5,0.002585022244602442,-0.004335346631705761,-0.0025215393397957087,0.04083101823925972,0.02409486100077629,0.0456518828868866,0.1911543607711792,-0.10377226769924164,-0.0022808832582086325,1.127865195274353,0.9620255827903748,0.08280973136425018,0.0,0.0,0.0,-0.029376989230513573,0.027933014556765556,-0.0,0.0,0.0,0.0,-0.06287628412246704,0.05651189386844635,0.0007524809334427118,21733.0,15131.0,5243.0,14805.0,1.1031497716903687,0.5175037384033203,0.04929377883672714,0.49420613050460815,0.0,0.0,0.0,0.0,21714.0,15081.0,4473.0,15107.0,2.0891995429992676,0.2587811026382239,-0.02615128911536216,-0.0008152926510175477,-0.14054186642169952,-0.11373189091682434,0.0
361,5,0.0028090383857488632,-0.004463474731892347,-0.0027482856530696154,0.0432143434882164,0.025013314560055733,0.045470334589481354,0.2021152228116989,-0.1158440038561821,-0.001525410683825612,0.7410448789596558,0.9633627533912659,-0.2679475247859955,0.0,0.0,0.0,-0.02880103327333927,0.032456643879413605,-0.0,0.0,0.0,0.0,-0.05478709191083908,0.06634858250617981,0.0017857702914625406,21804.0,13495.0,4533.0,15410.0,1.1106221675872803,0.4061906039714813,0.034550394862890244,0.5378363728523254,0.0,0.0,0.0,0.0,20017.0,16699.0,1495.0,17523.0,2.141350269317627,0.26173184530717897,-0.022426376158991415,-0.0020168172428337893,-0.16737355291843414,-0.11428657919168472,0.0
366,5,0.0030346810817718506,-0.0045613935217261314,-0.002951487433165312,0.0443628691136837,0.021755561232566833,0.042572345584630966,0.2021152228116989,-0.1158440038561821,-0.001525410683825612,0.7410448789596558,0.9633627533912659,-0.2679475247859955,0.0,0.0,0.0,-0.02880103327333927,0.032456643879413605,-0.0,0.0,0.0,0.0,-0.05478709191083908,0.06634858250617981,0.0017857702914625406,21804.0,13495.0,4533.0,15410.0,1.1106221675872803,0.4061906039714813,0.034550394862890244,0.5378363728523254,0.0,0.0,0.0,0.0,20017.0,16699.0,1495.0,17523.0,2.141350269317627,0.26424611400635295,-0.018134899838944382,-0.004374223821626465,-0.16737355291843414,-0.11428657919168472,0.0
371,5,0.0030346810817718506,-0.0045613935217261314,-0.002951487433165312,0.0443628691136837,0.021755561232566833,0.042572345584630966,0.20697177946567535,-0.12342160195112228,9.802187378227245e-06,0.5836169719696045,1.0175682306289673,0.0707959458231926,0.0,0.0,0.0,-0.02663499303162098,0.035147037357091904,-0.0,0.0,0.0,0.0,-0.05485719069838524,0.06723915785551071,-0.004570366349071264,20397.0,15928.0,1495.0,17574.0,0.9669979214668274,0.5765987038612366,-0.11098137497901917,0.7087351083755493,0.0,0.0,0.0,0.0,21412.0,14193.0,1495.0,16042.0,2.163193464279175,0.26424611400635295,-0.018134899838944382,-0.004374223821626465,-0.18310174345970154,-0.10677342861890793,0.0
376,5,0.0035313062835484743,-0.004846983123570681,-0.0032783676870167255,0.049235329031944275,0.029323048889636993,0.03263689577579498,0.20697177946567535,-0.12342160195112228,9.802187378227245e-06,0.5836169719696045,1.0175682306289673,0.0707959458231926,0.0,0.0,0.0,-0.02663499303162098,0.035147037357091904,-0.0,0.0,0.0,0.0,-0.05485719069838524,0.06723915785551071,-0.004570366349071264,20397.0,15928.0,1495.0,17574.0,0.9669979214668274,0.5765987038612366,-0.11098137497901917,0.7087351083755493,0.0,0.0,0.0,0.0,21412.0,14193.0,1495.0,16042.0,2.163193464279175,0.26681570739989025,-0.0109783340222801,-0.0038246715830685,-0.18310174345970154,-0.10677342861890793,0.0
381,5,0.0037341550923883915,-0.004984421655535698,-0.00329077267087996,0.04403600096702576,0.02822182886302471,0.01454337127506733,0.20697177946567535,-0.12342160195112228,9.802187378227245e-06,0.5836169719696045,1.0175682306289673,0.0707959458231926,0.0,0.0,0.0,-0.03292093425989151,0.03781915828585625,-0.0,0.0,0.0,0.0,-0.05485719069838524,0.06723915785551071,-0.004570366349071264,20397.0,15928.0,1495.0,17574.0,0.9669979214668274,0.5765987038612366,-0.11098137497901917,0.7087351083755493,0.0,0.0,0.0,0.0,21412.0,14193.0,1495.0,16042.0,2.2415833473205566,0.26803896023089724,-0.00839875563491918,-0.004721857752402739,-0.20411726832389832,-0.13673920929431915,0.0
386,5,0.003953701816499233,-0.005148162133991718,-0.0033407534938305616,0.043960023671388626,0.030937615782022476,0.011815046891570091,0.2174070179462433,-0.14098401367664337,0.0025424091145396233,0.5332430005073547,0.8243352174758911,-0.03167348355054855,0.0,0.0,0.0,-0.03292093425989151,0.03781915828585625,-0.0,0.0,0.0,0.0,-0.05590032413601875,0.07028437405824661,0.0004690944915637374,21699.0,14405.0,1495.0,16449.0,1.0995149612426758,0.4664243459701538,-0.019693739712238312,0.6169478893280029,0.0,0.0,0.0,0.0,20991.0,15092.0,1495.0,16980.0,2.2415833473205566,0.2699791432043715,-0.006554634812062952,-0.004268452759906015,-0.20411726832389832,-0.13673920929431915,0.0
391,5,0.004165553487837315,-0.005299259442836046,-0.0033547969069331884,0.043006204068660736,0.030506690964102745,0.006411227863281965,0.2174070179462433,-0.14098401367664337,0.0025424091145396233,0.5332430005073547,0.8243352174758911,-0.03167348355054855,0.0,0.0,0.0,-0.03512949123978615,0.03493242710828781,-0.0,0.0,0.0,0.0,-0.05590032413601875,0.07028437405824661,0.0004690944915637374,21699.0,14405.0,1495.0,16449.0,1.0995149612426758,0.4664243459701538,-0.019693739712238312,0.6169478893280029,0.0,0.0,0.0,0.0,20991.0,15092.0,1495.0,16980.0,2.2194972038269043,0.2724231825626345,-0.0056487131060988524,-0.004533909077696225,-0.1866718828678131,-0.14446833729743958,0.0
396,5,0.004378238692879677,-0.0054704477079212666,-0.0033486553002148867,0.04272469878196716,0.03274526819586754,0.0018274851609021425,0.22413255274295807,-0.14886870980262756,0.003549292916432023,0.5565454959869385,0.5149042010307312,0.005160985980182886,0.0,0.0,0.0,-0.03512949123978615,0.03493242710828781,-0.0,0.0,0.0,0.0,-0.05889885872602463,0.06711653620004654,-0.0013927047839388251,21720.0,15238.0,1495.0,16549.0,1.1017733812332153,0.525274395942688,-0.010289071127772331,0.6248245239257812,0.0,0.0,0.0,0.0,21314.0,15067.0,1495.0,16920.0,2.2194972038269043,0.27494913210470523,-0.0054998429839274885,-0.004887997794942607,-0.1866718828678131,-0.14446833729743958,0.0
401,5,0.004574401304125786,-0.005642835516482592,-0.0033119353465735912,0.04062939062714577,0.0337846502661705,-0.003675385843962431,0.22413255274295807,-0.14886870980262756,0.003549292916432023,0.5565454959869385,0.5149042010307312,0.005160985980182886,0.0,0.0,0.0,-0.038155801594257355,0.03303096815943718,-0.0,0.0,0.0,0.0,-0.05889885872602463,0.06711653620004654,-0.0013927047839388251,21720.0,15238.0,1495.0,16549.0,1.1017733812332153,0.525274395942688,-0.010289071127772331,0.6248245239257812,0.0,0.0,0.0,0.0,21314.0,15067.0,1495.0,16920.0,2.2199649810791016,0.2783215716516385,-0.006042941242663762,-0.005762369711676389,-0.17653228342533112,-0.1569364368915558,0.0
406,5,0.004783811047673225,-0.005879553500562906,-0.0033842180855572224,0.041380926966667175,0.0419200137257576,0.0072037773206830025,0.22934481501579285,-0.15141893923282623,0.004353426396846771,0.713071882724762,0.21301838755607605,-0.018027137964963913,0.0,0.0,0.0,-0.038155801594257355,0.03303096815943718,-0.0,0.0,0.0,0.0,-0.061985716223716736,0.06286050379276276,0.0001750806113705039,21722.0,15530.0,2343.0,15786.0,1.1019790172576904,0.5466774702072144,0.004982224199920893,0.5658584833145142,0.0,0.0,0.0,0.0,22235.0,14561.0,5237.0,15690.0,2.2199649810791016,0.2823272164077537,-0.005769260768195087,-0.005888320539603597,-0.17653228342533112,-0.1569364368915558,0.0
412,5,0.004990528337657452,-0.006097570061683655,-0.0034433661494404078,0.04135843738913536,0.042930010706186295,0.009979263879358768,0.22934481501579285,-0.15141893923282623,0.004353426396846771,0.713071882724762,0.21301838755607605,-0.018027137964963913,0.0,0.0,0.0,-0.044907648116350174,0.03308558836579323,-0.0,0.0,0.0,0.0,-0.061985716223716736,0.06286050379276276,0.0001750806113705039,21722.0,15530.0,2343.0,15786.0,1.1019790172576904,0.5466774702072144,0.004982224199920893,0.5658584833145142,0.0,0.0,0.0,0.0,22235.0,14561.0,5237.0,15690.0,2.280538558959961,0.28510490503290287,-0.006133857112153466,-0.005921414206728567,-0.18159793317317963,-0.189714714884758,0.0
417,5,0.005190340336412191,-0.006318033207207918,-0.0035155906807631254,0.0405207984149456,0.04362756758928299,0.012658655643463135,0.23800675570964813,-0.15244489908218384,0.005631245672702789,0.7452948689460754,0.06294018775224686,0.17633086442947388,0.0,0.0,0.0,-0.044907648116350174,0.03308558836579323,-0.0,0.0,0.0,0.0,-0.06413525342941284,0.05854947492480278,0.004071917850524187,22742.0,14265.0,7906.0,13771.0,1.211912751197815,0.45686137676239014,0.1271487921476364,0.42404210567474365,0.0,0.0,0.0,0.0,21757.0,15573.0,3508.0,15524.0,2.280538558959961,0.28745546368226743,-0.005477358485980242,-0.0064856241266281565,-0.18159793317317963,-0.189714714884758,0.0
422,5,0.005378677975386381,-0.006489326246082783,-0.00354111404158175,0.038808856159448624,0.038006216287612915,0.008126270025968552,0.23800675570964813,-0.15244489908218384,0.005631245672702789,0.7452948689460754,0.06294018775224686,0.17633086442947388,0.0,0.0,0.0,-0.044907648116350174,0.03308558836579323,-0.0,0.0,0.0,0.0,-0.06413525342941284,0.05854947492480278,0.004071917850524187,22742.0,14265.0,7906.0,13771.0,1.211912751197815,0.45686137676239014,0.1271487921476364,0.42404210567474365,0.0,0.0,0.0,0.0,21757.0,15573.0,3508.0,15524.0,2.280538558959961,0.2893813132054947,-0.005933209293087444,-0.005675004480144431,-0.18159793317317963,-0.189714714884758,0.0
427,5,0.005622611381113529,-0.006684771738946438,-0.0036115862894803286,0.04479553923010826,0.03865593671798706,0.011707157827913761,0.24372519552707672,-0.15224187076091766,0.006415971554815769,0.622318685054779,-0.023867424577474594,0.0670723021030426,0.0,0.0,0.0,-0.04276590421795845,0.03232942521572113,-0.0,0.0,0.0,0.0,-0.06575139611959457,0.05561212822794914,0.0022991879377514124,22129.0,15286.0,6261.0,14474.0,1.1452112197875977,0.5287056565284729,0.07485394179821014,0.4711940884590149,0.0,0.0,0.0,0.0,22786.0,14262.0,8044.0,13622.0,2.251979112625122,0.29127823255563956,-0.005142859550002019,-0.005448484775521359,-0.17524325847625732,-0.17841443419456482,0.0
432,5,0.005886950064450502,-0.006892662961035967,-0.003681077854707837,0.049638859927654266,0.04040929302573204,0.013021860271692276,0.24372519552707672,-0.15224187076091766,0.006415971554815769,0.622318685054779,-0.023867424577474594,0.0670723021030426,0.0,0.0,0.0,-0.04276590421795845,0.03232942521572113,-0.0,0.0,0.0,0.0,-0.06575139611959457,0.05561212822794914,0.0022991879377514124,22129.0,15286.0,6261.0,14474.0,1.1452112197875977,0.5287056565284729,0.07485394179821014,0.4711940884590149,0.0,0.0,0.0,0.0,22786.0,14262.0,8044.0,13622.0,2.251979112625122,0.29361375731550454,-0.005612753941867626,-0.005186813480072295,-0.17524325847625732,-0.17841443419456482,0.0
437,5,0.0061622001230716705,-0.007063900586217642,-0.003770199604332447,0.05288557708263397,0.03671223297715187,0.015903368592262268,0.2506745755672455,-0.15168669819831848,0.008509782142937183,0.5023634433746338,0.06308574974536896,0.230698361992836,0.0,0.0,0.0,-0.04374457150697708,0.03881965950131416,-0.0,0.0,0.0,0.0,-0.06616458296775818,0.056806277483701706,0.006637524347752333,23374.0,13800.0,9546.0,13068.0,1.2825860977172852,0.4258832335472107,0.19277402758598328,0.37929534912109375,0.0,0.0,0.0,0.0,22506.0,15282.0,7316.0,14300.0,2.340529203414917,0.2963596492738131,-0.005736023122977418,-0.006025854243004972,-0.21867187321186066,-0.1896684467792511,0.0
442,5,0.006447684019804001,-0.007239340338855982,-0.0038236789405345917,0.05541226267814636,0.03573768958449364,0.012778861448168755,0.2506745755672455,-0.15168669819831848,0.008509782142937183,0.5023634433746338,0.06308574974536896,0.230698361992836,0.0,0.0,0.0,-0.04374457150697708,0.03881965950131416,-0.0,0.0,0.0,0.0,-0.06616458296775818,0.056806277483701706,0.006637524347752333,23374.0,13800.0,9546.0,13068.0,1.2825860977172852,0.4258832335472107,0.19277402758598328,0.37929534912109375,0.0,0.0,0.0,0.0,22506.0,15282.0,7316.0,14300.0,2.340529203414917,0.29760194924281264,-0.004721251009444656,-0.005390774841288143,-0.21867187321186066,-0.1896684467792511,0.0
447,5,0.006746246013790369,-0.007404316682368517,-0.0038813853170722723,0.05799238011240959,0.0340922586619854,0.012036305852234364,0.25420477986335754,-0.15214671194553375,0.009299349039793015,0.36596453189849854,0.15635403990745544,0.0666612982749939,0.0,0.0,0.0,-0.039781294763088226,0.042817555367946625,-0.0,0.0,0.0,0.0,-0.0652671605348587,0.058216702193021774,0.0018002864671871066,22287.0,15214.0,5986.0,14870.0,1.1622110605239868,0.5235217213630676,0.06743910908699036,0.4988071322441101,0.0,0.0,0.0,0.0,23023.0,14181.0,8610.0,13461.0,2.361970901489258,0.2984929982803661,-0.0036971694785895444,-0.00500855943654423,-0.24342873692512512,-0.17408199608325958,0.0
452,5,0.007051560562103987,-0.007624480873346329,-0.003983829636126757,0.05983468145132065,0.04005657508969307,0.017107831314206123,0.25420477986335754,-0.15214671194553375,0.009299349039793015,0.36596453189849854,0.15635403990745544,0.0666612982749939,0.0,0.0,0.0,-0.039781294763088226,0.042817555367946625,-0.0,0.0,0.0,0.0,-0.0652671605348587,0.058216702193021774,0.0018002864671871066,22287.0,15214.0,5986.0,14870.0,1.1622110605239868,0.5235217213630676,0.06743910908699036,0.4988071322441101,0.0,0.0,0.0,0.0,23023.0,14181.0,8610.0,13461.0,2.361970901489258,0.2998515678451779,-0.0024888982303233886,-0.005929028441541178,-0.24342873692512512,-0.17408199608325958,0.0
457,5,0.007300110999494791,-0.007737203501164913,-0.004230567719787359,0.053759925067424774,0.029549332335591316,0.03645172342658043,0.2587808072566986,-0.15451467037200928,0.011878385208547115,0.30969443917274475,0.31289246678352356,0.10717255622148514,0.0,0.0,0.0,-0.042912669479846954,0.045210499316453934,-0.0,0.0,0.0,0.0,-0.06512273848056793,0.06483422219753265,0.006012736354023218,23405.0,14073.0,8139.0,14525.0,1.2861806154251099,0.44399893283843994,0.13564705848693848,0.4747026562690735,0.0,0.0,0.0,0.0,23102.0,14624.0,7832.0,14638.0,2.420497417449951,0.3071306087062951,0.008600509146586723,-0.007001981535820524,-0.26335880160331726,-0.1924227774143219,0.0
462,5,0.007620356511324644,-0.007927566766738892,-0.004251652862876654,0.05993344634771347,0.0346633642911911,0.017110900953412056,0.2587808072566986,-0.15451467037200928,0.011878385208547115,0.30969443917274475,0.31289246678352356,0.10717255622148514,0.0,0.0,0.0,-0.042912669479846954,0.045210499316453934,-0.0,0.0,0.0,0.0,-0.06512273848056793,0.06483422219753265,0.006012736354023218,23405.0,14073.0,8139.0,14525.0,1.2861806154251099,0.44399893283843994,0.13564705848693848,0.4747026562690735,0.0,0.0,0.0,0.0,23102.0,14624.0,7832.0,14638.0,2.420497417449951,0.30894656935035913,0.00998804297776947,-0.00509251923551518,-0.26335880160331726,-0.1924227774143219,0.0
467,5,0.00793952215462923,-0.00815547164529562,-0.004299418535083532,0.06227317824959755,0.04121391847729683,0.01257622055709362,0.2610280513763428,-0.15727074444293976,0.012353170663118362,0.319281667470932,0.46081143617630005,0.047492630779743195,0.0,0.0,0.0,-0.039044179022312164,0.046125221997499466,-0.0,0.0,0.0,0.0,-0.0648837760090828,0.06872095912694931,0.0007302440353669226,22853.0,15119.0,4413.0,16089.0,1.2241288423538208,0.5166017413139343,0.032303888350725174,0.5889365077018738,0.0,0.0,0.0,0.0,22645.0,15364.0,5234.0,15937.0,2.403907060623169,0.31187841516881804,0.011590415177563429,-0.004719804114187875,-0.2668842375278473,-0.17389295995235443,0.0
