timestamp,dt,pos_x,pos_y,pos_z,vel_x,vel_y,vel_z,roll,pitch,yaw,agv_x,agv_y,agv_z,x_ref,y_ref,z_ref,roll_ref,pitch_ref,yaw_ref,x_vel_ref,y_vel_ref,z_vel_ref,x_torque,y_torque,z_torque,w0,w1,w2,w3,u0,u1,u2,u3,m0req,m1req,m2req,m3req,thrust0,thrust1,thrust2,thrust3,thrust_ref,roll_vicon,pitch_vicon,yaw_vicon,acc_x,acc_y,acc_z
5,5,0.0,0.0,0.0,5.7862212997861207e-05,0.0008505427977070212,-0.0039030362386256456,-0.0019146284321323037,-0.016026876866817474,-0.008582268841564655,0.00019942913786508143,0.0020036741625517607,-0.0010631716577336192,0.0,0.0,0.0,-0.0010528210550546646,5.509474067366682e-05,-0.0,0.0,0.0,0.0,0.0005612600944004953,0.004898285958915949,-0.0008823302923701704,1495.0,1495.0,1495.0,1495.0,0.0,0.0,0.0,0.0,0.0,0.0,0.0,0.0,1495.0,1495.0,1495.0,1495.0,1.6344231367111206,-0.014121962791196674,0.03316036375289143,-0.02002390339635118,-0.00021698330237995833,-0.003189535578712821,0.0
28,23,0.0,0.0,0.0,-0.000742363918107003,-0.0008512784261256456,0.0035191725473850965,-0.0019146284321323037,-0.016026876866817474,-0.008582268841564655,0.00019942913786508143,0.0020036741625517607,-0.0010631716577336192,0.0,0.0,0.0,-0.0010528210550546646,5.509474067366682e-05,-0.0,0.0,0.0,0.0,0.0005612600944004953,0.004898285958915949,-0.0008823302923701704,1495.0,1495.0,1495.0,1495.0,0.0,0.0,0.0,0.0,0.0,0.0,0.0,0.0,1495.0,1495.0,1495.0,1495.0,1.6344231367111206,-0.01445607520009325,0.03242041173099347,-0.02004548077146064,-0.00021698330237995833,-0.003189535578712821,0.0
33,5,0.0,0.0,0.0,-0.0008017676300369203,-0.0006579989567399025,0.0007215318619273603,-0.0019146284321323037,-0.016026876866817474,-0.008582268841564655,0.00019942913786508143,0.0020036741625517607,-0.0010631716577336192,0.0,0.0,0.0,0.0008135510142892599,-0.000762543932069093,-0.0,0.0,0.0,0.0,0.0002062028943328187,0.004932291805744171,-0.0009026018087752163,1495.0,1495.0,1495.0,1495.0,0.0,0.0,0.0,0.0,0.0,0.0,0.0,0.0,1495.0,1495.0,1495.0,1495.0,1.6363011598587036,-0.013311236347522338,0.03291770464276473,-0.020466742027517672,0.0030066287145018578,0.0024674960877746344,0.0
45,12,0.0,0.0,0.0,0.003170240204781294,0.0006869743228890002,-0.004153123125433922,-0.0019146284321323037,-0.016026876866817474,-0.008582268841564655,0.00019942913786508143,0.0020036741625517607,-0.0010631716577336192,0.0,0.0,0.0,0.0008135510142892599,-0.000762543932069093,-0.0,0.0,0.0,0.0,0.0002062028943328187,0.004932291805744171,-0.0009026018087752163,1495.0,1495.0,1495.0,1495.0,0.0,0.0,0.0,0.0,0.0,0.0,0.0,0.0,1495.0,1495.0,1495.0,1495.0,1.6363011598587036,-0.013178316894221992,0.03328409568476176,-0.020141441277538655,0.0030066287145018578,0.0024674960877746344,0.0
50,5,0.0,0.0,0.0,0.0025299680419266224,-0.0019695612136274576,-0.00029982018168084323,-0.0019044094951823354,-0.016042692586779594,-0.008599568158388138,0.002844518283382058,0.0006620051572099328,6.953715637791902e-05,0.0,0.0,0.0,0.0024028709158301353,0.0023742886260151863,-0.0,0.0,0.0,0.0,0.0002762523072306067,0.004837444052100182,-0.0007851968402974308,1495.0,1495.0,1495.0,1495.0,0.0,0.0,0.0,0.0,0.0,0.0,0.0,0.0,1495.0,1495.0,1495.0,1495.0,1.6582978963851929,-0.014864558746803938,0.03250237751829765,-0.019843150442069683,-0.009487380273640156,0.007385854609310627,0.0
55,5,0.0,0.0,0.0,-0.0002423287369310856,0.0012023516464978456,-0.0009997107554227114,-0.0019044094951823354,-0.016042692586779594,-0.008599568158388138,0.002844518283382058,0.0006620051572099328,6.953715637791902e-05,0.0,0.0,0.0,0.0024028709158301353,0.0023742886260151863,-0.0,0.0,0.0,0.0,0.0002762523072306067,0.004837444052100182,-0.0007851968402974308,1495.0,1495.0,1495.0,1495.0,0.0,0.0,0.0,0.0,0.0,0.0,0.0,0.0,1495.0,1495.0,1495.0,1495.0,1.6582978963851929,-0.013873260182914899,0.03275695294833344,-0.020000248309769923,-0.009487380273640156,0.007385854609310627,0.0
60,5,-1.2699586477538105e-05,-5.347641490516253e-06,-2.2584408725379035e-05,-0.0016208818415179849,0.0011226576752960682,0.0023102445993572474,-0.0019101349171251059,-0.016044510528445244,-0.008575060404837132,3.979133543907665e-05,0.006083639804273844,0.000521486101206392,0.0,0.0,0.0,0.0024028709158301353,0.0023742886260151863,-0.0,0.0,0.0,0.0,0.0008128199842758477,0.004717910196632147,-0.0008728366228751838,13488.0,13483.0,12915.0,14241.0,0.40572389960289,0.40539297461509705,0.36992695927619934,0.4552573263645172,0.0,0.0,0.0,0.0,13512.0,13456.0,12950.0,14212.0,1.6582978963851929,-0.014194996598200551,0.03276274488904319,-0.020146556032580858,-0.009487380273640156,0.007385854609310627,0.0
65,5,-5.417533884610748e-06,-6.81158553561545e-06,-2.552810838096775e-05,0.00022549355344381183,0.0006247363635338843,0.0012773418566212058,-0.0019083427032455802,-0.016086403280496597,-0.008570019155740738,0.0016816698480397463,0.006427334155887365,-0.0038733547553420067,0.0,0.0,0.0,-0.0013895300216972828,-0.0015501322923228145,-0.0,0.0,0.0,0.0,0.0008181906305253506,0.004701221361756325,-0.0008859640220180154,13462.0,13510.0,12885.0,14266.0,0.40407854318618774,0.4071405529975891,0.3680899143218994,0.45699214935302734,0.0,0.0,0.0,0.0,13574.0,13508.0,12927.0,14448.0,1.6459925174713135,-0.01423224937159713,0.032333322961954805,-0.020144080358326027,0.006148199085146189,-0.004239397123456001,0.0
70,5,-2.3649135982850567e-05,-2.4075932742562145e-05,-4.660312242776854e-06,-0.002097595017403364,0.002321616280823946,-0.0019931986462324858,-0.0019083427032455802,-0.016086403280496597,-0.008570019155740738,0.0016816698480397463,0.006427334155887365,-0.0038733547553420067,0.0,0.0,0.0,-0.0013895300216972828,-0.0015501322923228145,-0.0,0.0,0.0,0.0,0.0008181906305253506,0.004701221361756325,-0.0008859640220180154,13462.0,13510.0,12885.0,14266.0,0.40407854318618774,0.4071405529975891,0.3680899143218994,0.45699214935302734,0.0,0.0,0.0,0.0,13574.0,13508.0,12927.0,14448.0,1.6459925174713135,-0.012983944426940152,0.03356126783509092,-0.02061686090354201,0.006148199085146189,-0.004239397123456001,0.0
75,5,-1.1983241165580694e-05,-3.3363130569341592e-06,-2.2089305275585502e-05,0.000560869462788105,-0.0015601079212501645,0.0012941997265443206,-0.0019083427032455802,-0.016086403280496597,-0.008570019155740738,0.0016816698480397463,0.006427334155887365,-0.0038733547553420067,0.0,0.0,0.0,-0.0013895300216972828,-0.0015501322923228145,-0.0,0.0,0.0,0.0,0.0008181906305253506,0.004701221361756325,-0.0008859640220180154,13462.0,13510.0,12885.0,14266.0,0.40407854318618774,0.4071405529975891,0.3680899143218994,0.45699214935302734,0.0,0.0,0.0,0.0,13574.0,13508.0,12927.0,14448.0,1.6459925174713135,-0.014777159599309914,0.032476149915451155,-0.019710017913669248,0.006148199085146189,-0.004239397123456001,0.0
80,5,-1.4655652194051072e-05,-1.598546441528015e-05,2.116574250976555e-06,-9.63415004662238e-05,0.0008938550599850714,-0.0023870256263762712,-0.0018947483040392399,-0.016101334244012833,-0.008566279895603657,-0.00021708970598410815,-0.00040188193088397384,0.0014040786772966385,0.0,0.0,0.0,0.001915603643283248,0.0005147437914274633,-0.0,0.0,0.0,0.0,0.0012884356547147036,0.0055754948407411575,-0.0007897932664491236,13621.0,13457.0,12997.0,14390.0,0.4142674505710602,0.40372440218925476,0.3749296963214874,0.4653763473033905,0.0,0.0,0.0,0.0,13625.0,13455.0,12994.0,14390.0,1.642500877380371,-0.011961682026959995,0.03356661591668202,-0.020567850374816617,-0.00203726626932621,0.00583202438428998,0.0
86,5,-1.6116760889417492e-05,9.354041026199411e-07,-2.1268435375532135e-05,-0.0002138696872862056,-0.0016729622147977352,0.00185139081440866,-0.0018947483040392399,-0.016101334244012833,-0.008566279895603657,-0.00021708970598410815,-0.00040188193088397384,0.0014040786772966385,0.0,0.0,0.0,0.001915603643283248,0.0005147437914274633,-0.0,0.0,0.0,0.0,0.0012884356547147036,0.0055754948407411575,-0.0007897932664491236,13621.0,13457.0,12997.0,14390.0,0.4142674505710602,0.40372440218925476,0.3749296963214874,0.4653763473033905,0.0,0.0,0.0,0.0,13625.0,13455.0,12994.0,14390.0,1.642500877380371,-0.01428587014187419,0.0331979488918205,-0.020203824450218164,-0.00203726626932621,0.00583202438428998,0.0
91,5,-8.59142073750263e-06,-1.6068586319306633e-06,-1.064502794179134e-05,0.0008174929535016418,-0.0003641133662313223,-0.0005342524964362383,-0.0018845582380890846,-0.016076287254691124,-0.008549331687390804,0.0013196800136938691,-0.003201071871444583,-0.0011072558118030429,0.0,0.0,0.0,0.002061771461740136,-0.00022501134662888944,-0.0,0.0,0.0,0.0,0.00015783493290655315,0.004345380701124668,-0.0008646281785331666,13532.0,13604.0,12926.0,14218.0,0.40855568647384644,0.4131574034690857,0.3705850839614868,0.45369434356689453,0.0,0.0,0.0,0.0,13540.0,13600.0,12929.0,14212.0,1.6429450511932373,-0.01325278548505555,0.032584506307044056,-0.020321251933426515,0.0008907963056117296,0.006278725806623697,0.0
96,5,-7.765633199596778e-06,-1.2133203199482523e-05,-2.029852794294129e-06,0.0004260917194187641,0.001117515959776938,-0.0012475219555199146,-0.0018845582380890846,-0.016076287254691124,-0.008549331687390804,0.0013196800136938691,-0.003201071871444583,-0.0011072558118030429,0.0,0.0,0.0,-0.0014022302348166704,0.0003939516027458012,-0.0,0.0,0.0,0.0,0.00015783493290655315,0.004345380701124668,-0.0008646281785331666,13532.0,13604.0,12926.0,14218.0,0.40855568647384644,0.4131574034690857,0.3705850839614868,0.45369434356689453,0.0,0.0,0.0,0.0,13540.0,13600.0,12929.0,14212.0,1.6380445957183838,-0.013730406969966686,0.03257175845517833,-0.020379032110754678,-0.0015549629461020231,-0.004257487133145332,0.0
101,5,1.8746126215773984e-06,-5.065942787041422e-06,-1.8683045709622093e-05,0.0013272662181407213,-0.00040106484084390104,0.0014993742806836963,-0.0018797240918502212,-0.01605970785021782,-0.008558174595236778,0.0018723281100392342,0.004750772379338741,0.0021782671101391315,0.0,0.0,0.0,-0.0014022302348166704,0.0003939516027458012,-0.0,0.0,0.0,0.0,0.0011268318630754948,0.005040307063609362,-0.0008697864832356572,13527.0,13452.0,12945.0,14298.0,0.4082195460796356,0.40339818596839905,0.3717831075191498,0.45910003781318665,0.0,0.0,0.0,0.0,13519.0,13454.0,12946.0,14302.0,1.6380445957183838,-0.013633137756741295,0.032990894070487,-0.020614010692319426,-0.0015549629461020231,-0.004257487133145332,0.0
106,5,-8.122312465275172e-06,-3.1866554195403296e-07,-1.1430775884946343e-05,-0.0006687244749628007,-0.0007300992147065699,-0.00027052254881709814,-0.0018797240918502212,-0.01605970785021782,-0.008558174595236778,0.0018723281100392342,0.004750772379338741,0.0021782671101391315,0.0,0.0,0.0,-0.0014022302348166704,0.0003939516027458012,-0.0,0.0,0.0,0.0,0.0011268318630754948,0.005040307063609362,-0.0008697864832356572,13527.0,13452.0,12945.0,14298.0,0.4082195460796356,0.40339818596839905,0.3717831075191498,0.45910003781318665,0.0,0.0,0.0,0.0,13519.0,13454.0,12946.0,14302.0,1.6380445957183838,-0.014264707906818193,0.032794738015904774,-0.02032490471020966,-0.0015549629461020231,-0.004257487133145332,0.0
111,5,-5.012091605749447e-06,7.420609563268954e-06,-2.306915121152997e-05,0.00010573666804702953,-0.0012207527179270983,0.0012883959570899606,-0.001881501986645162,-0.016053378582000732,-0.008562820963561535,0.0008265723008662462,0.0026683995965868235,0.0002405041450401768,0.0,0.0,0.0,0.000902315485291183,-0.0006475481204688549,-0.0,0.0,0.0,0.0,0.0011662505567073822,0.004795644897967577,-0.0008612281526438892,13501.0,13474.0,12965.0,14289.0,0.40656813979148865,0.40485212206840515,0.3729787766933441,0.4585460126399994,0.0,0.0,0.0,0.0,13484.0,13489.0,12946.0,14310.0,1.635900855064392,-0.01571689519891734,0.031989627553276355,-0.019650831012362296,0.002552588004618883,0.002736048772931099,0.0
116,5,-1.5187061762844678e-05,-2.2850470031698933e-06,-3.26065237459261e-05,-0.001178701757453382,0.0006763777346350253,0.0016598430229350924,-0.001881501986645162,-0.016053378582000732,-0.008562820963561535,0.0008265723008662462,0.0026683995965868235,0.0002405041450401768,0.0,0.0,0.0,0.000902315485291183,-0.0006475481204688549,-0.0,0.0,0.0,0.0,0.0011662505567073822,0.004795644897967577,-0.0008612281526438892,13501.0,13474.0,12965.0,14289.0,0.40656813979148865,0.40485212206840515,0.3729787766933441,0.4585460126399994,0.0,0.0,0.0,0.0,13484.0,13489.0,12946.0,14310.0,1.635900855064392,-0.015358209285970401,0.03233470107863537,-0.019649975022806066,0.002552588004618883,0.002736048772931099,0.0
121,5,-1.4228261534299236e-05,-7.627981176483445e-06,-2.6709669327829033e-05,-0.000356424628989771,0.0009117031586356461,-4.368518784758635e-05,-0.001871341373771429,-0.016073964536190033,-0.008560899645090103,-0.0022069099359214306,0.009514465928077698,0.000489500816911459,0.0,0.0,0.0,-0.0008386583649553359,-0.001139859203249216,-0.0,0.0,0.0,0.0,0.0008397946949116886,0.004715008661150932,-0.0009084309567697346,13591.0,13483.0,12861.0,14218.0,0.4123178720474243,0.40537339448928833,0.3666645884513855,0.45368874073028564,0.0,0.0,0.0,0.0,13541.0,13531.0,12828.0,14249.0,1.6397854089736938,-0.014642816903481862,0.03274335410675271,-0.019744946533468657,0.004503911826759577,-0.0025490629486739635,0.0
126,5,-1.7755304725142196e-05,-1.0092513548443094e-05,-1.51148951772484e-05,-0.0005658150184899569,0.0006604251684620976,-0.001408846932463348,-0.001871341373771429,-0.016073964536190033,-0.008560899645090103,-0.0022069099359214306,0.009514465928077698,0.000489500816911459,0.0,0.0,0.0,-0.0008386583649553359,-0.001139859203249216,-0.0,0.0,0.0,0.0,0.0008397946949116886,0.004715008661150932,-0.0009084309567697346,13591.0,13483.0,12861.0,14218.0,0.4123178720474243,0.40537339448928833,0.3666645884513855,0.45368874073028564,0.0,0.0,0.0,0.0,13541.0,13531.0,12828.0,14249.0,1.6397854089736938,-0.013846224236775072,0.03270758405910975,-0.020115994098566174,0.004503911826759577,-0.0025490629486739635,0.0
131,5,-1.3603650586446747e-05,-1.3980996300233528e-05,-2.144865175068844e-05,0.00027187244268134236,0.000730787985958159,0.0001965119008673355,-0.0018818052485585213,-0.016092821955680847,-0.008568176999688148,-0.0017889098962768912,0.001420748420059681,-0.0024639961775392294,0.0,0.0,0.0,-0.0008356129401363432,-0.000563468667678535,-0.0,0.0,0.0,0.0,0.0003517237782943994,0.004478572402149439,-0.0009545724024064839,13470.0,13593.0,12865.0,14250.0,0.4045766592025757,0.41243302822113037,0.3668903708457947,0.4558853507041931,0.0,0.0,0.0,0.0,13447.0,13512.0,12890.0,14269.0,1.6348854303359985,-0.013855138129180052,0.032887288496394516,-0.020342466213141876,0.002219774294644594,-0.0025322171859443188,0.0
136,5,-1.2206239262013696e-05,-2.5059001927729696e-05,2.4590801785961958e-06,0.0002764383680187166,0.0016216759104281664,-0.002790322992950678,-0.0018818052485585213,-0.016092821955680847,-0.008568176999688148,-0.0017889098962768912,0.001420748420059681,-0.0024639961775392294,0.0,0.0,0.0,-0.0008356129401363432,-0.000563468667678535,-0.0,0.0,0.0,0.0,0.0003517237782943994,0.004478572402149439,-0.0009545724024064839,13470.0,13593.0,12865.0,14250.0,0.4045766592025757,0.41243302822113037,0.3668903708457947,0.4558853507041931,0.0,0.0,0.0,0.0,13447.0,13512.0,12890.0,14269.0,1.6348854303359985,-0.012832192260141843,0.03335904659816159,-0.020586447416186707,0.002219774294644594,-0.0025322171859443188,0.0
142,5,-1.3370192391448654e-05,-3.992690380982822e-06,-1.4749855836271308e-05,-2.9099039238644764e-05,-0.001879286952316761,0.0009489430813118815,-0.0018818052485585213,-0.016092821955680847,-0.008568176999688148,-0.0017889098962768912,0.001420748420059681,-0.0024639961775392294,0.0,0.0,0.0,-0.0020424199756234884,0.0002448229934088886,-0.0,0.0,0.0,0.0,0.0003517237782943994,0.004478572402149439,-0.0009545724024064839,13470.0,13593.0,12865.0,14250.0,0.4045766592025757,0.41243302822113037,0.3668903708457947,0.4558853507041931,0.0,0.0,0.0,0.0,13447.0,13512.0,12890.0,14269.0,1.6428171396255493,-0.014709444189347193,0.03278294027135083,-0.02026084383447234,-0.0009691531304270029,-0.006219310685992241,0.0
147,5,-9.47973967413418e-06,1.909875663841376e-06,-3.1950792163115693e-06,0.00045521464198827744,-0.001460022758692503,-0.0010069959098473191,-0.0019080393249168992,-0.01607971079647541,-0.008591174148023129,0.0007855043513700366,-0.002476923866197467,-0.0044135963544249535,0.0,0.0,0.0,-0.0020424199756234884,0.0002448229934088886,-0.0,0.0,0.0,0.0,0.0003342929994687438,0.0047018863260746,-0.0008197312708944082,13499.0,13525.0,12866.0,14213.0,0.40642210841178894,0.4081134498119354,0.36696377396583557,0.4533860981464386,0.0,0.0,0.0,0.0,13503.0,13567.0,12890.0,14221.0,1.6428171396255493,-0.013517871242256011,0.03264015799041361,-0.020175495584009957,-0.0009691531304270029,-0.006219310685992241,0.0
152,5,-1.5218834960251115e-05,-4.690554760600207e-06,1.2917765161546413e-05,-0.0005066055455245078,0.00020804256200790405,-0.0023363397922366858,-0.0018953464459627867,-0.016044631600379944,-0.008590402081608772,-0.0005217809812165797,-0.003220079466700554,-0.0027103328611701727,0.0,0.0,0.0,0.001803080434910953,0.0004183482378721237,-0.0,0.0,0.0,0.0,0.0003342929994687438,0.0047018863260746,-0.0008197312708944082,13499.0,13525.0,12866.0,14213.0,0.40642210841178894,0.4081134498119354,0.36696377396583557,0.4533860981464386,0.0,0.0,0.0,0.0,13464.0,13562.0,12843.0,14232.0,1.6412874460220337,-0.013437588514904803,0.033254118944631095,-0.02026790320129786,-0.0016545266844332218,0.00548539450392127,0.0
157,5,-8.865457857609726e-06,-4.4812685473516467e-07,-3.44866857631132e-05,0.0005597630515694618,-0.00042587434290908277,0.004753998015075922,-0.0018953464459627867,-0.016044631600379944,-0.008590402081608772,-0.0005217809812165797,-0.003220079466700554,-0.0027103328611701727,0.0,0.0,0.0,0.001803080434910953,0.0004183482378721237,-0.0,0.0,0.0,0.0,0.0003342929994687438,0.0047018863260746,-0.0008197312708944082,13499.0,13525.0,12866.0,14213.0,0.40642210841178894,0.4081134498119354,0.36696377396583557,0.4533860981464386,0.0,0.0,0.0,0.0,13464.0,13562.0,12843.0,14232.0,1.6412874460220337,-0.014687951998730507,0.03286238952229498,-0.01978772809602308,-0.0016545266844332218,0.00548539450392127,0.0
162,5,-7.355541310971603e-05,-5.095661254017614e-05,2.4960185328382067e-05,-0.007538889534771442,0.005890668835490942,-0.005232025403529406,-0.0018953464459627867,-0.016044631600379944,-0.008590402081608772,-0.0005217809812165797,-0.003220079466700554,-0.0027103328611701727,0.0,0.0,0.0,0.00052680290536955,0.0005210214876569808,-0.0,0.0,0.0,0.0,0.0003342929994687438,0.0047018863260746,-0.0008197312708944082,13499.0,13525.0,12866.0,14213.0,0.40642210841178894,0.4081134498119354,0.36696377396583557,0.4533860981464386,0.0,0.0,0.0,0.0,13464.0,13562.0,12843.0,14232.0,1.6327953338623047,-0.015101542760884098,0.03375634608740532,-0.021042623383946454,-0.0020499308593571186,0.0015943674370646477,0.0
167,5,-1.896624053188134e-05,-1.4010151062393561e-05,2.719577241805382e-05,0.0035351449623703957,-0.002077308017760515,-0.0023610806092619896,-0.0018940467853099108,-0.01600215770304203,-0.008625388145446777,-0.002257344778627157,-0.004007076844573021,0.001172474236227572,0.0,0.0,0.0,0.00052680290536955,0.0005210214876569808,-0.0,0.0,0.0,0.0,-4.714261740446091e-05,0.004852845799177885,-0.0009614083683118224,13561.0,13575.0,12854.0,14236.0,0.41039514541625977,0.41128236055374146,0.36619555950164795,0.45494407415390015,0.0,0.0,0.0,0.0,13595.0,13527.0,12898.0,14209.0,1.6327953338623047,-0.014579362742458754,0.031249473181413277,-0.020260000467778278,-0.0020499308593571186,0.0015943674370646477,0.0
172,5,-1.790652640920598e-05,4.315855221648235e-06,-1.4670858035970014e-05,0.001541223842650652,-0.00303004402667284,0.004079563543200493,-0.0018940467853099108,-0.01600215770304203,-0.008625388145446777,-0.002257344778627157,-0.004007076844573021,0.001172474236227572,0.0,0.0,0.0,0.002496100962162018,0.0032742409966886044,-0.0,0.0,0.0,0.0,-4.714261740446091e-05,0.004852845799177885,-0.0009614083683118224,13561.0,13575.0,12854.0,14236.0,0.41039514541625977,0.41128236055374146,0.36619555950164795,0.45494407415390015,0.0,0.0,0.0,0.0,13595.0,13527.0,12898.0,14209.0,1.6669827699661255,-0.013600720126033432,0.03287324248580636,-0.02019236552634871,-0.013151992112398148,0.00771260354667902,0.0
177,5,-6.462760666181566e-06,-1.7464295524405316e-05,-2.9693881515413523e-05,0.0019897413440048695,0.0014016005443409085,0.003434588201344013,-0.00201890105381608,-0.016020283102989197,-0.008821063674986362,-0.006176115013659,0.010308483615517616,-0.033147331327199936,0.0,0.0,0.0,0.002496100962162018,0.0032742409966886044,-0.0,0.0,0.0,0.0,0.000670609821099788,0.0049533536657691,0.0011474317871034145,13079.0,13858.0,12482.0,14711.0,0.37998175621032715,0.42972928285598755,0.343944787979126,0.487631618976593,0.0,0.0,0.0,0.0,13613.0,13344.0,13042.0,14212.0,1.6669827699661255,-0.01399162134739323,0.0331419958847724,-0.02098928037282983,-0.013151992112398148,0.00771260354667902,0.0
182,5,-3.0979030270827934e-05,-7.34590093998122e-06,1.9586639609769918e-05,-0.0021460559219121933,-0.0006535672000609338,-0.004539827350527048,-0.00201890105381608,-0.016020283102989197,-0.008821063674986362,-0.006176115013659,0.010308483615517616,-0.033147331327199936,0.0,0.0,0.0,-0.001749479677528143,0.001867002109065652,-0.0,0.0,0.0,0.0,0.000670609821099788,0.0049533536657691,0.0011474317871034145,13079.0,13858.0,12482.0,14711.0,0.37998175621032715,0.42972928285598755,0.343944787979126,0.487631618976593,0.0,0.0,0.0,0.0,13613.0,13344.0,13042.0,14212.0,1.6505491733551025,-0.013838049639911875,0.03244982752849718,-0.019882130529788117,-0.007425475399941206,-0.005352362524718046,0.0
187,5,-1.528750544821378e-05,1.977718056878075e-06,-1.1239502782700583e-05,0.0010245607700198889,-0.001380261150188744,0.0018832061905413866,-0.0019957355689257383,-0.016001565381884575,-0.008213446475565434,0.004737409763038158,0.012066744267940521,-0.020170163363218307,0.0,0.0,0.0,-0.001749479677528143,0.001867002109065652,-0.0,0.0,0.0,0.0,0.0008090621558949351,0.004874997306615114,-0.0005278401076793671,13839.0,13113.0,13208.0,13927.0,0.4284326136112213,0.3821008503437042,0.3880223333835602,0.43423953652381897,0.0,0.0,0.0,0.0,12357.0,14503.0,11581.0,15303.0,1.6505491733551025,-0.01359156162053366,0.033344834204969295,-0.02014130599666419,-0.007425475399941206,-0.005352362524718046,0.0
192,5,-2.960202982649207e-05,-1.6169349692063406e-05,3.1637412689633493e-07,-0.0013079185737296939,0.0016255436930805445,-0.0006334227509796619,-0.0019957355689257383,-0.016001565381884575,-0.008213446475565434,0.004737409763038158,0.012066744267940521,-0.020170163363218307,0.0,0.0,0.0,0.0017029542941600084,0.0009490192169323564,-0.0,0.0,0.0,0.0,0.0008090621558949351,0.004874997306615114,-0.0005278401076793671,13839.0,13113.0,13208.0,13927.0,0.4284326136112213,0.3821008503437042,0.3880223333835602,0.43423953652381897,0.0,0.0,0.0,0.0,12357.0,14503.0,11581.0,15303.0,1.6431150436401367,-0.013690496020903536,0.033217033441827346,-0.020316384318882424,-0.0037574584130197763,0.005186556838452816,0.0
197,5,-2.176392445107922e-05,-1.2107774637115654e-05,-1.7624221072765067e-05,0.0004174051864538342,0.00016282852448057383,0.0018995022401213646,-0.0019985802937299013,-0.016160396859049797,-0.008737011812627316,0.002487877383828163,-0.032970815896987915,0.10975665599107742,0.0,0.0,0.0,0.0017029542941600084,0.0009490192169323564,-0.0,0.0,0.0,0.0,0.0016429744428023696,0.005737585015594959,-0.003090720856562257,14264.0,12832.0,13700.0,13801.0,0.45679351687431335,0.3648894131183624,0.4193580448627472,0.4259417951107025,0.0,0.0,0.0,0.0,14803.0,12223.0,14287.0,13168.0,1.6431150436401367,-0.013660369885407296,0.033325451582916624,-0.020311430427358192,-0.0037574584130197763,0.005186556838452816,0.0
202,5,-0.00011066890874644741,-7.918485789559782e-05,0.0002173954271711409,-0.010501636192202568,0.00811438076198101,-0.027442555874586105,-0.0019985802937299013,-0.016160396859049797,-0.008737011812627316,0.002487877383828163,-0.032970815896987915,0.10975665599107742,0.0,0.0,0.0,-0.00022424315102398396,0.0003678629582282156,-0.0,0.0,0.0,0.0,0.0016429744428023696,0.005737585015594959,-0.003090720856562257,14264.0,12832.0,13700.0,13801.0,0.45679351687431335,0.3648894131183624,0.4193580448627472,0.4259417951107025,0.0,0.0,0.0,0.0,14803.0,12223.0,14287.0,13168.0,1.6300781965255737,-0.019679835692689256,0.02902588824683046,-0.021939184511765526,-0.0014449285808950663,-0.0006775419460609555,0.0
208,5,-1.300179155805381e-05,-8.796398105914705e-06,5.101790975459153e-06,0.007519399281591177,-0.005200862418860197,0.014498213306069374,-0.002014201832935214,-0.015960710123181343,-0.008556405082345009,-0.020586805418133736,0.0008152622613124549,-0.07959591597318649,0.0,0.0,0.0,-0.00022424315102398396,0.0003678629582282156,-0.0,0.0,0.0,0.0,-0.0002863823319785297,0.004963357467204332,0.0007810773677192628,14090.0,12945.0,13510.0,13696.0,0.4451010525226593,0.3717486560344696,0.40713414549827576,0.41913118958473206,0.0,0.0,0.0,0.0,13278.0,13875.0,12498.0,14636.0,1.6300781965255737,-0.012754903457883646,0.03260998196082782,-0.02066913285088646,-0.0014449285808950663,-0.0006775419460609555,0.0
213,5,-5.7483189266349655e-06,-5.401350790634751e-06,1.7937256416189484e-05,0.0038781764451414347,-0.0024877507239580154,0.004259029403328896,-0.002014201832935214,-0.015960710123181343,-0.008556405082345009,-0.020586805418133736,0.0008152622613124549,-0.07959591597318649,0.0,0.0,0.0,0.006110397633165121,0.006795384921133518,-0.0,0.0,0.0,0.0,-0.0002863823319785297,0.004963357467204332,0.0007810773677192628,14090.0,12945.0,13510.0,13696.0,0.4451010525226593,0.3717486560344696,0.40713414549827576,0.41913118958473206,0.0,0.0,0.0,0.0,13278.0,13875.0,12498.0,14636.0,1.7176969051361084,-0.013289416299426773,0.0323120588735815,-0.0201853897473084,-0.028125552460551262,0.019454481080174446,0.0
218,5,2.3083341602614382e-06,6.041699634806719e-06,4.213930151308887e-05,0.0025180689990520477,-0.0023682662285864353,-0.0012006335891783237,-0.0018064870964735746,-0.01604584977030754,-0.008519773371517658,-0.0014569783816114068,0.02720990963280201,-0.001780482241883874,0.0,0.0,0.0,0.006110397633165121,0.006795384921133518,-0.0,0.0,0.0,0.0,0.0010772350942716002,0.005701256915926933,-0.0013828726951032877,13449.0,13539.0,12762.0,14461.0,0.4032367467880249,0.40898770093917847,0.3606259226799011,0.4702646732330322,0.0,0.0,0.0,0.0,13663.0,13391.0,13008.0,14177.0,1.7176969051361084,-0.012679314730525477,0.03257719621153766,-0.020046601362418735,-0.028125552460551262,0.019454481080174446,0.0
223,5,-2.205621058237739e-06,-6.560786914633354e-06,6.087545625632629e-05,0.0004655529628507793,0.0005649919039569795,-0.0027285919059067965,-0.0018064870964735746,-0.01604584977030754,-0.008519773371517658,-0.0014569783816114068,0.02720990963280201,-0.001780482241883874,0.0,0.0,0.0,0.002895418321713805,0.002362402155995369,-0.0,0.0,0.0,0.0,0.0010772350942716002,0.005701256915926933,-0.0013828726951032877,13449.0,13539.0,12762.0,14461.0,0.4032367467880249,0.40898770093917847,0.3606259226799011,0.4702646732330322,0.0,0.0,0.0,0.0,13663.0,13391.0,13008.0,14177.0,1.6609165668487549,-0.013326194108930661,0.03286484616148505,-0.019573308324668668,-0.009454777464270592,0.008913875557482243,0.0
228,5,-8.012266334844753e-05,-6.655685137957335e-05,0.00013242657587397844,-0.009163823910057545,0.007425524760037661,-0.00967757124453783,-0.002068359637632966,-0.01616930030286312,-0.008390889503061771,-0.052574124187231064,0.0023617625702172518,-0.0035475115291774273,0.0,0.0,0.0,0.002895418321713805,0.002362402155995369,-0.0,0.0,0.0,0.0,0.0010992889292538166,0.004983112215995789,-0.000636810902506113,13483.0,13380.0,12922.0,14244.0,0.4054020643234253,0.398853600025177,0.3703766465187073,0.45544588565826416,0.0,0.0,0.0,0.0,13668.0,13297.0,12954.0,14115.0,1.6609165668487549,-0.01654373878196275,0.03345776243360423,-0.020490949279705406,-0.009454777464270592,0.008913875557482243,0.0
233,5,-0.00010250094055663794,-3.673381797852926e-05,0.00036367063876241446,-0.006350922863930464,-0.0006085544009692967,-0.031620316207408905,-0.002068359637632966,-0.01616930030286312,-0.008390889503061771,-0.052574124187231064,0.0023617625702172518,-0.0035475115291774273,0.0,0.0,0.0,-0.008718516677618027,-0.008274180814623833,-0.0,0.0,0.0,0.0,0.0010992889292538166,0.004983112215995789,-0.000636810902506113,13483.0,13380.0,12922.0,14244.0,0.4054020643234253,0.398853600025177,0.3703766465187073,0.45544588565826416,0.0,0.0,0.0,0.0,13668.0,13297.0,12954.0,14115.0,1.7458155155181885,-0.01682747272745367,0.029973574073821455,-0.020580468241879615,0.03480597212910652,-0.02821236476302147,0.0
238,5,-7.899577030912042e-05,-9.618957119528204e-05,0.0003757489030249417,0.00028025131905451417,0.00689126830548048,-0.014097518287599087,-0.0017656079726293683,-0.016230257228016853,-0.008540724404156208,0.042083293199539185,0.01760982722043991,0.020587341859936714,0.0,0.0,0.0,-0.008718516677618027,-0.008274180814623833,-0.0,0.0,0.0,0.0,0.0015532481484115124,0.007324892561882734,-0.0010533302556723356,13983.0,13499.0,13169.0,14712.0,0.43799370527267456,0.4064319133758545,0.38558369874954224,0.4876875877380371,0.0,0.0,0.0,0.0,13974.0,13140.0,13290.0,14112.0,1.7458155155181885,-0.018063418214630398,0.02843883012191942,-0.02117451749423114,0.03480597212910652,-0.02821236476302147,0.0
243,5,-4.847379750572145e-05,-8.524332224624231e-05,0.0002651949180290103,0.0037747370079159737,0.001442957785911858,0.00762746948748827,-0.0017656079726293683,-0.016230257228016853,-0.008540724404156208,0.042083293199539185,0.01760982722043991,0.020587341859936714,0.0,0.0,0.0,-0.008384945802390575,0.00015047182387206703,-0.0,0.0,0.0,0.0,0.0015532481484115124,0.007324892561882734,-0.0010533302556723356,13983.0,13499.0,13169.0,14712.0,0.43799370527267456,0.4064319133758545,0.38558369874954224,0.4876875877380371,0.0,0.0,0.0,0.0,13974.0,13140.0,13290.0,14112.0,1.696864366531372,-0.014758278802093051,0.0329689080639357,-0.0212313882362069,-0.0006152320420369506,-0.026372220367193222,0.0
248,5,2.3406830678140977e-06,-3.7361111026257277e-05,0.0003145149676129222,0.00760763231664896,-0.005168681964278221,-0.0028674164786934853,-0.0013687120517715812,-0.01639261655509472,-0.008460200391709805,0.014021282084286213,0.006441772449761629,-0.012453855015337467,0.0,0.0,0.0,-0.008384945802390575,0.00015047182387206703,-0.0,0.0,0.0,0.0,0.0007706079049967229,0.006114861462265253,-0.00128177588339895,13520.0,13628.0,12768.0,14565.0,0.4077408015727997,0.41473475098609924,0.36101076006889343,0.4774302542209625,0.0,0.0,0.0,0.0,13893.0,14341.0,13236.0,14340.0,1.696864366531372,-0.011289298798408391,0.03241484944994648,-0.020064360853430364,-0.0006152320420369506,-0.026372220367193222,0.0
253,5,-0.00010352622484788299,-3.786499655689113e-05,0.000574947043787688,-0.009660976007580757,-0.0020070066675543785,-0.03239881619811058,-0.0013687120517715812,-0.01639261655509472,-0.008460200391709805,0.014021282084286213,0.006441772449761629,-0.012453855015337467,0.0,0.0,0.0,0.006021203938871622,0.006893601268529892,-0.0,0.0,0.0,0.0,0.0007706079049967229,0.006114861462265253,-0.00128177588339895,13520.0,13628.0,12768.0,14565.0,0.4077408015727997,0.41473475098609924,0.36101076006889343,0.4774302542209625,0.0,0.0,0.0,0.0,13893.0,14341.0,13236.0,14340.0,1.7181905508041382,-0.01213641484903221,0.03183780661505354,-0.02031564597063212,-0.028540270403027534,0.019176019355654716,0.0
258,5,-3.3364558476023376e-05,-3.6948389606550336e-05,0.0004952715244144201,0.004555009305477142,-0.000912795658223331,-0.003398461500182748,-0.001012439257465303,-0.016245033591985703,-0.008326179347932339,0.06675265729427338,-0.05856338143348694,0.00700192479416728,0.0,0.0,0.0,0.006021203938871622,0.006893601268529892,-0.0,0.0,0.0,0.0,-0.0028819057624787092,0.0013670572079718113,-0.00013169120938982815,14094.0,14207.0,13536.0,13993.0,0.44538748264312744,0.4529842734336853,0.4087892174720764,0.4386545419692993,0.0,0.0,0.0,0.0,13840.0,14168.0,12778.0,14258.0,1.7181905508041382,-0.01097330302959523,0.03188357564845993,-0.01999579624773895,-0.028540270403027534,0.019176019355654716,0.0
263,5,-3.686735362862237e-05,-0.00016927473188843578,0.0006147648673504591,0.0014016682980582118,0.015514044091105461,-0.015698587521910667,-0.001012439257465303,-0.016245033591985703,-0.008326179347932339,0.06675265729427338,-0.05856338143348694,0.00700192479416728,0.0,0.0,0.0,0.0010383866028860211,0.004193214699625969,-0.0,0.0,0.0,0.0,-0.0028819057624787092,0.0013670572079718113,-0.00013169120938982815,14094.0,14207.0,13536.0,13993.0,0.44538748264312744,0.4529842734336853,0.4087892174720764,0.4386545419692993,0.0,0.0,0.0,0.0,13840.0,14168.0,12778.0,14258.0,1.6722363233566284,-0.01855399406574546,0.026919365058818905,-0.02129297368692049,-0.016896437853574753,0.003218586090952158,0.0
269,5,-7.734840619377792e-05,-4.8703244829084724e-05,0.000693693698849529,-0.004297059029340744,-0.008262962102890015,-0.015750892460346222,-6.816847599111497e-05,-0.015392960049211979,-0.008399750106036663,0.07049700617790222,-0.11575522273778915,0.01792861707508564,0.0,0.0,0.0,0.0010383866028860211,0.004193214699625969,-0.0,0.0,0.0,0.0,-0.003313618479296565,0.0031528824474662542,-0.0009530639508739114,13946.0,14046.0,13086.0,13995.0,0.4354882836341858,0.44217175245285034,0.38044995069503784,0.4387543797492981,0.0,0.0,0.0,0.0,14084.0,13926.0,13329.0,13746.0,1.6722363233566284,-0.009219791356450948,0.03067971210281595,-0.019715300712361866,-0.016896437853574753,0.003218586090952158,0.0
274,5,-9.356809459859505e-05,-6.585352821275592e-05,0.0007684809970669448,-0.0036651859991252422,-0.0012471501249819994,-0.0152748329564929,-6.816847599111497e-05,-0.015392960049211979,-0.008399750106036663,0.07049700617790222,-0.11575522273778915,0.01792861707508564,0.0,0.0,0.0,0.009637545794248581,-0.003992241341620684,-0.0,0.0,0.0,0.0,-0.003313618479296565,0.0031528824474662542,-0.0009530639508739114,13946.0,14046.0,13086.0,13995.0,0.4354882836341858,0.44217175245285034,0.38044995069503784,0.4387543797492981,0.0,0.0,0.0,0.0,14084.0,13926.0,13329.0,13746.0,1.7195484638214111,-0.007241996739342293,0.030215515823604298,-0.01967235252452831,0.016541000455617905,0.03071688860654831,0.0
279,5,-0.0001481574581703171,-0.00013718275295104831,0.0008360504871234298,-0.00801679864525795,0.008060647174715996,-0.014218275435268879,-6.816847599111497e-05,-0.015392960049211979,-0.008399750106036663,0.07049700617790222,-0.11575522273778915,0.01792861707508564,0.0,0.0,0.0,0.009637545794248581,-0.003992241341620684,-0.0,0.0,0.0,0.0,-0.003313618479296565,0.0031528824474662542,-0.0009530639508739114,13946.0,14046.0,13086.0,13995.0,0.4354882836341858,0.44217175245285034,0.38044995069503784,0.4387543797492981,0.0,0.0,0.0,0.0,14084.0,13926.0,13329.0,13746.0,1.7195484638214111,-0.011647728871162315,0.028910965839906756,-0.02106721614272635,0.016541000455617905,0.03071688860654831,0.0
284,5,-0.00024987125652842224,-7.104207179509103e-05,0.0010505776153877378,-0.015412374399602413,-0.004712623078376055,-0.03143055737018585,0.0004218498943373561,-0.014320365153253078,-0.008256405591964722,0.04715798795223236,-0.15186865627765656,-0.01525440439581871,0.0,0.0,0.0,-0.009590359404683113,-0.007352691143751144,-0.0,0.0,0.0,0.0,0.0012838529655709863,0.0032940383534878492,-0.0010004624491557479,13568.0,13989.0,13237.0,14590.0,0.4108363091945648,0.438344269990921,0.3898238241672516,0.47918614745140076,0.0,0.0,0.0,0.0,13524.0,14026.0,13305.0,14532.0,1.7430219650268555,-0.007625280981384583,0.027730849112683448,-0.020669850230927184,0.030879992991685867,-0.030983764678239822,0.0
289,5,-0.00021495437249541283,-7.650939369341359e-05,0.000941663805861026,-0.001974924700334668,-0.001228970941156149,0.0004974246257916093,0.0004218498943373561,-0.014320365153253078,-0.008256405591964722,0.04715798795223236,-0.15186865627765656,-0.01525440439581871,0.0,0.0,0.0,-0.009590359404683113,-0.007352691143751144,-0.0,0.0,0.0,0.0,0.0012838529655709863,0.0032940383534878492,-0.0010004624491557479,13568.0,13989.0,13237.0,14590.0,0.4108363091945648,0.438344269990921,0.3898238241672516,0.47918614745140076,0.0,0.0,0.0,0.0,13524.0,14026.0,13305.0,14532.0,1.7430219650268555,-0.006848706175522545,0.027011799903819966,-0.0203166395846234,0.030879992991685867,-0.030983764678239822,0.0
294,5,-0.00025317742256447673,-6.591985584236681e-05,0.0009833828080445528,-0.005376733839511871,-0.0017623332096263766,-0.0048073106445372105,0.000949311361182481,-0.012252377346158028,-0.00812281109392643,0.037986889481544495,-0.20735077559947968,0.031058544293045998,0.0,0.0,0.0,0.0013672534842044115,-0.0021586529910564423,-0.0,0.0,0.0,0.0,0.0019817163702100515,-0.0021788086742162704,-0.0009810205083340406,13732.0,13681.0,13580.0,13725.0,0.4214395582675934,0.4181630313396454,0.4116345942020416,0.420999139547348,0.0,0.0,0.0,0.0,13651.0,13772.0,13436.0,13855.0,1.6516379117965698,-0.005092473419972268,0.026353337625110655,-0.020209564686249293,0.008591100573539734,0.004185739438980818,-0.0
299,5,-0.0003666717966552824,-0.0001704152236925438,0.0009598997421562672,-0.009099850431084633,0.010765734128654003,0.003338667331263423,0.000949311361182481,-0.012252377346158028,-0.00812281109392643,0.037986889481544495,-0.20735077559947968,0.031058544293045998,0.0,0.0,0.0,0.0013672534842044115,-0.0021586529910564423,-0.0,0.0,0.0,0.0,0.0019817163702100515,-0.0021788086742162704,-0.0009810205083340406,13732.0,13681.0,13580.0,13725.0,0.4214395582675934,0.4181630313396454,0.4116345942020416,0.420999139547348,0.0,0.0,0.0,0.0,13651.0,13772.0,13436.0,13855.0,1.6516379117965698,-0.011164672561719996,0.022154672353678448,-0.021241306276403398,0.008591100573539734,0.004185739438980818,-0.0
304,5,-0.0003666717966552824,-0.0001704152236925438,0.0009598997421562672,-0.009099850431084633,0.010765734128654003,0.003338667331263423,0.001267703133635223,-0.010651275515556335,-0.008119398728013039,0.04712442681193352,-0.2356206327676773,0.007445375435054302,0.0,0.0,0.0,-0.012575398199260235,-0.008464048616588116,-0.0,0.0,0.0,0.0,-0.004163466393947601,-0.0037127879913896322,0.000252228433964774,13216.0,14229.0,13830.0,14144.0,0.38851845264434814,0.45442771911621094,0.42788875102996826,0.4487135410308838,0.0,0.0,0.0,0.0,13540.0,13948.0,14133.0,13815.0,1.7723981142044067,-0.011164672561719996,0.022154672353678448,-0.021241306276403398,0.036145299673080444,-0.04131148383021355,-0.0
310,5,-0.0005189189105294645,-8.095334487734362e-05,0.001155792037025094,-0.021909594535827637,-0.006429132539778948,-0.022171610966324806,0.001267703133635223,-0.010651275515556335,-0.008119398728013039,0.04712442681193352,-0.2356206327676773,0.007445375435054302,0.0,0.0,0.0,-0.012575398199260235,-0.008464048616588116,-0.0,0.0,0.0,0.0,-0.004163466393947601,-0.0037127879913896322,0.000252228433964774,13216.0,14229.0,13830.0,14144.0,0.38851845264434814,0.45442771911621094,0.42788875102996826,0.4487135410308838,0.0,0.0,0.0,0.0,13540.0,13948.0,14133.0,13815.0,1.7723981142044067,-0.004343970538046575,0.0228083637203596,-0.020814042858630137,0.036145299673080444,-0.04131148383021355,-0.0
315,5,-0.0005112673970870674,-7.175543578341603e-05,0.0009202707442454994,-0.005981392227113247,-0.0019808958750218153,0.010416912846267223,0.0019369954243302345,-0.007895872928202152,-0.007745844777673483,0.07864012569189072,-0.22187194228172302,0.022074172273278236,0.0,0.0,0.0,0.006867087911814451,-0.01898244582116604,-0.0,0.0,0.0,0.0,-0.00117859011515975,-0.0015568103408440948,-6.591693090740591e-05,13974.0,14485.0,13959.0,13357.0,0.4373631477355957,0.4719225764274597,0.4363660216331482,0.39737021923065186,0.0,0.0,0.0,0.0,13781.0,14686.0,13690.0,13614.0,1.8589107990264893,-0.0014312853818283838,0.022136651872086285,-0.02048805577152784,0.0850210189819336,0.023661023005843163,0.0
320,5,-0.0005512700881808996,-5.19695931870956e-05,0.0009431465296074748,-0.007192880380898714,-0.003166659502312541,0.0014216710114851594,0.0019369954243302345,-0.007895872928202152,-0.007745844777673483,0.07864012569189072,-0.22187194228172302,0.022074172273278236,0.0,0.0,0.0,0.006867087911814451,-0.01898244582116604,-0.0,0.0,0.0,0.0,-0.00117859011515975,-0.0015568103408440948,-6.591693090740591e-05,13974.0,14485.0,13959.0,13357.0,0.4373631477355957,0.4719225764274597,0.4363660216331482,0.39737021923065186,0.0,0.0,0.0,0.0,13781.0,14686.0,13690.0,13614.0,1.8589107990264893,-0.003602252079041121,0.02092940728948605,-0.02027858708551616,0.0850210189819336,0.023661023005843163,0.0
325,5,-0.0005756767350248992,-0.00013333330571185797,0.0009236970799975097,-0.005805944558233023,0.008496981114149094,0.002902605105191469,0.0025352647062391043,-0.006536684464663267,-0.007641979958862066,0.05716380849480629,-0.144730806350708,0.04286934435367584,0.0,0.0,0.0,0.0036504550371319056,-0.007274249568581581,-0.0,0.0,0.0,0.0,-0.0043571712449193,-0.002337569370865822,-0.0002740993513725698,14114.0,14544.0,13837.0,13730.0,0.4467317461967468,0.4760040044784546,0.42830419540405273,0.4213581681251526,0.0,0.0,0.0,0.0,13717.0,13585.0,13822.0,13270.0,1.7122963666915894,-0.01008150500606427,0.018869248448024168,-0.021357977110141372,0.030013199895620346,0.011585978791117668,-0.0
330,5,-0.0006431897636502981,2.155276661142125e-06,0.0010196117218583822,-0.01042394619435072,-0.012859837152063847,-0.010348719544708729,0.0025352647062391043,-0.006536684464663267,-0.007641979958862066,0.05716380849480629,-0.144730806350708,0.04286934435367584,0.0,0.0,0.0,0.0036504550371319056,-0.007274249568581581,-0.0,0.0,0.0,0.0,-0.0043571712449193,-0.002337569370865822,-0.0002740993513725698,14114.0,14544.0,13837.0,13730.0,0.4467317461967468,0.4760040044784546,0.42830419540405273,0.4213581681251526,0.0,0.0,0.0,0.0,13717.0,13585.0,13822.0,13270.0,1.7122963666915894,-0.004413853955686787,0.021584495515267175,-0.018997355031281384,0.030013199895620346,0.011585978791117668,-0.0
335,5,-0.0006272998871281743,1.4264175661082845e-05,0.0010168551234528422,-0.002262789523229003,-0.006597002502530813,-0.0038086911663413048,0.0021891333162784576,-0.005019382108002901,-0.0069582280702888966,-0.07838573306798935,0.025709226727485657,0.04742865636944771,0.0,0.0,0.0,0.014479786157608032,-0.009846694767475128,-0.0,0.0,0.0,0.0,0.0023661840241402388,-0.0041746217757463455,0.00029857264598831534,14129.0,14325.0,14930.0,14121.0,0.4477097988128662,0.4609406590461731,0.5030727386474609,0.447187602519989,0.0,0.0,0.0,0.0,14035.0,14574.0,13797.0,13819.0,1.7972228527069092,-0.004885439459619317,0.02157190587678262,-0.018641318677526695,0.042637504637241364,0.04823308810591698,0.0
340,5,-0.0006576396990567446,3.3580628951312974e-05,0.0010412669507786632,-0.004545894917100668,-0.0049567753449082375,-0.004452896770089865,0.0021891333162784576,-0.005019382108002901,-0.0069582280702888966,-0.07838573306798935,0.025709226727485657,0.04742865636944771,0.0,0.0,0.0,0.014479786157608032,-0.009846694767475128,-0.0,0.0,0.0,0.0,0.0023661840241402388,-0.0041746217757463455,0.00029857264598831534,14129.0,14325.0,14930.0,14121.0,0.4477097988128662,0.4609406590461731,0.5030727386474609,0.447187602519989,0.0,0.0,0.0,0.0,14035.0,14574.0,13797.0,13819.0,1.7972228527069092,-0.007140803233109008,0.021614905124457625,-0.01798626501866296,0.042637504637241364,0.04823308810591698,0.0
345,5,-0.0007041844655759633,2.796727858367376e-05,0.001114554237574339,-0.007403729483485222,-0.0013091079890727997,-0.010575639083981514,0.0012499227887019515,-0.005482850130647421,-0.006603028159588575,-0.08788450807332993,0.07191140949726105,0.04132958874106407,0.0,0.0,0.0,0.0015945517225190997,-0.007672286592423916,-0.0,0.0,0.0,0.0,0.002513669431209564,-0.0031516756862401962,-0.0002994495735038072,13762.0,13670.0,13904.0,13994.0,0.4233965575695038,0.4174073040485382,0.43276187777519226,0.4387306272983551,0.0,0.0,0.0,0.0,13963.0,14469.0,14784.0,14292.0,1.7119723558425903,-0.008227668262905934,0.021587317207793583,-0.018744491342565384,0.0316496305167675,0.005059918854385614,0.0
350,5,-0.000684969883877784,-3.0547769711120054e-05,0.001056537264958024,-0.0006557389278896153,0.006498162634670734,0.002731781452894211,0.0012499227887019515,-0.005482850130647421,-0.006603028159588575,-0.08788450807332993,0.07191140949726105,0.04132958874106407,0.0,0.0,0.0,0.0015945517225190997,-0.007672286592423916,-0.0,0.0,0.0,0.0,0.002513669431209564,-0.0031516756862401962,-0.0002994495735038072,13762.0,13670.0,13904.0,13994.0,0.4233965575695038,0.4174073040485382,0.43276187777519226,0.4387306272983551,0.0,0.0,0.0,0.0,13963.0,14469.0,14784.0,14292.0,1.7119723558425903,-0.012453851800660191,0.020219789359614635,-0.019651157409314356,0.0316496305167675,0.005059918854385614,0.0
355,5,-0.0008090930641628802,7.272918446687981e-05,0.0012707618298009038,-0.015157078392803669,-0.009793969802558422,-0.024614229798316956,0.0006557799060828984,-0.00614320021122694,-0.006221614312380552,-0.07641725242137909,0.09452508389949799,0.03751197084784508,0.0,0.0,0.0,0.0015945517225190997,-0.007672286592423916,-0.0,0.0,0.0,0.0,0.0017745933728292584,0.0013103339588269591,0.00035389818367548287,13968.0,13670.0,14536.0,14418.0,0.43699488043785095,0.41745081543922424,0.47542235255241394,0.46735480427742004,0.0,0.0,0.0,0.0,13962.0,13459.0,14059.0,13845.0,1.7119723558425903,-0.0076511270861063865,0.022975743143765864,-0.01872804488259714,0.0316496305167675,0.005059918854385614,0.0
361,5,-0.0007704366580583155,8.037255611270666e-05,0.0011195086408406496,-0.0014240657910704613,-0.004834792576730251,0.008304685354232788,0.0006557799060828984,-0.00614320021122694,-0.006221614312380552,-0.07641725242137909,0.09452508389949799,0.03751197084784508,0.0,0.0,0.0,0.011028490960597992,-0.014009675942361355,-0.0,0.0,0.0,0.0,0.0017745933728292584,0.0013103339588269591,0.00035389818367548287,13968.0,13670.0,14536.0,14418.0,0.43699488043785095,0.41745081543922424,0.47542235255241394,0.46735480427742004,0.0,0.0,0.0,0.0,13962.0,13459.0,14059.0,13845.0,1.8161557912826538,-0.006935823094654335,0.023718906222969263,-0.018119840693896157,0.06130451709032059,0.037124596536159515,0.0
366,5,-0.0008024238632060587,0.00010582686081761494,0.0011291434057056904,-0.004408092238008976,-0.004988433793187141,0.0021657044999301434,0.0006557799060828984,-0.00614320021122694,-0.006221614312380552,-0.07641725242137909,0.09452508389949799,0.03751197084784508,0.0,0.0,0.0,0.011028490960597992,-0.014009675942361355,-0.0,0.0,0.0,0.0,0.0047118933871388435,8.065379370236769e-05,-2.2908403479959816e-05,13830.0,13712.0,13856.0,13929.0,0.4278621971607208,0.4201347529888153,0.42955949902534485,0.43441590666770935,0.0,0.0,0.0,0.0,13822.0,13834.0,14382.0,14557.0,1.8161557912826538,-0.007279673692834201,0.024105999032860828,-0.017991455283161,0.06130451709032059,0.037124596536159515,0.0
371,5,-0.0008267409284599125,0.0001274427049793303,0.0011421098606660962,-0.004681284539401531,-0.004589274991303682,-0.0006896862178109586,0.0006557799060828984,-0.00614320021122694,-0.006221614312380552,-0.07641725242137909,0.09452508389949799,0.03751197084784508,0.0,0.0,0.0,0.006111717317253351,-0.0051098596304655075,-0.0,0.0,0.0,0.0,0.0047118933871388435,8.065379370236769e-05,-2.2908403479959816e-05,13830.0,13712.0,13856.0,13929.0,0.4278621971607208,0.4201347529888153,0.42955949902534485,0.43441590666770935,0.0,0.0,0.0,0.0,13822.0,13834.0,14382.0,14557.0,1.7024749517440796,-0.007764860985612723,0.023852800017737322,-0.017754304793752326,0.02096194587647915,0.019286243245005608,-0.0
376,5,-0.0008623032481409609,0.0001272139634238556,0.0011482731206342578,-0.006139993201941252,-0.001808259985409677,-0.0010154710616916418,4.1448944102739915e-05,-0.0071901436895132065,-0.0056746057234704494,0.032995618879795074,-0.014765460044145584,0.011356038972735405,0.0,0.0,0.0,0.006111717317253351,-0.0051098596304655075,-0.0,0.0,0.0,0.0,7.214495417429134e-05,-9.329270687885582e-05,-0.00019873835844919086,13739.0,14331.0,14421.0,14388.0,0.4219457805156708,0.4614105522632599,0.467536598443985,0.46526286005973816,0.0,0.0,0.0,0.0,13933.0,13631.0,13944.0,13816.0,1.7024749517440796,-0.007744635385728228,0.023023932309671327,-0.01742112771150723,0.02096194587647915,0.019286243245005608,-0.0
381,5,-0.000928484252654016,8.025427086977288e-05,0.0011666740756481886,-0.010397713631391525,0.004911859054118395,-0.0026143055874854326,4.1448944102739915e-05,-0.0071901436895132065,-0.0056746057234704494,0.032995618879795074,-0.014765460044145584,0.011356038972735405,0.0,0.0,0.0,0.0023688566870987415,-0.0067709083668887615,-0.0,0.0,0.0,0.0,7.214495417429134e-05,-9.329270687885582e-05,-0.00019873835844919086,13739.0,14331.0,14421.0,14388.0,0.4219457805156708,0.4614105522632599,0.467536598443985,0.46526286005973816,0.0,0.0,0.0,0.0,13933.0,13631.0,13944.0,13816.0,1.7032464742660522,-0.010900919740741088,0.021977117662720883,-0.017899516756615014,0.027788929641246796,0.0074786655604839325,0.0
386,5,-0.0009229431161656976,1.8296310372534208e-05,0.001159676699899137,-0.0034941481426358223,0.009399698115885258,-0.00020603933080565184,0.000788058910984546,-0.006752494722604752,-0.0054175760596990585,0.09665779769420624,-0.06770733743906021,0.02513740211725235,0.0,0.0,0.0,0.0023688566870987415,-0.0067709083668887615,-0.0,0.0,0.0,0.0,0.001961320638656616,-0.00301849702373147,0.00016554871399421245,13896.0,14315.0,14584.0,14086.0,0.43222954869270325,0.46031829714775085,0.47877374291419983,0.4448342025279999,0.0,0.0,0.0,0.0,13834.0,14249.0,14473.0,14328.0,1.7032464742660522,-0.014429968149818593,0.017284741103593782,-0.01906238189904834,0.027788929641246796,0.0074786655604839325,0.0
391,5,-0.0010451908456161618,0.00012802047422155738,0.0012644145172089338,-0.0160673875361681,-0.009407020173966885,-0.012650949880480766,0.000788058910984546,-0.006752494722604752,-0.0054175760596990585,0.09665779769420624,-0.06770733743906021,0.02513740211725235,0.0,0.0,0.0,-0.01094916183501482,-0.00436197267845273,-0.0,0.0,0.0,0.0,0.001961320638656616,-0.00301849702373147,0.00016554871399421245,13896.0,14315.0,14584.0,14086.0,0.43222954869270325,0.46031829714775085,0.47877374291419983,0.4448342025279999,0.0,0.0,0.0,0.0,13834.0,14249.0,14473.0,14328.0,1.7320228815078735,-0.007031474309268242,0.02094042373807857,-0.01772928705433521,0.01820375956594944,-0.035150159150362015,0.0
396,5,-0.0009845751337707043,0.00011731441918527707,0.001091465586796403,0.0008469223394058645,-0.0024780817329883575,0.01569349132478237,0.0018358142115175724,-0.0062413522973656654,-0.005350533407181501,0.12909826636314392,-0.08896160870790482,0.004715979099273682,0.0,0.0,0.0,-0.01094916183501482,-0.00436197267845273,-0.0,0.0,0.0,0.0,-0.0003666465636342764,-0.001068423385731876,-0.0004832642443943769,13547.0,14088.0,13687.0,13855.0,0.4094843566417694,0.44498762488365173,0.4185169041156769,0.42948606610298157,0.0,0.0,0.0,0.0,13772.0,13777.0,13888.0,13745.0,1.7320228815078735,-0.004896527767067414,0.020923971663073904,-0.017170706988245885,0.01820375956594944,-0.035150159150362015,0.0
401,5,-0.0010205837897956371,0.00012773586786352098,0.001121525652706623,-0.003982268739491701,-0.0022418058943003416,0.0026701854076236486,0.0018358142115175724,-0.0062413522973656654,-0.005350533407181501,0.12909826636314392,-0.08896160870790482,0.004715979099273682,0.0,0.0,0.0,0.0032423564698547125,-0.0005690723774023354,-0.0,0.0,0.0,0.0,-0.0003666465636342764,-0.001068423385731876,-0.0004832642443943769,13547.0,14088.0,13687.0,13855.0,0.4094843566417694,0.44498762488365173,0.4185169041156769,0.42948606610298157,0.0,0.0,0.0,0.0,13772.0,13777.0,13888.0,13745.0,1.6533567905426025,-0.0031654698762968846,0.0205392147382769,-0.017209081451180393,0.002267167903482914,0.00993652455508709,-0.0
406,5,-0.001051449915394187,0.00011888542212545872,0.0011116520036011934,-0.005296839401125908,0.00016533028974663466,0.002252923557534814,0.003969802055507898,-0.00506975781172514,-0.005208170041441917,0.20061196386814117,-0.09522086381912231,0.005964295007288456,0.0,0.0,0.0,0.0032423564698547125,-0.0005690723774023354,-0.0,0.0,0.0,0.0,-0.002607188653200865,-0.0020485850982367992,-0.00010970455332426354,13766.0,14182.0,13680.0,13558.0,0.42367318272590637,0.4513043463230133,0.41806450486183167,0.4102044403553009,0.0,0.0,0.0,0.0,13711.0,14121.0,13742.0,13615.0,1.6533567905426025,-0.0008931403542947919,0.020239295182239846,-0.01737953754906077,0.002267167903482914,0.00993652455508709,-0.0
411,5,-0.0010823158081620932,0.0001033935695886612,0.0011525795562192798,-0.005822641309350729,0.0019251542398706079,-0.004010148346424103,0.003969802055507898,-0.00506975781172514,-0.005208170041441917,0.20061196386814117,-0.09522086381912231,0.005964295007288456,0.0,0.0,0.0,-0.0021075268741697073,-0.006780178286135197,-0.0,0.0,0.0,0.0,-0.002607188653200865,-0.0020485850982367992,-0.00010970455332426354,13766.0,14182.0,13680.0,13558.0,0.42367318272590637,0.4513043463230133,0.41806450486183167,0.4102044403553009,0.0,0.0,0.0,0.0,13711.0,14121.0,13742.0,13615.0,1.7027815580368042,-0.0018161237072420924,0.018930438380945314,-0.01739225896957976,0.027819393202662468,-0.006651813164353371,0.0
416,5,-0.0011019811499863863,3.295005444670096e-05,0.0010933892335742712,-0.0046888962388038635,0.00922328419983387,0.005498782731592655,0.003969802055507898,-0.00506975781172514,-0.005208170041441917,0.20061196386814117,-0.09522086381912231,0.005964295007288456,0.0,0.0,0.0,-0.0021075268741697073,-0.006780178286135197,-0.0,0.0,0.0,0.0,-0.002607188653200865,-0.0020485850982367992,-0.00010970455332426354,13766.0,14182.0,13680.0,13558.0,0.42367318272590637,0.4513043463230133,0.41806450486183167,0.4102044403553009,0.0,0.0,0.0,0.0,13711.0,14121.0,13742.0,13615.0,1.7027815580368042,-0.006144868951819867,0.016625002768404663,-0.018317596185109714,0.027819393202662468,-0.006651813164353371,0.0
422,5,-0.0011867104331031442,0.00014146461035124958,0.0012846286408603191,-0.012043073773384094,-0.009332433342933655,-0.02074921876192093,0.005545282270759344,-0.004280854947865009,-0.005248009692877531,0.20035092532634735,-0.08364519476890564,0.0032543123234063387,0.0,0.0,0.0,-0.0021075268741697073,-0.006780178286135197,-0.0,0.0,0.0,0.0,-0.007285702042281628,-0.0018644110532477498,-0.0005927259917370975,14104.0,14654.0,13349.0,13484.0,0.4460162818431854,0.4836796224117279,0.3968874514102936,0.4054395258426666,0.0,0.0,0.0,0.0,13557.0,14104.0,13237.0,13513.0,1.7027815580368042,0.00022445404572134074,0.01908965867832286,-0.017691643620300613,0.027819393202662468,-0.006651813164353371,0.0
427,5,-0.0011457662330940366,0.00016346054326277226,0.0011614899849519134,9.607519314158708e-05,-0.006372483912855387,0.006476962007582188,0.005545282270759344,-0.004280854947865009,-0.005248009692877531,0.20035092532634735,-0.08364519476890564,0.0032543123234063387,0.0,0.0,0.0,0.010762643069028854,-0.011970795691013336,-0.0,0.0,0.0,0.0,-0.007285702042281628,-0.0018644110532477498,-0.0005927259917370975,14104.0,14654.0,13349.0,13484.0,0.4460162818431854,0.4836796224117279,0.3968874514102936,0.4054395258426666,0.0,0.0,0.0,0.0,13557.0,14104.0,13237.0,13513.0,1.7933108806610107,0.0009485420593751671,0.0188969916086627,-0.017207383388296173,0.05172434076666832,0.035774026066064835,0.0
432,5,-0.0011611480731517076,0.00019021742627955973,0.0011629025684669614,-0.0018073859391734004,-0.0057598198764026165,0.00242127594538033,0.007357106078416109,-0.0031666469294577837,-0.0052289171144366264,0.07796814292669296,-0.07175280898809433,0.002012890297919512,0.0,0.0,0.0,0.010762643069028854,-0.011970795691013336,-0.0,0.0,0.0,0.0,-0.00246358010917902,-0.001076140790246427,-0.0005785211105830967,13510.0,13996.0,13311.0,13600.0,0.4071277976036072,0.43882226943969727,0.3944752812385559,0.4129314422607422,0.0,0.0,0.0,0.0,13407.0,14038.0,13284.0,13684.0,1.7933108806610107,-0.000560246925670299,0.018550183726632998,-0.017062789831456402,0.05172434076666832,0.035774026066064835,0.0
437,5,-0.0011979206465184689,0.00021098075376357883,0.0012678955681622028,-0.005135673563927412,-0.004795527085661888,-0.01163065992295742,0.007357106078416109,-0.0031666469294577837,-0.0052289171144366264,0.07796814292669296,-0.07175280898809433,0.002012890297919512,0.0,0.0,0.0,0.007201924454420805,-0.0032302250619977713,-0.0,0.0,0.0,0.0,-0.00246358010917902,-0.001076140790246427,-0.0005785211105830967,13510.0,13996.0,13311.0,13600.0,0.4071277976036072,0.43882226943969727,0.3944752812385559,0.4129314422607422,0.0,0.0,0.0,0.0,13407.0,14038.0,13284.0,13684.0,1.6964154243469238,-0.003382371736138413,0.017090073006026815,-0.017345818504965933,0.013203980401158333,0.022645531222224236,-0.0
442,5,-0.0012230041902512312,0.00016473689174745232,0.0013278083642944694,-0.00506428861990571,0.0036310527939349413,-0.011841792613267899,0.007167970295995474,-0.002445204183459282,-0.005199093371629715,-0.09440020471811295,-0.06317941844463348,0.008841185830533504,0.0,0.0,0.0,0.007201924454420805,-0.0032302250619977713,-0.0,0.0,0.0,0.0,-0.00188946514390409,-0.002885684836655855,-0.0005479130777530372,13555.0,14246.0,13718.0,13658.0,0.41001224517822266,0.4555737376213074,0.42056697607040405,0.4166285991668701,0.0,0.0,0.0,0.0,13461.0,14282.0,13670.0,13760.0,1.6964154243469238,-0.01104553113050262,0.012742248415519427,-0.018540388283673423,0.013203980401158333,0.022645531222224236,-0.0
447,5,-0.0011889730812981725,0.0003050779923796654,0.0011818273924291134,0.002058018697425723,-0.015388512052595615,0.012780998833477497,0.007167970295995474,-0.002445204183459282,-0.005199093371629715,-0.09440020471811295,-0.06317941844463348,0.008841185830533504,0.0,0.0,0.0,-0.004026140086352825,-0.006277518346905708,-0.0,0.0,0.0,0.0,-0.00188946514390409,-0.002885684836655855,-0.0005479130777530372,13555.0,14246.0,13718.0,13658.0,0.41001224517822266,0.4555737376213074,0.42056697607040405,0.4166285991668701,0.0,0.0,0.0,0.0,13461.0,14282.0,13670.0,13760.0,1.7031136751174927,-0.0046728305775975134,0.017325841468713375,-0.01637884668436084,0.025761855766177177,-0.01270980667322874,0.0
452,5,-0.0011984423035755754,0.0003602796932682395,0.0011724436189979315,-0.00031310395570471883,-0.01277960930019617,0.006238446105271578,0.005352468695491552,-0.0017792948056012392,-0.005251377820968628,-0.19926339387893677,-0.04326755926012993,-0.0069768400862813,0.0,0.0,0.0,-0.004026140086352825,-0.006277518346905708,-0.0,0.0,0.0,0.0,0.003837520256638527,-0.004105154890567064,-0.0009807528695091605,13244.0,14487.0,14332.0,14450.0,0.3902817666530609,0.47205570340156555,0.4614243805408478,0.4695490300655365,0.0,0.0,0.0,0.0,13371.0,14368.0,14360.0,14424.0,1.7031136751174927,-0.005335599719125142,0.017820452620836046,-0.01643185549620742,0.025761855766177177,-0.01270980667322874,0.0
457,5,-0.001197960926219821,0.000389554857974872,0.001170119154267013,-6.747850420651957e-05,-0.008624862879514694,0.002774312160909176,0.005352468695491552,-0.0017792948056012392,-0.005251377820968628,-0.19926339387893677,-0.04326755926012993,-0.0069768400862813,0.0,0.0,0.0,0.015291210263967514,-0.0018417569808661938,-0.0,0.0,0.0,0.0,0.003837520256638527,-0.004105154890567064,-0.0009807528695091605,13244.0,14487.0,14332.0,14450.0,0.3902817666530609,0.47205570340156555,0.4614243805408478,0.4695490300655365,0.0,0.0,0.0,0.0,13371.0,14368.0,14360.0,14424.0,1.7609260082244873,-0.006093853876434948,0.01727128652712579,-0.016435815456901617,0.007814016193151474,0.04990692064166069,-0.0
462,5,-0.001204914879053831,0.00042376897181384265,0.0011526664020493627,-0.000861459004227072,-0.0075556375086307526,0.003204063745215535,0.0038195662200450897,-0.00177120475564152,-0.005241453647613525,-0.19598039984703064,0.030988898128271103,0.002767968224361539,0.0,0.0,0.0,0.015291210263967514,-0.0018417569808661938,-0.0,0.0,0.0,0.0,0.003461013548076153,8.742138743400574e-05,-0.0005429299199022353,13323.0,13745.0,13784.0,14222.0,0.3952343761920929,0.4223366677761078,0.424828439950943,0.45401594042778015,0.0,0.0,0.0,0.0,13371.0,14368.0,14360.0,14424.0,1.7609260082244873,-0.007706240309644375,0.01769905955037663,-0.016779290219856826,0.007814016193151474,0.04990692064166069,-0.0
