timestamp,dt,pos_x,pos_y,pos_z,vel_x,vel_y,vel_z,roll,pitch,yaw,agv_x,agv_y,agv_z,x_ref,y_ref,z_ref,roll_ref,pitch_ref,yaw_ref,x_vel_ref,y_vel_ref,z_vel_ref,x_torque,y_torque,z_torque,w0,w1,w2,w3,u0,u1,u2,u3,m0req,m1req,m2req,m3req,thrust0,thrust1,thrust2,thrust3,thrust_ref,roll_vicon,pitch_vicon,yaw_vicon,acc_x,acc_y,acc_z
5,5,0.0,0.0,0.0,0.0011816334445029497,0.0014509973116219044,0.001722832559607923,-0.005627025850117207,-0.012118663638830185,-0.035143449902534485,0.004156582988798618,0.00575227290391922,0.0005919623072259128,0.0,0.0,0.0,-0.0013771798694506288,0.0008627077331766486,-0.0,0.0,0.0,0.0,0.0010794042609632015,0.003769387025386095,-0.003558211959898472,1495.0,1495.0,1495.0,1495.0,0.0,0.0,0.0,0.0,0.0,0.0,0.0,0.0,1495.0,1495.0,1495.0,1495.0,2.1315665245056152,0.04083552359476719,-0.1365908675027731,0.006776635954691382,-0.004431125242263079,-0.005441240034997463,0.0
32,27,0.0,0.0,0.0,-0.001187673187814653,-0.0014676208375021815,-0.0010528014972805977,-0.005627025850117207,-0.012118663638830185,-0.035143449902534485,0.004156582988798618,0.00575227290391922,0.0005919623072259128,0.0,0.0,0.0,-0.0013771798694506288,0.0008627077331766486,-0.0,0.0,0.0,0.0,0.0010794042609632015,0.003769387025386095,-0.003558211959898472,1495.0,1495.0,1495.0,1495.0,0.0,0.0,0.0,0.0,0.0,0.0,0.0,0.0,1495.0,1495.0,1495.0,1495.0,2.1315665245056152,0.04053851285754529,-0.13681677018998617,0.007102313031152298,-0.004431125242263079,-0.005441240034997463,0.0
37,5,0.0,0.0,0.0,0.000689117528963834,0.0009609893895685673,0.0029948558658361435,-0.0056250570341944695,-0.012101897038519382,-0.03512024134397507,-0.006020724773406982,0.005209038965404034,-0.0027053747326135635,0.0,0.0,0.0,0.0013929576380178332,-0.0008671173709444702,-0.0,0.0,0.0,0.0,0.0011867134599015117,0.0036326206754893064,-0.00351973925717175,1495.0,1495.0,1495.0,1495.0,0.0,0.0,0.0,0.0,0.0,0.0,0.0,0.0,1495.0,1495.0,1495.0,1495.0,2.1315667629241943,0.04053851591292683,-0.13645908356009345,0.006903218690138217,0.00445377454161644,0.00550357811152935,0.0
42,5,0.0,0.0,0.0,-0.0007453105063177645,0.00014590731007046998,-0.0026830118149518967,-0.0056250570341944695,-0.012101897038519382,-0.03512024134397507,-0.006020724773406982,0.005209038965404034,-0.0027053747326135635,0.0,0.0,0.0,0.0013929576380178332,-0.0008671173709444702,-0.0,0.0,0.0,0.0,0.0011867134599015117,0.0036326206754893064,-0.00351973925717175,1495.0,1495.0,1495.0,1495.0,0.0,0.0,0.0,0.0,0.0,0.0,0.0,0.0,1495.0,1495.0,1495.0,1495.0,2.1315667629241943,0.04047944815689,-0.13691775022067873,0.0070949804426837975,0.00445377454161644,0.00550357811152935,0.0
57,15,0.0,0.0,0.0,0.0008755137678235769,0.0009794352808967233,-0.0012220607604831457,-0.005653494503349066,-0.012133182026445866,-0.03515549749135971,0.004168265499174595,0.0018155431607738137,-0.0010128121357411146,0.0,0.0,0.0,-0.00013851260882802308,-0.0005442596739158034,-0.0,0.0,0.0,0.0,0.0008255830616690218,0.003965397365391254,-0.0036055014934390783,1495.0,1495.0,1495.0,1495.0,0.0,0.0,0.0,0.0,0.0,0.0,0.0,0.0,14335.0,16193.0,13907.0,16739.0,2.1311326026916504,0.040235969104081594,-0.13661847999057117,0.007044420158354771,0.002794914413243532,-0.00054715242004022,0.0
62,5,-3.167211389154545e-06,2.07379594030499e-06,-2.0885303456452675e-05,-0.0002996492839884013,0.0001862542558228597,0.0019964720122516155,-0.005653494503349066,-0.012133182026445866,-0.03515549749135971,0.004168265499174595,0.0018155431607738137,-0.0010128121357411146,0.0,0.0,0.0,-0.00013851260882802308,-0.0005442596739158034,-0.0,0.0,0.0,0.0,0.0008255830616690218,0.003965397365391254,-0.0036055014934390783,1495.0,1495.0,1495.0,1495.0,0.0,0.0,0.0,0.0,0.0,0.0,0.0,0.0,14335.0,16193.0,13907.0,16739.0,2.1311326026916504,0.04076466284254787,-0.1362715649600297,0.006737124243550124,0.002794914413243532,-0.00054715242004022,0.0
67,5,-4.02779323849245e-06,1.8670823919819668e-05,-1.4824032405158505e-05,-0.00022312955115921795,-0.0019171416060999036,7.123624527594075e-05,-0.00563855329528451,-0.012136146426200867,-0.035138677805662155,0.003011042485013604,-0.001191508723422885,0.0019657474476844072,0.0,0.0,0.0,0.0018454232485964894,-0.00016720456187613308,-0.0,0.0,0.0,0.0,0.0007914611487649381,0.003896460635587573,-0.0034859206061810255,14330.0,16201.0,13907.0,16735.0,0.4613247513771057,0.597573459148407,0.4329679608345032,0.6397003531455994,0.0,0.0,0.0,0.0,14335.0,16193.0,13907.0,16739.0,2.131791353225708,0.040918818465296554,-0.1367924000297017,0.006784104286329192,0.0008589027565903962,0.0072920359671115875,0.0
72,5,-6.9190650719974656e-06,1.3561372725234833e-05,-1.0221462616755161e-05,-0.0004362044273875654,-0.00015372253255918622,-0.0005238138837739825,-0.00563855329528451,-0.012136146426200867,-0.035138677805662155,0.003011042485013604,-0.001191508723422885,0.0019657474476844072,0.0,0.0,0.0,0.0018454232485964894,-0.00016720456187613308,-0.0,0.0,0.0,0.0,0.0007914611487649381,0.003896460635587573,-0.0034859206061810255,14330.0,16201.0,13907.0,16735.0,0.4613247513771057,0.597573459148407,0.4329679608345032,0.6397003531455994,0.0,0.0,0.0,0.0,14335.0,16193.0,13907.0,16739.0,2.131791353225708,0.040369397869386335,-0.13691482784012046,0.00698271228647781,0.0008589027565903962,0.0072920359671115875,0.0
77,5,-4.315701517043635e-06,1.092643833544571e-05,-2.4210747142205946e-05,0.00013792187382932752,0.0002547030453570187,0.001469188486225903,-0.005608589854091406,-0.012123356573283672,-0.03515395149588585,0.0017094960203394294,-0.00038323213811963797,-0.0045586093328893185,0.0,0.0,0.0,-0.000226518590352498,9.607346873963252e-05,-0.0,0.0,0.0,0.0,0.0007941076182760298,0.003911321982741356,-0.0035615316592156887,14281.0,16243.0,13854.0,16780.0,0.4580055773258209,0.6008309125900269,0.4294644892215729,0.6432656049728394,0.0,0.0,0.0,0.0,14277.0,16243.0,13857.0,16782.0,2.1314752101898193,0.040712019057447896,-0.13630015971342654,0.006967048552859256,-0.0004934414755553007,-0.0008949374314397573,0.0
82,5,-1.4911267953721108e-06,2.0585906895576045e-05,-9.486421731708106e-06,0.0003941176983062178,-0.001057254965417087,-0.0011792435543611646,-0.005608589854091406,-0.012123356573283672,-0.03515395149588585,0.0017094960203394294,-0.00038323213811963797,-0.0045586093328893185,0.0,0.0,0.0,-0.000226518590352498,9.607346873963252e-05,-0.0,0.0,0.0,0.0,0.0007941076182760298,0.003911321982741356,-0.0035615316592156887,14281.0,16243.0,13854.0,16780.0,0.4580055773258209,0.6008309125900269,0.4294644892215729,0.6432656049728394,0.0,0.0,0.0,0.0,14277.0,16243.0,13857.0,16782.0,2.1314752101898193,0.04037515742369205,-0.1368766566457342,0.0070178878063883185,-0.0004934414755553007,-0.0008949374314397573,0.0
87,5,5.292023615766084e-06,1.5655768947908655e-05,-1.942753624462057e-05,0.000971625151578337,0.00016871464322321117,0.0007212363416329026,-0.005608589854091406,-0.012123356573283672,-0.03515395149588585,0.0017094960203394294,-0.00038323213811963797,-0.0045586093328893185,0.0,0.0,0.0,-0.000226518590352498,9.607346873963252e-05,-0.0,0.0,0.0,0.0,0.0007941076182760298,0.003911321982741356,-0.0035615316592156887,14281.0,16243.0,13854.0,16780.0,0.4580055773258209,0.6008309125900269,0.4294644892215729,0.6432656049728394,0.0,0.0,0.0,0.0,14277.0,16243.0,13857.0,16782.0,2.1314752101898193,0.040371048994537466,-0.13638041518305183,0.006712671229399506,-0.0004934414755553007,-0.0008949374314397573,0.0
92,5,5.323546247382183e-06,1.0108063179359306e-05,-1.78195332409814e-05,0.00039243276114575565,0.0007332104141823947,9.553412382956594e-05,-0.00562587333843112,-0.012122271582484245,-0.03517298400402069,-0.006773153319954872,0.004965890198945999,-0.0013552771415561438,0.0,0.0,0.0,-0.00013828519149683416,0.0007149804150685668,-0.0,0.0,0.0,0.0,0.0014614665415138006,0.003673141123726964,-0.003598554525524378,14214.0,16226.0,13932.0,16789.0,0.4534282982349396,0.5994749069213867,0.4346250593662262,0.6440385580062866,0.0,0.0,0.0,0.0,14230.0,16216.0,13950.0,16770.0,2.1317596435546875,0.04065252853809348,-0.13683608282744222,0.007231724649468716,-0.003672689665108919,-0.0005464148125611246,0.0
98,5,-4.09736003348371e-06,8.901834917196538e-06,-1.8817623640643433e-05,-0.0009735356434248388,0.00043803162407130003,0.000157984541147016,-0.00562587333843112,-0.012122271582484245,-0.03517298400402069,-0.006773153319954872,0.004965890198945999,-0.0013552771415561438,0.0,0.0,0.0,-0.00013828519149683416,0.0007149804150685668,-0.0,0.0,0.0,0.0,0.0014614665415138006,0.003673141123726964,-0.003598554525524378,14214.0,16226.0,13932.0,16789.0,0.4534282982349396,0.5994749069213867,0.4346250593662262,0.6440385580062866,0.0,0.0,0.0,0.0,14230.0,16216.0,13950.0,16770.0,2.1317596435546875,0.03979579609421557,-0.13677235584802439,0.00730723822830144,-0.003672689665108919,-0.0005464148125611246,0.0
103,5,-2.167397724406328e-06,-1.217890144289413e-06,-4.074328899150714e-05,-0.0001578187948325649,0.001389579614624381,0.0026942736003547907,-0.005625829566270113,-0.012121320702135563,-0.03518613427877426,0.0007503818487748504,0.005048454739153385,6.843968003522605e-05,0.0,0.0,0.0,-0.00040320391417481005,-0.000714984314981848,-0.0,0.0,0.0,0.0,0.0009800744010135531,0.003556320909410715,-0.0034687004517763853,14278.0,16226.0,13915.0,16748.0,0.4577476680278778,0.5995384454727173,0.433489054441452,0.6406999826431274,0.0,0.0,0.0,0.0,14253.0,16193.0,13941.0,16784.0,2.132113456726074,0.040286651132437505,-0.13678811779467062,0.007313924482776103,0.003673319239169359,-0.0015934689436107874,0.0
108,5,-8.493563655065373e-06,-1.8795739151755697e-06,-3.1085379305295646e-05,-0.0008222674368880689,0.0006352338823489845,-8.123986481223255e-05,-0.005570866633206606,-0.012071124278008938,-0.03519449010491371,-0.0003179707855451852,-0.00770226726308465,-0.0006265301490202546,0.0,0.0,0.0,-0.0006052624084986746,-0.0006092144176363945,-0.0,0.0,0.0,0.0,0.0010750346118584275,0.00357502861879766,-0.0035926662385463715,14246.0,16245.0,13907.0,16768.0,0.4555991291999817,0.6009499430656433,0.43291229009628296,0.6422982811927795,0.0,0.0,0.0,0.0,14224.0,16266.0,13850.0,16809.0,2.1323580741882324,0.04047809427076256,-0.13691319586042192,0.007217510286606512,0.003130272263661027,-0.0023922817781567574,0.0
113,5,-8.493563655065373e-06,-1.8795739151755697e-06,-3.1085379305295646e-05,-0.0008222674368880689,0.0006352338823489845,-8.123986481223255e-05,-0.005570866633206606,-0.012071124278008938,-0.03519449010491371,-0.0003179707855451852,-0.00770226726308465,-0.0006265301490202546,0.0,0.0,0.0,-0.0006052624084986746,-0.0006092144176363945,-0.0,0.0,0.0,0.0,0.0010750346118584275,0.00357502861879766,-0.0035926662385463715,14246.0,16245.0,13907.0,16768.0,0.4555991291999817,0.6009499430656433,0.43291229009628296,0.6422982811927795,0.0,0.0,0.0,0.0,14224.0,16266.0,13850.0,16809.0,2.1323580741882324,0.04047809427076256,-0.13691319586042192,0.007217510286606512,0.003130272263661027,-0.0023922817781567574,0.0
118,5,-1.129135944211157e-05,2.0964247596566565e-05,-1.5037323464639485e-05,-0.0004465191741473973,-0.0018499279394745827,-0.0017960318364202976,-0.005570866633206606,-0.012071124278008938,-0.03519449010491371,-0.0003179707855451852,-0.00770226726308465,-0.0006265301490202546,0.0,0.0,0.0,-0.0006052624084986746,-0.0006092144176363945,-0.0,0.0,0.0,0.0,0.0010750346118584275,0.00357502861879766,-0.0035926662385463715,14246.0,16245.0,13907.0,16768.0,0.4555991291999817,0.6009499430656433,0.43291229009628296,0.6422982811927795,0.0,0.0,0.0,0.0,14224.0,16266.0,13850.0,16809.0,2.1323580741882324,0.04079071382366788,-0.13709187037512313,0.007347169605893152,0.003130272263661027,-0.0023922817781567574,0.0
123,5,-5.147210686118342e-06,3.909126007783925e-06,-1.8106922652805224e-05,0.0005586901679635048,0.0013066432438790798,-0.00035006090183742344,-0.0055678836070001125,-0.012067975476384163,-0.035198770463466644,-0.0018815579824149609,0.004563461989164352,-0.005369668826460838,0.0,0.0,0.0,0.0017842695815488696,-0.0003379614499863237,-0.0,0.0,0.0,0.0,0.001119929482229054,0.003924289718270302,-0.0036905768793076277,14226.0,16258.0,13835.0,16831.0,0.4542626738548279,0.6019662022590637,0.42817360162734985,0.647357165813446,0.0,0.0,0.0,0.0,14273.0,16224.0,13920.0,16754.0,2.1325161457061768,0.04062460222338252,-0.13647470086139862,0.006827898239280891,0.0017366436077281833,0.007052789442241192,0.0
128,5,-1.3651867448061239e-05,1.4441448911384214e-05,-2.382869024586398e-05,-0.000797082728240639,-0.0007412214181385934,0.0005465878057293594,-0.0055678836070001125,-0.012067975476384163,-0.035198770463466644,-0.0018815579824149609,0.004563461989164352,-0.005369668826460838,0.0,0.0,0.0,0.0017842695815488696,-0.0003379614499863237,-0.0,0.0,0.0,0.0,0.001119929482229054,0.003924289718270302,-0.0036905768793076277,14226.0,16258.0,13835.0,16831.0,0.4542626738548279,0.6019662022590637,0.42817360162734985,0.647357165813446,0.0,0.0,0.0,0.0,14273.0,16224.0,13920.0,16754.0,2.1325161457061768,0.040149871546536424,-0.13660048447446188,0.007093740397367516,0.0017366436077281833,0.007052789442241192,0.0
133,5,-6.8866384026478045e-06,1.4875166925776284e-05,-1.1891068425029516e-05,0.0004929943825118244,-0.00034853475517593324,-0.001213879557326436,-0.00558114517480135,-0.012077609077095985,-0.03522076830267906,-0.0009932254906743765,0.002476918278262019,-0.003786626039072871,0.0,0.0,0.0,0.0007233450887724757,-0.0005963068106211722,-0.0,0.0,0.0,0.0,0.0014250121312215924,0.003559708595275879,-0.003731995588168502,14172.0,16275.0,13874.0,16836.0,0.45064273476600647,0.6033425331115723,0.4307697117328644,0.6477612257003784,0.0,0.0,0.0,0.0,14215.0,16284.0,13867.0,16796.0,2.1325931549072266,0.040410536723590226,-0.13683936037105116,0.0070688271175815415,0.003064287593588233,0.002859315136447549,0.0
139,5,-2.2797856047418463e-07,1.157913629867835e-05,-1.4156281395116821e-05,0.0009962369222193956,0.0002561098081059754,-0.00021372623450588435,-0.00558114517480135,-0.012077609077095985,-0.03522076830267906,-0.0009932254906743765,0.002476918278262019,-0.003786626039072871,0.0,0.0,0.0,0.0007233450887724757,-0.0005963068106211722,-0.0,0.0,0.0,0.0,0.0014250121312215924,0.003559708595275879,-0.003731995588168502,14172.0,16275.0,13874.0,16836.0,0.45064273476600647,0.6033425331115723,0.4307697117328644,0.6477612257003784,0.0,0.0,0.0,0.0,14215.0,16284.0,13867.0,16796.0,2.1325931549072266,0.04073929749478206,-0.13692113726061708,0.0072410044972365155,0.003064287593588233,0.002859315136447549,0.0
144,5,-1.8362042055741767e-06,1.2121086911065504e-05,-1.7067754015442915e-05,0.00020550767658278346,3.7409899960039183e-05,0.00026388626429252326,-0.005574363749474287,-0.01205300074070692,-0.03529101237654686,-0.005070639308542013,0.005756714381277561,-0.005655608605593443,0.0,0.0,0.0,-0.00022672113846056163,0.0007265884196385741,-0.0,0.0,0.0,0.0,0.001522581558674574,0.0035720455925911665,-0.003734827972948551,14167.0,16268.0,13872.0,16849.0,0.45029279589653015,0.6027636528015137,0.4306325614452362,0.648827075958252,0.0,0.0,0.0,0.0,14207.0,16240.0,13918.0,16804.0,2.1330015659332275,0.04062792811768848,-0.13654341162103867,0.007061294094436265,-0.003734491765499115,-0.0008963791187852621,0.0
149,5,-1.5397631614177953e-07,1.4544925761583727e-05,-1.6352578313671984e-05,0.00028407041099853814,-0.00027589674573391676,1.973333564819768e-05,-0.005574363749474287,-0.01205300074070692,-0.03529101237654686,-0.005070639308542013,0.005756714381277561,-0.005655608605593443,0.0,0.0,0.0,-0.00022672113846056163,0.0007265884196385741,-0.0,0.0,0.0,0.0,0.001522581558674574,0.0035720455925911665,-0.003734827972948551,14167.0,16268.0,13872.0,16849.0,0.45029279589653015,0.6027636528015137,0.4306325614452362,0.648827075958252,0.0,0.0,0.0,0.0,14207.0,16240.0,13918.0,16804.0,2.1330015659332275,0.040816727165498674,-0.13655968965310553,0.00708691766631065,-0.003734491765499115,-0.0008963791187852621,0.0
154,5,-1.5900705818694405e-07,7.000414370850194e-06,-9.285382475354709e-06,0.00011302447819616646,0.000794982654042542,-0.0008401701343245804,-0.005582580808550119,-0.012070258148014545,-0.035274624824523926,0.0036098461132496595,-0.0017338837496936321,0.0010891382116824389,0.0,0.0,0.0,0.00028184661641716957,0.00020694015256594867,-0.0,0.0,0.0,0.0,0.001256689545698464,0.0034733109641820192,-0.003536778734996915,14247.0,16230.0,13938.0,16765.0,0.4557036757469177,0.5998339056968689,0.43500977754592896,0.642045795917511,0.0,0.0,0.0,0.0,14214.0,16248.0,13895.0,16811.0,2.1343061923980713,0.04078536173433485,-0.13655018342995331,0.006776018867804881,-0.0010642737615853548,0.001115008257329464,0.0
159,5,1.0284123163728509e-05,-1.3542068018068676e-06,-1.4333813851408195e-05,0.001298385439440608,0.0013205476570874453,0.00026974373031407595,-0.005582580808550119,-0.012070258148014545,-0.035274624824523926,0.0036098461132496595,-0.0017338837496936321,0.0010891382116824389,0.0,0.0,0.0,0.00028184661641716957,0.00020694015256594867,-0.0,0.0,0.0,0.0,0.001256689545698464,0.0034733109641820192,-0.003536778734996915,14247.0,16230.0,13938.0,16765.0,0.4557036757469177,0.5998339056968689,0.43500977754592896,0.642045795917511,0.0,0.0,0.0,0.0,14214.0,16248.0,13895.0,16811.0,2.1343061923980713,0.040751462144323645,-0.1362781886524362,0.006684982287768802,-0.0010642737615853548,0.001115008257329464,0.0
164,5,2.847552877938142e-06,6.114618827268714e-06,-9.167252756014932e-06,-0.00037303424323908985,-0.00036804002593271434,-0.0005120898131281137,-0.005527119152247906,-0.012084622867405415,-0.03530488535761833,-0.0021901982836425304,0.009794202633202076,0.02052360586822033,0.0,0.0,0.0,-0.001253718277439475,0.0009578439639881253,-0.0,0.0,0.0,0.0,0.0010670132469385862,0.004006592091172934,-0.003774988930672407,14333.0,16175.0,13928.0,16759.0,0.46148496866226196,0.5955411791801453,0.43433743715286255,0.6416379809379578,0.0,0.0,0.0,0.0,14244.0,16266.0,13849.0,16811.0,2.1340043544769287,0.04093002013733848,-0.13661046175614117,0.006823551560417133,-0.004925400484353304,-0.004959108307957649,0.0
169,5,-9.38773973757634e-06,-5.548698212010095e-08,-2.106821739289444e-05,-0.0016174487536773086,0.0005931966588832438,0.0012232798617333174,-0.005527119152247906,-0.012084622867405415,-0.03530488535761833,-0.0021901982836425304,0.009794202633202076,0.02052360586822033,0.0,0.0,0.0,-0.001253718277439475,0.0009578439639881253,-0.0,0.0,0.0,0.0,0.0010670132469385862,0.004006592091172934,-0.003774988930672407,14333.0,16175.0,13928.0,16759.0,0.46148496866226196,0.5955411791801453,0.43433743715286255,0.6416379809379578,0.0,0.0,0.0,0.0,14244.0,16266.0,13849.0,16811.0,2.1340043544769287,0.04058158266162735,-0.13681624497932202,0.00716719583587416,-0.004925400484353304,-0.004959108307957649,0.0
174,5,-1.760205668688286e-05,1.583125595061574e-05,-1.1432306564529426e-05,-0.0014280170435085893,-0.0016088681295514107,-0.002537925262004137,-0.005527119152247906,-0.012084622867405415,-0.03530488535761833,-0.0021901982836425304,0.009794202633202076,0.02052360586822033,0.0,0.0,0.0,-0.0005622050375677645,-0.0011893011396750808,-0.0,0.0,0.0,0.0,0.0010670132469385862,0.004006592091172934,-0.003774988930672407,14333.0,16175.0,13928.0,16759.0,0.46148496866226196,0.5955411791801453,0.43433743715286255,0.6416379809379578,0.0,0.0,0.0,0.0,14244.0,16266.0,13849.0,16811.0,2.134565591812134,0.04027069599141154,-0.13671431105591433,0.006998849831154209,0.00611720560118556,-0.0022243992425501347,0.0
179,5,-5.875325314264046e-06,1.3519143976736814e-05,-3.517269215080887e-05,0.0008360010106116533,-0.0003660937072709203,0.001833676127716899,-0.005487464368343353,-0.01216646283864975,-0.03539498895406723,-0.005419151857495308,0.0029200692661106586,-0.035237185657024384,0.0,0.0,0.0,-0.0005622050375677645,-0.0011893011396750808,-0.0,0.0,0.0,0.0,0.0011885730782523751,0.003898058785125613,-0.004822657909244299,13808.0,16616.0,13429.0,17179.0,0.42643123865127563,0.6301751732826233,0.40195661783218384,0.6757431626319885,0.0,0.0,0.0,0.0,14526.0,16030.0,14122.0,16584.0,2.134565591812134,0.04057781406883288,-0.13664884507612166,0.006958325161769803,0.00611720560118556,-0.0022243992425501347,0.0
185,5,1.6200270920307958e-06,1.9462642740109004e-05,-2.4615948859718628e-05,0.0012338426895439625,-0.0008596573024988174,-0.0005333385779522359,-0.005535120610147715,-0.012182635255157948,-0.0353468656539917,-0.006640196777880192,0.010214241221547127,-0.02995128557085991,0.0,0.0,0.0,0.0003655987966340035,0.0006027184426784515,-0.0,0.0,0.0,0.0,0.0009598208707757294,0.004047919064760208,-0.003538692370057106,14155.0,16352.0,13713.0,16925.0,0.4494430124759674,0.6093178987503052,0.4202021658420563,0.6550413370132446,0.0,0.0,0.0,0.0,14526.0,16030.0,14122.0,16584.0,2.136237382888794,0.04079393964079767,-0.13656286579915686,0.006992329909843211,-0.003102528629824519,0.0014476473443210125,0.0
190,5,1.5832388271519449e-06,1.0041968380392063e-05,-8.769336091063451e-06,0.0004891224671155214,0.0007866179221309721,-0.002114929025992751,-0.005535120610147715,-0.012182635255157948,-0.0353468656539917,-0.006640196777880192,0.010214241221547127,-0.02995128557085991,0.0,0.0,0.0,0.0003655987966340035,0.0006027184426784515,-0.0,0.0,0.0,0.0,0.0009598208707757294,0.004047919064760208,-0.003538692370057106,14155.0,16352.0,13713.0,16925.0,0.4494430124759674,0.6093178987503052,0.4202021658420563,0.6550413370132446,0.0,0.0,0.0,0.0,14526.0,16030.0,14122.0,16584.0,2.136237382888794,0.04074378225948488,-0.13615782286308237,0.006607370834187776,-0.003102528629824519,0.0014476473443210125,0.0
195,5,7.64049582357984e-06,-1.580559546709992e-05,-1.2677629456447903e-05,0.0009225198300555348,0.0034163547679781914,-0.0003769763570744544,-0.005535120610147715,-0.012182635255157948,-0.0353468656539917,-0.006640196777880192,0.010214241221547127,-0.02995128557085991,0.0,0.0,0.0,-0.0007312044035643339,0.0003581373021006584,-0.0,0.0,0.0,0.0,0.0009598208707757294,0.004047919064760208,-0.003538692370057106,14155.0,16352.0,13713.0,16925.0,0.4494430124759674,0.6093178987503052,0.4202021658420563,0.6550413370132446,0.0,0.0,0.0,0.0,14526.0,16030.0,14122.0,16584.0,2.1353440284729004,0.040892134391364,-0.13571152737579395,0.006536611216792153,-0.001842761761508882,-0.0028941105119884014,0.0
200,5,1.0436971024319064e-05,1.2326313481025863e-05,1.2034412065986544e-05,0.0007045849924907088,-0.002009287243708968,-0.003116235602647066,-0.005547793582081795,-0.012086625210940838,-0.03546280786395073,-0.0006995677249506116,-0.012380917556583881,0.015005563385784626,0.0,0.0,0.0,-0.0007312044035643339,0.0003581373021006584,-0.0,0.0,0.0,0.0,0.0009780750842764974,0.0029374815057963133,-0.003767783986404538,14230.0,16285.0,13952.0,16739.0,0.45451924204826355,0.6041253805160522,0.4358995854854584,0.6400213241577148,0.0,0.0,0.0,0.0,14556.0,15994.0,14247.0,16492.0,2.1353440284729004,0.040465360706328043,-0.13659746464494368,0.007210706537042248,-0.001842761761508882,-0.0028941105119884014,0.0
205,5,2.26076299441047e-05,6.880948603793513e-06,-8.753651854931377e-06,0.0017423131503164768,-0.0001502710802014917,0.0012480734148994088,-0.005547793582081795,-0.012086625210940838,-0.03546280786395073,-0.0006995677249506116,-0.012380917556583881,0.015005563385784626,0.0,0.0,0.0,0.001919017406180501,0.0005241103353910148,-0.0,0.0,0.0,0.0,0.0009780750842764974,0.0029374815057963133,-0.003767783986404538,14230.0,16285.0,13952.0,16739.0,0.45451924204826355,0.6041253805160522,0.4358995854854584,0.6400213241577148,0.0,0.0,0.0,0.0,14556.0,15994.0,14247.0,16492.0,2.1374995708465576,0.04079057628136653,-0.13630973710159888,0.0075074689897049705,-0.0026994782965630293,0.007603141013532877,0.0
210,5,2.721394776017405e-05,6.694860985589912e-06,-1.4564139746653382e-05,0.0012496834388002753,-3.777790698222816e-05,0.0011964879231527448,-0.0054202331230044365,-0.01240289956331253,-0.03547438234090805,0.020416710525751114,0.041852667927742004,-0.028071528300642967,0.0,0.0,0.0,0.001919017406180501,0.0005241103353910148,-0.0,0.0,0.0,0.0,0.0009413834195584059,0.00483661936596036,-0.0043776025995612144,14056.0,16454.0,13509.0,17096.0,0.4428403675556183,0.6173692941665649,0.4070545732975006,0.6689732074737549,0.0,0.0,0.0,0.0,14166.0,16357.0,13665.0,16976.0,2.1374995708465576,0.04056405139971827,-0.13542739489565206,0.006565722111996865,-0.0026994782965630293,0.007603141013532877,0.0
215,5,3.716788341989741e-05,1.4755913070985116e-05,-7.422528142342344e-06,0.001694345730356872,-0.0009824373992159963,-0.0003783981956075877,-0.0054202331230044365,-0.01240289956331253,-0.03547438234090805,0.020416710525751114,0.041852667927742004,-0.028071528300642967,0.0,0.0,0.0,4.5182619942352176e-05,0.0009388201287947595,-0.0,0.0,0.0,0.0,0.0009413834195584059,0.00483661936596036,-0.0043776025995612144,14056.0,16454.0,13509.0,17096.0,0.4428403675556183,0.6173692941665649,0.4070545732975006,0.6689732074737549,0.0,0.0,0.0,0.0,14166.0,16357.0,13665.0,16976.0,2.1377110481262207,0.04080468668595341,-0.13451322497058463,0.007069059985235542,-0.004835966043174267,0.00017903131083585322,0.0
220,5,7.554236799478531e-05,3.796071177930571e-05,-1.0348063597120927e-06,0.005282676313072443,-0.003177550621330738,-0.0009178859181702137,-0.005296273622661829,-0.012726777233183384,-0.03525721654295921,0.03048882447183132,0.06660065054893494,0.03817962482571602,0.0,0.0,0.0,4.5182619942352176e-05,0.0009388201287947595,-0.0,0.0,0.0,0.0,0.0007803559419699013,0.006926674861460924,-0.004597372375428677,14804.0,15821.0,14198.0,16492.0,0.49416661262512207,0.5684534311294556,0.45238029956817627,0.6203436851501465,0.0,0.0,0.0,0.0,14389.0,16190.0,13707.0,16906.0,2.1377110481262207,0.04170997989180657,-0.13345962739205694,0.007430304693063477,-0.004835966043174267,0.00017903131083585322,0.0
225,5,0.00010942462540697306,-3.095263537034043e-06,1.918342968565412e-05,0.006178941577672958,0.0036556965205818415,-0.0027933428063988686,-0.005296273622661829,-0.012726777233183384,-0.03525721654295921,0.03048882447183132,0.06660065054893494,0.03817962482571602,0.0,0.0,0.0,0.0030658431351184845,0.00393388606607914,-0.0,0.0,0.0,0.0,0.0007803559419699013,0.006926674861460924,-0.004597372375428677,14804.0,15821.0,14198.0,16492.0,0.49416661262512207,0.5684534311294556,0.45238029956817627,0.6203436851501465,0.0,0.0,0.0,0.0,14389.0,16190.0,13707.0,16906.0,2.133704662322998,0.04242851604944103,-0.13179744631664392,0.006551371452458583,-0.020225759595632553,0.012125274166464806,0.0
230,5,0.00015947541396599263,-1.3100912838126533e-05,3.8066631532274187e-05,0.008477671071887016,0.002662956714630127,-0.0033833212219178677,-0.004949897062033415,-0.014013521373271942,-0.0353582464158535,0.0464046336710453,0.16007010638713837,0.05496841296553612,0.0,0.0,0.0,0.0030658431351184845,0.00393388606607914,-0.0,0.0,0.0,0.0,0.0006988437962718308,0.010825778357684612,-0.0036086898762732744,14552.0,16047.0,13673.0,16957.0,0.4765361547470093,0.5857208967208862,0.41765475273132324,0.6575877666473389,0.0,0.0,0.0,0.0,15751.0,14819.0,14898.0,15949.0,2.133704662322998,0.04274864294515737,-0.12984989755344242,0.0068599343181989765,-0.020225759595632553,0.012125274166464806,0.0
235,5,0.00022918115428183228,-2.4135204057529336e-06,0.00010065355309052393,0.01175575703382492,-0.00021730449225287884,-0.008863759227097034,-0.004949897062033415,-0.014013521373271942,-0.0353582464158535,0.0464046336710453,0.16007010638713837,0.05496841296553612,0.0,0.0,0.0,-0.0025407508946955204,0.006348480936139822,-0.0,0.0,0.0,0.0,0.0006988437962718308,0.010825778357684612,-0.0036086898762732744,14552.0,16047.0,13673.0,16957.0,0.4765361547470093,0.5857208967208862,0.41765475273132324,0.6575877666473389,0.0,0.0,0.0,0.0,15751.0,14819.0,14898.0,15949.0,2.1356046199798584,0.043278769704324205,-0.1278940793357977,0.006831059078134133,-0.032669179141521454,-0.010057513602077961,0.0
241,5,0.0002811581071000546,-1.7566117094247602e-05,0.00019738500122912228,0.010939537547528744,0.0017313897842541337,-0.015153277665376663,-0.0048209805972874165,-0.015914704650640488,-0.03471696749329567,0.03766423463821411,0.31840455532073975,-0.0858377069234848,0.0,0.0,0.0,-0.0016737938858568668,0.008319140411913395,-0.0,0.0,0.0,0.0,0.0007464886293746531,0.014451691880822182,-0.0010008923709392548,14337.0,16260.0,12841.0,17569.0,0.46177488565444946,0.6021649241447449,0.3654440641403198,0.7083271145820618,0.0,0.0,0.0,0.0,14103.0,16505.0,12315.0,17897.0,2.1237010955810547,0.044454603899805524,-0.12594217104380812,0.00654692116471473,-0.04257141798734665,-0.006588757503777742,0.0
246,5,0.00034935708390548825,-2.339502862014342e-05,0.00023929393501020968,0.01255969237536192,0.0013920252677053213,-0.011090382002294064,-0.0048209805972874165,-0.015914704650640488,-0.03471696749329567,0.03766423463821411,0.31840455532073975,-0.0858377069234848,0.0,0.0,0.0,-0.0016737938858568668,0.008319140411913395,-0.0,0.0,0.0,0.0,0.0007464886293746531,0.014451691880822182,-0.0010008923709392548,14337.0,16260.0,12841.0,17569.0,0.46177488565444946,0.6021649241447449,0.3654440641403198,0.7083271145820618,0.0,0.0,0.0,0.0,14103.0,16505.0,12315.0,17897.0,2.1237010955810547,0.044201946316006005,-0.12484903337858903,0.006548610618179188,-0.04257141798734665,-0.006588757503777742,0.0
251,5,0.00041981771937571466,-1.7113481590058655e-05,0.0003054618719033897,0.013479153625667095,-0.00019697555399034172,-0.012376307509839535,-0.004065950401127338,-0.020188940688967705,-0.034454550594091415,0.0582362599670887,0.3649069666862488,0.08716952055692673,0.0,0.0,0.0,-0.0016737938858568668,0.008319140411913395,-0.0,0.0,0.0,0.0,-0.0009259239886887372,0.015411227941513062,-0.005093415733426809,14720.0,16075.0,12470.0,17663.0,0.48829925060272217,0.5878069996833801,0.3432505130767822,0.7162479162216187,0.0,0.0,0.0,0.0,15294.0,15332.0,13439.0,17106.0,2.1237010955810547,0.04493806517997686,-0.12401606012872962,0.006960194672216952,-0.04257141798734665,-0.006588757503777742,0.0
256,5,0.0004533582541625947,-4.322335371398367e-05,0.00036374235060065985,0.009416524320840836,0.00305439461953938,-0.011944178491830826,-0.004065950401127338,-0.020188940688967705,-0.034454550594091415,0.0582362599670887,0.3649069666862488,0.08716952055692673,0.0,0.0,0.0,0.0001642407150939107,0.010353249497711658,-0.0,0.0,0.0,0.0,-0.0009259239886887372,0.015411227941513062,-0.005093415733426809,14720.0,16075.0,12470.0,17663.0,0.48829925060272217,0.5878069996833801,0.3432505130767822,0.7162479162216187,0.0,0.0,0.0,0.0,15294.0,15332.0,13439.0,17106.0,2.118842840194702,0.04577044097102037,-0.123393144874854,0.006307751252465138,-0.052859075367450714,0.0006450422224588692,0.0
261,5,0.0004700973513536155,-4.453063593246043e-05,0.0004543853865470737,0.0057753026485443115,0.0013786315685138106,-0.01565483771264553,-0.003415047423914075,-0.022908000275492668,-0.0347931906580925,0.09617729485034943,0.29162707924842834,-0.02152508869767189,0.0,0.0,0.0,0.0001642407150939107,0.010353249497711658,-0.0,0.0,0.0,0.0,-0.0017344874795526266,0.01297358050942421,-0.002838902175426483,15000.0,15827.0,13080.0,17068.0,0.508091151714325,0.5689185261726379,0.38004380464553833,0.6666476130485535,0.0,0.0,0.0,0.0,15377.0,15515.0,13288.0,17006.0,2.118842840194702,0.04678286746181516,-0.12360092738288694,0.006127246444820354,-0.052859075367450714,0.0006450422224588692,0.0
266,5,0.0004843377391807735,-4.778473885380663e-05,0.0005324786761775613,0.004018965642899275,0.0009419447742402554,-0.015633128583431244,-0.003415047423914075,-0.022908000275492668,-0.0347931906580925,0.09617729485034943,0.29162707924842834,-0.02152508869767189,0.0,0.0,0.0,-0.0013745843898504972,0.004735320340842009,-0.0,0.0,0.0,0.0,-0.0017344874795526266,0.01297358050942421,-0.002838902175426483,15000.0,15827.0,13080.0,17068.0,0.508091151714325,0.5689185261726379,0.38004380464553833,0.6666476130485535,0.0,0.0,0.0,0.0,15377.0,15515.0,13288.0,17006.0,2.125070810317993,0.04664730555685507,-0.12468290112837573,0.006306396554519586,-0.02424781769514084,-0.0054144347086548805,0.0
271,5,0.0004689620400313288,-2.823489558068104e-05,0.0006373984506353736,-0.00023749769025016576,-0.001969203120097518,-0.018843622878193855,-0.00028400830342434347,-0.024939225986599922,-0.034682247787714005,0.16622349619865417,-0.19139990210533142,0.017249444499611855,0.0,0.0,0.0,-0.0013745843898504972,0.004735320340842009,-0.0,0.0,0.0,0.0,-0.002467591781169176,0.007654713001102209,-0.003556911600753665,14776.0,16036.0,13496.0,16684.0,0.4921875298023224,0.5848426222801208,0.4062115252017975,0.6356011033058167,0.0,0.0,0.0,0.0,14640.0,16207.0,12783.0,17243.0,2.125070810317993,0.04758359588009017,-0.12727781110400227,0.007274304656174015,-0.02424781769514084,-0.0054144347086548805,0.0
276,5,0.00045227567898109555,-1.1940001968469005e-05,0.0006990012479946017,-0.002097361022606492,-0.002743068616837263,-0.014929785393178463,-0.00028400830342434347,-0.024939225986599922,-0.034682247787714005,0.16622349619865417,-0.19139990210533142,0.017249444499611855,0.0,0.0,0.0,0.0018371830228716135,0.0003313807537779212,-0.0,0.0,0.0,0.0,-0.002467591781169176,0.007654713001102209,-0.003556911600753665,14776.0,16036.0,13496.0,16684.0,0.4921875298023224,0.5848426222801208,0.4062115252017975,0.6356011033058167,0.0,0.0,0.0,0.0,14640.0,16207.0,12783.0,17243.0,2.122981071472168,0.0480573734008702,-0.12936958006809834,0.007279793470866219,-0.0016952140722423792,0.007229472976177931,0.0
281,5,0.0004158120427746326,3.628654212661786e-06,0.0007843344938009977,-0.00521458126604557,-0.002965466119349003,-0.01621190644800663,-0.00028400830342434347,-0.024939225986599922,-0.034682247787714005,0.16622349619865417,-0.19139990210533142,0.017249444499611855,0.0,0.0,0.0,0.0018371830228716135,0.0003313807537779212,-0.0,0.0,0.0,0.0,-0.0014576151734218001,0.0014661770546808839,-0.00268195616081357,14362.0,16391.0,14334.0,16071.0,0.46352851390838623,0.612389326095581,0.46160662174224854,0.5875463485717773,0.0,0.0,0.0,0.0,14774.0,16065.0,13725.0,16471.0,2.122981071472168,0.04753529117686896,-0.1330383243288041,0.007986139692360814,-0.0016952140722423792,0.007229472976177931,0.0
287,5,0.00035304948687553406,3.330099571030587e-05,0.0008887778967618942,-0.009617339819669724,-0.004746867343783379,-0.019017968326807022,-0.00028400830342434347,-0.024939225986599922,-0.034682247787714005,0.16622349619865417,-0.19139990210533142,0.017249444499611855,0.0,0.0,0.0,0.002831106772646308,-0.0033739202190190554,-0.0,0.0,0.0,0.0,-0.0014576151734218001,0.0014661770546808839,-0.00268195616081357,14362.0,16391.0,14334.0,16071.0,0.46352851390838623,0.612389326095581,0.46160662174224854,0.5875463485717773,0.0,0.0,0.0,0.0,14774.0,16065.0,13725.0,16471.0,2.122997999191284,0.04706458798925536,-0.13736634969013367,0.008652455060515608,0.017259718850255013,0.01114072185009718,0.0
292,5,0.0003151619166601449,7.282670412678272e-05,0.0009178249165415764,-0.008393444120883942,-0.006641831714659929,-0.011092829518020153,0.001414147554896772,-0.01567436195909977,-0.03429175168275833,-0.004218544345349073,-0.7576197385787964,0.00510039646178484,0.0,0.0,0.0,0.002831106772646308,-0.0033739202190190554,-0.0,0.0,0.0,0.0,-0.0005500034894794226,-0.007234218064695597,-0.003548974869772792,13421.0,16985.0,14681.0,15922.0,0.40143245458602905,0.6598801016807556,0.4855422377586365,0.5761262774467468,0.0,0.0,0.0,0.0,14029.0,16631.0,14351.0,16103.0,2.122997999191284,0.046862190439183674,-0.14082936710839533,0.00904323429048568,0.017259718850255013,0.01114072185009718,0.0
297,5,0.00027112485258840024,9.155234874924645e-05,0.0009598889155313373,-0.00864182598888874,-0.004903809633105993,-0.00948481447994709,0.001414147554896772,-0.01567436195909977,-0.03429175168275833,-0.004218544345349073,-0.7576197385787964,0.00510039646178484,0.0,0.0,0.0,0.006453354377299547,-0.005832155700773001,-0.0,0.0,0.0,0.0,-0.0005500034894794226,-0.007234218064695597,-0.003548974869772792,13421.0,16985.0,14681.0,15922.0,0.40143245458602905,0.6598801016807556,0.4855422377586365,0.5761262774467468,0.0,0.0,0.0,0.0,14029.0,16631.0,14351.0,16103.0,2.1157684326171875,0.04654896620962743,-0.14522847251150775,0.010116104274511591,0.029732927680015564,0.02530793659389019,0.0
302,5,0.00021284798276610672,0.00011491357872728258,0.0009985435754060745,-0.010449954308569431,-0.004764872137457132,-0.008432489819824696,0.0009516407735645771,-0.006171988323330879,-0.033758774399757385,-0.039071232080459595,-0.7802444696426392,0.068436399102211,0.0,0.0,0.0,0.006453354377299547,-0.005832155700773001,-0.0,0.0,0.0,0.0,0.0005974702071398497,-0.012581400573253632,-0.0020029740408062935,13789.0,16642.0,15476.0,15204.0,0.425204336643219,0.6322655081748962,0.5427129864692688,0.5227982997894287,0.0,0.0,0.0,0.0,13375.0,16974.0,15010.0,15665.0,2.1157684326171875,0.0457101017286115,-0.14902801960578435,0.010514377353157993,0.029732927680015564,0.02530793659389019,0.0
307,5,0.0001588295417604968,0.00013277484686113894,0.0010635270737111568,-0.010662194341421127,-0.004049301613122225,-0.0111710075289011,0.0009516407735645771,-0.006171988323330879,-0.033758774399757385,-0.039071232080459595,-0.7802444696426392,0.068436399102211,0.0,0.0,0.0,0.004077686462551355,-0.00770575599744916,-0.0,0.0,0.0,0.0,0.0005974702071398497,-0.012581400573253632,-0.0020029740408062935,13789.0,16642.0,15476.0,15204.0,0.425204336643219,0.6322655081748962,0.5427129864692688,0.5227982997894287,0.0,0.0,0.0,0.0,13375.0,16974.0,15010.0,15665.0,2.10579252243042,0.046299067525596406,-0.15282776246083415,0.010725420035528954,0.03909982368350029,0.015916066244244576,0.0
312,5,9.952917753253132e-05,0.0001353847183054313,0.0011191032826900482,-0.011380921117961407,-0.0019329036585986614,-0.011137552559375763,0.0002983201702591032,0.0002783645468298346,-0.03337879478931427,-0.07305177301168442,-0.7421978712081909,0.03675108775496483,0.0,0.0,0.0,0.004077686462551355,-0.00770575599744916,-0.0,0.0,0.0,0.0,0.001750476541928947,-0.016774067655205727,-0.002688569948077202,13165.0,17023.0,15520.0,15285.0,0.385328471660614,0.6630131006240845,0.5459705591201782,0.5286859273910522,0.0,0.0,0.0,0.0,13576.0,16722.0,15676.0,15103.0,2.10579252243042,0.0458388148843804,-0.15633254753543074,0.011091900032738543,0.03909982368350029,0.015916066244244576,0.0
317,5,5.232450712355785e-05,0.00016278462135232985,0.0011880939127877355,-0.010216929018497467,-0.0040611508302390575,-0.01273389719426632,0.0002983201702591032,0.0002783645468298346,-0.03337879478931427,-0.07305177301168442,-0.7421978712081909,0.03675108775496483,0.0,0.0,0.0,0.0020551159977912903,-0.008329320698976517,-0.0,0.0,0.0,0.0,0.001750476541928947,-0.016774067655205727,-0.002688569948077202,13165.0,17023.0,15520.0,15285.0,0.385328471660614,0.6630131006240845,0.5459705591201782,0.5286859273910522,0.0,0.0,0.0,0.0,13576.0,16722.0,15676.0,15103.0,2.0986578464508057,0.045338855446724155,-0.15955572930631093,0.011755967366496199,0.04212085157632828,0.007994401268661022,0.0
322,5,3.366807140992023e-05,0.000200270937057212,0.00125066505279392,-0.006325543858110905,-0.00612281821668148,-0.012602089904248714,-0.000841304543428123,0.008879453875124454,-0.03267078101634979,-0.09815601259469986,-0.6273876428604126,0.08520578593015671,0.0,0.0,0.0,0.0020551159977912903,-0.008329320698976517,-0.0,0.0,0.0,0.0,0.0030554132536053658,-0.01742793619632721,-0.0017741004703566432,13456.0,16609.0,15961.0,14934.0,0.40366458892822266,0.6296482682228088,0.5790883898735046,0.5033672451972961,0.0,0.0,0.0,0.0,12929.0,17049.0,15620.0,15255.0,2.0986578464508057,0.045053005477855027,-0.16234827206493788,0.012115973011942475,0.04212085157632828,0.007994401268661022,0.0
327,5,1.5619627447449602e-05,0.00021581273176707327,0.001293048495426774,-0.004696030635386705,-0.004314142744988203,-0.010126851499080658,-0.000841304543428123,0.008879453875124454,-0.03267078101634979,-0.09815601259469986,-0.6273876428604126,0.08520578593015671,0.0,0.0,0.0,0.0044932239688932896,-0.003485562978312373,-0.0,0.0,0.0,0.0,0.0030554132536053658,-0.01742793619632721,-0.0017741004703566432,13456.0,16609.0,15961.0,14934.0,0.40366458892822266,0.6296482682228088,0.5790883898735046,0.5033672451972961,0.0,0.0,0.0,0.0,12929.0,17049.0,15620.0,15255.0,2.0852818489074707,0.04462462953140603,-0.16475978684780332,0.012800302651429955,0.017513960599899292,0.017367158085107803,0.0
332,5,1.1892000657098833e-05,0.00024958181893453,0.0013736614491790533,-0.002325727604329586,-0.0057779476046562195,-0.013724297285079956,-0.00175728858448565,0.013276305049657822,-0.032091882079839706,-0.08218497782945633,-0.4409535527229309,0.049608733505010605,0.0,0.0,0.0,0.0044932239688932896,-0.003485562978312373,-0.0,0.0,0.0,0.0,0.0027452243957668543,-0.016161728650331497,-0.0019099059281870723,13314.0,16695.0,15667.0,15135.0,0.39470744132995605,0.6364632248878479,0.5568676590919495,0.5177541375160217,0.0,0.0,0.0,0.0,13497.0,16580.0,16054.0,14687.0,2.0852818489074707,0.04402899326427424,-0.16675263894691925,0.012902706916912034,0.017513960599899292,0.017367158085107803,0.0
337,5,1.818645978346467e-05,0.00026099305250681937,0.0014032699400559068,-0.00017495604697614908,-0.0036805267445743084,-0.00904273334890604,-0.00175728858448565,0.013276305049657822,-0.032091882079839706,-0.08218497782945633,-0.4409535527229309,0.049608733505010605,0.0,0.0,0.0,0.003963845316320658,-0.00010918664338532835,-0.0,0.0,0.0,0.0,0.0027452243957668543,-0.016161728650331497,-0.0019099059281870723,13314.0,16695.0,15667.0,15135.0,0.39470744132995605,0.6364632248878479,0.5568676590919495,0.5177541375160217,0.0,0.0,0.0,0.0,13497.0,16580.0,16054.0,14687.0,2.0743215084075928,0.04401512647548805,-0.16734283925013413,0.013723872555110893,0.0005457504303194582,0.015240502543747425,0.0
342,5,2.2300475393421948e-05,0.0002743119839578867,0.0014340186025947332,0.0004236995300743729,-0.003070482751354575,-0.007306933868676424,-0.00175728858448565,0.013276305049657822,-0.032091882079839706,-0.08218497782945633,-0.4409535527229309,0.049608733505010605,0.0,0.0,0.0,0.003963845316320658,-0.00010918664338532835,-0.0,0.0,0.0,0.0,0.0027452243957668543,-0.016161728650331497,-0.0019099059281870723,13314.0,16695.0,15667.0,15135.0,0.39470744132995605,0.6364632248878479,0.5568676590919495,0.5177541375160217,0.0,0.0,0.0,0.0,13497.0,16580.0,16054.0,14687.0,2.0743215084075928,0.04363092287410567,-0.16796338064370897,0.014342092707558977,0.0005457504303194582,0.015240502543747425,0.0
347,5,2.7235157176619396e-05,0.0002866975555662066,0.0014721890911459923,0.0007616417133249342,-0.0027144597843289375,-0.007503232453018427,-0.0026028011925518513,0.01739095337688923,-0.03133530914783478,-0.06341441720724106,-0.2111569195985794,0.07275395095348358,0.0,0.0,0.0,0.003963845316320658,-0.00010918664338532835,-0.0,0.0,0.0,0.0,0.0020981577690690756,-0.013280341401696205,-0.0015073290560394526,13734.0,16373.0,15587.0,15098.0,0.42159169912338257,0.6110116839408875,0.5509108901023865,0.515143632888794,0.0,0.0,0.0,0.0,14044.0,16033.0,15515.0,15070.0,2.0743215084075928,0.0438032656854519,-0.16776847605558587,0.014425973736993832,0.0005457504303194582,0.015240502543747425,0.0
353,5,5.219464947003871e-05,0.0003033835382666439,0.0014474178897216916,0.0032997955568134785,-0.003088102675974369,-2.8754613595083356e-05,-0.0026028011925518513,0.01739095337688923,-0.03133530914783478,-0.06341441720724106,-0.2111569195985794,0.07275395095348358,0.0,0.0,0.0,0.0030799712985754013,0.0006076792487874627,-0.0,0.0,0.0,0.0,0.0020981577690690756,-0.013280341401696205,-0.0015073290560394526,13734.0,16373.0,15587.0,15098.0,0.42159169912338257,0.6110116839408875,0.5509108901023865,0.515143632888794,0.0,0.0,0.0,0.0,14044.0,16033.0,15515.0,15070.0,2.0599567890167236,0.043702311515408654,-0.16729847677451465,0.014997475125526852,-0.0030163542833179235,0.01176012959331274,0.0
358,5,9.367960592499003e-05,0.0003347307210788131,0.0014253847766667604,0.006298113148659468,-0.004996905103325844,0.0026324817445129156,-0.00276587950065732,0.017976244911551476,-0.030662070959806442,-0.01928478665649891,0.040566056966781616,0.07409940659999847,0.0,0.0,0.0,0.0030799712985754013,0.0006076792487874627,-0.0,0.0,0.0,0.0,0.0017741500632837415,-0.006792462896555662,-0.0010582990944385529,14245.0,15873.0,15240.0,15330.0,0.45556166768074036,0.5723803043365479,0.5253846645355225,0.5319552421569824,0.0,0.0,0.0,0.0,14359.0,15705.0,15035.0,15450.0,2.0599567890167236,0.04401911658695117,-0.16624866784082865,0.015201207122659542,-0.0030163542833179235,0.01176012959331274,0.0
363,5,0.00014871392340864986,0.0003572411951608956,0.001384796341881156,0.00912336353212595,-0.004700016230344772,0.005923598539084196,-0.00276587950065732,0.017976244911551476,-0.030662070959806442,-0.01928478665649891,0.040566056966781616,0.07409940659999847,0.0,0.0,0.0,0.005424815230071545,0.0048945145681500435,-0.0,0.0,0.0,0.0,0.0017741500632837415,-0.006792462896555662,-0.0010582990944385529,14245.0,15873.0,15240.0,15330.0,0.45556166768074036,0.5723803043365479,0.5253846645355225,0.5319552421569824,0.0,0.0,0.0,0.0,14359.0,15705.0,15035.0,15450.0,2.0471701622009277,0.04392388078408715,-0.1646023452780484,0.01517182220667397,-0.024143895134329796,0.020584654062986374,-0.0
368,5,0.00020252543617971241,0.0003730331372935325,0.0013499816413968801,0.010106726549565792,-0.003775038756430149,0.006547202821820974,-0.002832152647897601,0.015966257080435753,-0.029745737090706825,0.013206066563725471,0.26489385962486267,0.07808718830347061,0.0,0.0,0.0,0.005424815230071545,0.0048945145681500435,-0.0,0.0,0.0,0.0,0.0011194598628208041,-8.707639790372923e-05,-0.0010871831327676773,14720.0,15434.0,14803.0,15606.0,0.4882712662220001,0.539608895778656,0.4940932095050812,0.5523480772972107,0.0,0.0,0.0,0.0,14664.0,15390.0,14662.0,15642.0,2.0471701622009277,0.04423893390033573,-0.163176445541499,0.015468220318456245,-0.024143895134329796,0.020584654062986374,-0.0
373,5,0.00025474271387793124,0.00039455326623283327,0.0013043981743976474,0.010308763943612576,-0.0040924325585365295,0.00808889139443636,-0.002832152647897601,0.015966257080435753,-0.029745737090706825,0.013206066563725471,0.26489385962486267,0.07808718830347061,0.0,0.0,0.0,0.004310017917305231,0.007979655638337135,-0.0,0.0,0.0,0.0,0.0011194598628208041,-8.707639790372923e-05,-0.0010871831327676773,14720.0,15434.0,14803.0,15606.0,0.4882712662220001,0.539608895778656,0.4940932095050812,0.5523480772972107,0.0,0.0,0.0,0.0,14664.0,15390.0,14662.0,15642.0,2.0296523571014404,0.04439031578716447,-0.1612419650922859,0.0157413045353785,-0.03902555629611015,0.016214624047279358,-0.0
378,5,0.00030300262733362615,0.0004058538470417261,0.001256237388588488,0.009914694353938103,-0.00299304211512208,0.009014853276312351,-0.0025757451076060534,0.013416158966720104,-0.029239190742373466,0.02463211864233017,0.25829872488975525,0.04695361107587814,0.0,0.0,0.0,0.004310017917305231,0.007979655638337135,-0.0,0.0,0.0,0.0,0.0008062577107921243,0.002166055841371417,-0.0017599619459360838,14518.0,15575.0,14350.0,15882.0,0.47421225905418396,0.5500255823135376,0.462656706571579,0.5730621814727783,0.0,0.0,0.0,0.0,14600.0,15303.0,14269.0,15974.0,2.0296523571014404,0.043992094481803315,-0.15944413055961662,0.015502782469230234,-0.03902555629611015,0.016214624047279358,-0.0
383,5,0.000341286911861971,0.0004140152595937252,0.001220294856466353,0.008559991605579853,-0.0021765879355371,0.007919050753116608,-0.0025757451076060534,0.013416158966720104,-0.029239190742373466,0.02463211864233017,0.25829872488975525,0.04695361107587814,0.0,0.0,0.0,0.0035961545072495937,0.007983940653502941,-0.0,0.0,0.0,0.0,0.0008062577107921243,0.002166055841371417,-0.0017599619459360838,14518.0,15575.0,14350.0,15882.0,0.47421225905418396,0.5500255823135376,0.462656706571579,0.5730621814727783,0.0,0.0,0.0,0.0,14600.0,15303.0,14269.0,15974.0,2.0199060440063477,0.04460168299622525,-0.15836779409731705,0.01634658288263234,-0.03885912150144577,0.013464070856571198,-0.0
388,5,0.00038137921364977956,0.00040755310328677297,0.0011936745140701532,0.008235074579715729,-9.517635044176131e-05,0.006362054031342268,-0.002809614408761263,0.010183047503232956,-0.028523705899715424,-0.0050915563479065895,0.24513471126556396,0.061933472752571106,0.0,0.0,0.0,0.0035961545072495937,0.007983940653502941,-0.0,0.0,0.0,0.0,0.0016604618867859244,0.0044677541591227055,-0.0016138235805556178,14613.0,15289.0,14312.0,15937.0,0.4808264374732971,0.5289837718009949,0.46005314588546753,0.5773068070411682,0.0,0.0,0.0,0.0,14690.0,15223.0,14355.0,15892.0,2.0199060440063477,0.0446843341083069,-0.1567484192132075,0.016445448742716563,-0.03885912150144577,0.013464070856571198,-0.0
393,5,0.00041718725697137415,0.00043035298585891724,0.0011981234420090914,0.007590993773192167,-0.0027740567456930876,0.0020109566394239664,-0.002809614408761263,0.010183047503232956,-0.028523705899715424,-0.0050915563479065895,0.24513471126556396,0.061933472752571106,0.0,0.0,0.0,0.0007013386930339038,0.006825381889939308,-0.0,0.0,0.0,0.0,0.0016604618867859244,0.0044677541591227055,-0.0016138235805556178,14613.0,15289.0,14312.0,15937.0,0.4808264374732971,0.5289837718009949,0.46005314588546753,0.5773068070411682,0.0,0.0,0.0,0.0,14690.0,15223.0,14355.0,15892.0,2.006068706512451,0.04439573451399736,-0.15648323897113633,0.016233456991578882,-0.032992951571941376,0.0026078468654304743,-0.0
398,5,0.00042809045407921076,0.00044769252417609096,0.0012093179393559694,0.004344781395047903,-0.0031903653871268034,-0.0005389542784541845,-0.002606745343655348,0.00822480209171772,-0.02817206084728241,-0.01872331276535988,0.16042907536029816,0.04142900928854942,0.0,0.0,0.0,0.0007013386930339038,0.006825381889939308,-0.0,0.0,0.0,0.0,0.0013383310288190842,0.004631250165402889,-0.002056373283267021,14394.0,15404.0,14049.0,16028.0,0.46565672755241394,0.5373494625091553,0.4423963725566864,0.58424973487854,0.0,0.0,0.0,0.0,14319.0,15427.0,14099.0,16030.0,2.006068706512451,0.04473522077658624,-0.15585486110413047,0.016064006954293993,-0.032992951571941376,0.0026078468654304743,-0.0
403,5,0.00042388157453387976,0.0004527598503045738,0.0012147919042035937,0.001232848851941526,-0.0018842275021597743,-0.0008724653162062168,-0.002606745343655348,0.00822480209171772,-0.02817206084728241,-0.01872331276535988,0.16042907536029816,0.04142900928854942,0.0,0.0,0.0,0.0038959078956395388,0.0038740255404263735,-0.0,0.0,0.0,0.0,0.0013383310288190842,0.004631250165402889,-0.002056373283267021,14394.0,15404.0,14049.0,16028.0,0.46565672755241394,0.5373494625091553,0.4423963725566864,0.58424973487854,0.0,0.0,0.0,0.0,14319.0,15427.0,14099.0,16030.0,1.9992444515228271,0.04480550502617754,-0.1565545238118051,0.016345680164250156,-0.01866276189684868,0.01443713903427124,0.0
408,5,0.0004107673012185842,0.00045421160757541656,0.0012398522812873125,-0.0010805731872096658,-0.0009278999059461057,-0.003356226719915867,-0.0029594097286462784,0.007035009562969208,-0.02779829129576683,-0.03882464021444321,0.0121109988540411,0.03093639388680458,0.0,0.0,0.0,0.0038959078956395388,0.0038740255404263735,-0.0,0.0,0.0,0.0,0.0014350175624713302,0.001554826507344842,-0.002528166864067316,14057.0,15624.0,14119.0,15924.0,0.4429113268852234,0.553648054599762,0.4470747113227844,0.5762719511985779,0.0,0.0,0.0,0.0,14018.0,15641.0,14219.0,15853.0,1.9992444515228271,0.044726200618595405,-0.15723212238684922,0.016550537659377383,-0.01866276189684868,0.01443713903427124,0.0
414,5,0.00037637539207935333,0.0004761109594255686,0.0012683860259130597,-0.004559260793030262,-0.002999082440510392,-0.004766538739204407,-0.0029594097286462784,0.007035009562969208,-0.02779829129576683,-0.03882464021444321,0.0121109988540411,0.03093639388680458,0.0,0.0,0.0,0.001622412004508078,-0.00037003940087743104,-0.0,0.0,0.0,0.0,0.0014350175624713302,0.001554826507344842,-0.002528166864067316,14057.0,15624.0,14119.0,15924.0,0.4429113268852234,0.553648054599762,0.4470747113227844,0.5762719511985779,0.0,0.0,0.0,0.0,14018.0,15641.0,14219.0,15853.0,1.9919663667678833,0.044333151272189994,-0.1587786677950498,0.016748142947351996,0.0017761567141860723,0.005990338511765003,0.0
419,5,0.00034622076782397926,0.0004951267037540674,0.0012993314303457737,-0.005442257504910231,-0.003481521038338542,-0.00562006002292037,-0.003287937957793474,0.007529252674430609,-0.027654243633151054,-0.06645918637514114,-0.13420654833316803,0.01845117285847664,0.0,0.0,0.0,0.001622412004508078,-0.00037003940087743104,-0.0,0.0,0.0,0.0,0.0020097126252949238,-0.0055215987376868725,-0.00229941145516932,13723.0,15822.0,14264.0,15706.0,0.4208758771419525,0.5685741305351257,0.45682644844055176,0.559792160987854,0.0,0.0,0.0,0.0,13601.0,15921.0,14310.0,15670.0,1.9919663667678833,0.04474568744576299,-0.1600193488876012,0.01691805674112435,0.0017761567141860723,0.005990338511765003,0.0
424,5,0.00030761706875637174,0.0005072872154414654,0.0013233211357146502,-0.006809348706156015,-0.00285187060944736,-0.0051267994567751884,-0.003287937957793474,0.007529252674430609,-0.027654243633151054,-0.06645918637514114,-0.13420654833316803,0.01845117285847664,0.0,0.0,0.0,0.004283369518816471,-0.003856775350868702,-0.0,0.0,0.0,0.0,0.0020097126252949238,-0.0055215987376868725,-0.00229941145516932,13723.0,15822.0,14264.0,15706.0,0.4208758771419525,0.5685741305351257,0.45682644844055176,0.559792160987854,0.0,0.0,0.0,0.0,13601.0,15921.0,14310.0,15670.0,1.989198088645935,0.04470033464661658,-0.1620650412550195,0.017318561356544988,0.0184862669557333,0.01579318381845951,0.0
429,5,0.00026453964528627694,0.000520945293828845,0.0013567751739174128,-0.007893030531704426,-0.002779718255624175,-0.006065205205231905,-0.003875776194036007,0.009881998412311077,-0.027373522520065308,-0.03042425960302353,-0.23448488116264343,0.026171142235398293,0.0,0.0,0.0,0.004283369518816471,-0.003856775350868702,-0.0,0.0,0.0,0.0,0.0017788762925192714,-0.009241851978003979,-0.0024725496768951416,13556.0,15884.0,14558.0,15425.0,0.41010600328445435,0.5732607245445251,0.47698336839675903,0.5388943552970886,0.0,0.0,0.0,0.0,13301.0,16092.0,14542.0,15445.0,1.989198088645935,0.04420985447340939,-0.16381966702676873,0.017515574794022156,0.0184862669557333,0.01579318381845951,0.0
434,5,0.0002390506851952523,0.0005345699028111994,0.0013724538730457425,-0.00621588621288538,-0.002746842335909605,-0.004307515919208527,-0.003875776194036007,0.009881998412311077,-0.027373522520065308,-0.03042425960302353,-0.23448488116264343,0.026171142235398293,0.0,0.0,0.0,0.003618502290919423,-0.0058838073164224625,-0.0,0.0,0.0,0.0,0.0017788762925192714,-0.009241851978003979,-0.0024725496768951416,13556.0,15884.0,14558.0,15425.0,0.41010600328445435,0.5732607245445251,0.47698336839675903,0.5388943552970886,0.0,0.0,0.0,0.0,13301.0,16092.0,14542.0,15445.0,1.9837517738342285,0.04449875913185793,-0.16475549486760216,0.01763472711630165,0.028124986216425896,0.013305248692631721,0.0
439,5,0.00020162244618404657,0.0005625263438560069,0.0014069934841245413,-0.006977743469178677,-0.004453505855053663,-0.005867756437510252,-0.004144498612731695,0.01205065194517374,-0.02722107246518135,-0.02427510730922222,-0.30710652470588684,0.023013805970549583,0.0,0.0,0.0,0.003618502290919423,-0.0058838073164224625,-0.0,0.0,0.0,0.0,0.001591756590642035,-0.010878796689212322,-0.002848156727850437,13209.0,16165.0,14660.0,15236.0,0.38808125257492065,0.5947591662406921,0.48404884338378906,0.5250771045684814,0.0,0.0,0.0,0.0,13195.0,16180.0,14863.0,15033.0,1.9837517738342285,0.04445990322033017,-0.16662955519294362,0.017939893469006873,0.028124986216425896,0.013305248692631721,0.0
444,5,0.0001653713989071548,0.0005604292382486165,0.0014078777749091387,-0.007141223642975092,-0.001529749482870102,-0.0024532305542379618,-0.004144498612731695,0.01205065194517374,-0.02722107246518135,-0.02427510730922222,-0.30710652470588684,0.023013805970549583,0.0,0.0,0.0,0.005396328866481781,-0.005245867185294628,-0.0,0.0,0.0,0.0,0.001591756590642035,-0.010878796689212322,-0.002848156727850437,13209.0,16165.0,14660.0,15236.0,0.38808125257492065,0.5947591662406921,0.48404884338378906,0.5250771045684814,0.0,0.0,0.0,0.0,13195.0,16180.0,14863.0,15033.0,1.9807913303375244,0.04457226740717796,-0.16808491439387466,0.018188232890623407,0.02503799833357334,0.01981261745095253,0.0
449,5,0.00013160232629161328,0.0005743144429288805,0.0014275944558903575,-0.0069087776355445385,-0.002278127707540989,-0.0033472864888608456,-0.0044931755401194096,0.017885876819491386,-0.027030538767576218,-0.017075812444090843,-0.2713581323623657,-0.004089067690074444,0.0,0.0,0.0,0.005396328866481781,-0.005245867185294628,-0.0,0.0,0.0,0.0,0.0020930650644004345,-0.012251398526132107,-0.0029979695100337267,12587.0,16551.0,14582.0,15302.0,0.3501540720462799,0.6250419020652771,0.47866541147232056,0.5298903584480286,0.0,0.0,0.0,0.0,12973.0,16275.0,14803.0,15142.0,1.9807913303375244,0.04422403094295118,-0.1686070843853535,0.01843122740935955,0.02503799833357334,0.01981261745095253,0.0
454,5,0.0001055302782333456,0.0005973022198304534,0.0014532642671838403,-0.005892156157642603,-0.003669781843200326,-0.004419292323291302,-0.0044931755401194096,0.017885876819491386,-0.027030538767576218,-0.017075812444090843,-0.2713581323623657,-0.004089067690074444,0.0,0.0,0.0,0.003198654856532812,-0.005282177589833736,-0.0,0.0,0.0,0.0,0.0020930650644004345,-0.012251398526132107,-0.0029979695100337267,12587.0,16551.0,14582.0,15302.0,0.3501540720462799,0.6250419020652771,0.47866541147232056,0.5298903584480286,0.0,0.0,0.0,0.0,12973.0,16275.0,14803.0,15142.0,1.9770584106445312,0.04438866166365343,-0.16875167481398007,0.017813256473891058,0.025164026767015457,0.011721793562173843,0.0
459,5,9.629863052396104e-05,0.0006236094050109386,0.0014649081276729703,-0.003464660607278347,-0.004624777473509312,-0.003164979163557291,-0.0044931755401194096,0.017885876819491386,-0.027030538767576218,-0.017075812444090843,-0.2713581323623657,-0.004089067690074444,0.0,0.0,0.0,0.003198654856532812,-0.005282177589833736,-0.0,0.0,0.0,0.0,0.0016980830114334822,-0.009612354449927807,-0.003414108883589506,12587.0,16531.0,14235.0,15606.0,0.3501710891723633,0.6234509944915771,0.45485520362854004,0.552314043045044,0.0,0.0,0.0,0.0,12926.0,16315.0,14788.0,15079.0,1.9770584106445312,0.044377073440824935,-0.16937046551786286,0.017979879022857203,0.025164026767015457,0.011721793562173843,0.0
464,5,9.991273691412061e-05,0.0006325058056972921,0.0014436967903748155,-0.0009521712781861424,-0.0029174743685871363,0.001279363059438765,-0.0044931755401194096,0.017885876819491386,-0.027030538767576218,-0.017075812444090843,-0.2713581323623657,-0.004089067690074444,0.0,0.0,0.0,0.005674605257809162,-0.0026118052192032337,-0.0,0.0,0.0,0.0,0.0016980830114334822,-0.009612354449927807,-0.003414108883589506,12587.0,16531.0,14235.0,15606.0,0.3501710891723633,0.6234509944915771,0.45485520362854004,0.552314043045044,0.0,0.0,0.0,0.0,12926.0,16315.0,14788.0,15079.0,1.977059245109558,0.04433893184211387,-0.16913188216740158,0.017792737817884756,0.012442421168088913,0.020795034244656563,0.0
469,5,9.89827312878333e-05,0.0006588491378352046,0.0014308849349617958,-0.0004924695822410285,-0.004328195471316576,0.002049175091087818,-0.0044931755401194096,0.017885876819491386,-0.027030538767576218,-0.017075812444090843,-0.2713581323623657,-0.004089067690074444,0.0,0.0,0.0,0.005674605257809162,-0.0026118052192032337,-0.0,0.0,0.0,0.0,0.0016980830114334822,-0.009612354449927807,-0.003414108883589506,12587.0,16531.0,14235.0,15606.0,0.3501710891723633,0.6234509944915771,0.45485520362854004,0.552314043045044,0.0,0.0,0.0,0.0,12926.0,16315.0,14788.0,15079.0,1.977059245109558,0.04410163739510623,-0.16887814613789864,0.017827196484977402,0.012442421168088913,0.020795034244656563,0.0
474,5,0.00011114293738501146,0.0006580976187251508,0.0014059271197766066,0.001262237667106092,-0.0016410942189395428,0.003814611118286848,-0.004323752596974373,0.02010362222790718,-0.02714461088180542,0.02219974808394909,0.10406950861215591,-0.008513242937624454,0.0,0.0,0.0,0.005418553948402405,-0.0002687197702471167,-0.0,0.0,0.0,0.0,0.0009358501411043108,-0.006178643554449081,-0.00288913631811738,13204.0,16124.0,14168.0,15538.0,0.38779404759407043,0.5916279554367065,0.4503350555896759,0.5473014116287231,0.0,0.0,0.0,0.0,12871.0,16261.0,14402.0,15508.0,1.9792741537094116,0.04453413053894343,-0.16793610996093988,0.01744511308144145,0.0012815959053114057,0.01987897790968418,-0.0
