timestamp,dt,pos_x,pos_y,pos_z,vel_x,vel_y,vel_z,roll,pitch,yaw,agv_x,agv_y,agv_z,x_ref,y_ref,z_ref,roll_ref,pitch_ref,yaw_ref,x_vel_ref,y_vel_ref,z_vel_ref,x_torque,y_torque,z_torque,w0,w1,w2,w3,u0,u1,u2,u3,m0req,m1req,m2req,m3req,thrust0,thrust1,thrust2,thrust3,thrust_ref,roll_vicon,pitch_vicon,yaw_vicon,acc_x,acc_y,acc_z,roll_received,pitch_received,yaw_received
5,5,0.0,0.0,0.0,-0.00010777292482089251,-0.0011101646814495325,-0.0003757502418011427,0.0,0.0,0.0,0.0,0.0,0.0,0.0,0.0,0.0,0.0013719432754442096,-0.00010245077282888815,-0.0,0.0,0.0,0.0,0.0,0.0,0.0,0.0,0.0,0.0,0.0,0.0,0.0,0.0,0.0,0.0,0.0,0.0,0.0,0.0,0.0,0.0,0.0,1.6370962858200073,0.04361289792368667,-0.02476566703194761,0.0258462337245137,0.00040414847899228334,0.004163117613643408,0.0,0.0,0.0,0.0
41,36,0.0,0.0,0.0,0.0011340914061293006,0.0002305011876160279,0.0025869847740978003,0.0,0.0,0.0,0.0,0.0,0.0,0.0,0.0,0.0,0.0013719432754442096,-0.00010245077282888815,-0.0,0.0,0.0,0.0,0.0,0.0,0.0,0.0,0.0,0.0,0.0,0.0,0.0,0.0,0.0,0.0,0.0,0.0,0.0,0.0,0.0,0.0,0.0,1.6370962858200073,0.043399080425456614,-0.02495837043983922,0.025491246651555218,0.00040414847899228334,0.004163117613643408,0.0,0.0,0.0,0.0
46,5,0.0,0.0,0.0,-0.00023751100525259972,-0.0008674310520291328,0.0009293030598200858,0.0,0.0,0.0,0.0,0.0,0.0,0.0,0.0,0.0,-0.0002847796131391078,0.0010778057621791959,-0.0,0.0,0.0,0.0,0.0,0.0,0.0,0.0,0.0,0.0,0.0,0.0,0.0,0.0,0.0,0.0,0.0,0.0,0.0,0.0,0.0,0.0,0.0,1.637521505355835,0.04321233666257265,-0.025073262521271053,0.025719604934676434,-0.004252842627465725,-0.0008643794571980834,0.0,0.0,0.0,0.0
51,5,0.0,0.0,0.0,-0.0005585367325693369,-0.0007211806951090693,0.0011925871949642897,0.0,0.0,0.0,0.0,0.0,0.0,0.0,0.0,0.0,-0.0002847796131391078,0.0010778057621791959,-0.0,0.0,0.0,0.0,0.0,0.0,0.0,0.0,0.0,0.0,0.0,0.0,0.0,0.0,0.0,0.0,0.0,0.0,0.0,0.0,0.0,0.0,0.0,1.637521505355835,0.043284966234221144,-0.024956652063971595,0.025499928052239645,-0.004252842627465725,-0.0008643794571980834,0.0,0.0,0.0,0.0
56,5,-1.3532071534427814e-06,-7.10591393726645e-06,1.3078001757094171e-05,-0.0003857995616272092,0.0005642374162562191,-0.0010923253139480948,0.0,0.0,0.0,0.0,0.0,0.0,0.0,0.0,0.0,0.0008923623245209455,-0.0005316252936609089,-0.0,0.0,0.0,0.0,0.0,0.0,0.0,0.0,0.0,0.0,0.0,0.0,0.0,0.0,0.0,0.0,0.0,0.0,0.0,0.0,0.0,0.0,0.0,1.635029911994934,0.04369782675527419,-0.025157737347366815,0.025571422684992202,0.0020945128053426743,0.0027044275775551796,0.0,0.0,0.0,0.0
61,5,-6.681552349618869e-06,-3.863092388201039e-06,2.0259285520296544e-05,-0.0007937212358228862,-0.00016344364848919213,-0.0012986842775717378,0.0,0.0,0.0,0.0,0.0,0.0,0.0,0.0,0.0,0.0008923623245209455,-0.0005316252936609089,-0.0,0.0,0.0,0.0,0.0,0.0,0.0,0.0,0.0,0.0,0.0,0.0,0.0,0.0,0.0,0.0,0.0,0.0,0.0,0.0,0.0,0.0,0.0,1.635029911994934,0.04367260771017684,-0.024446718172081747,0.025515166400523176,0.0020945128053426743,0.0027044275775551796,0.0,0.0,0.0,0.0
66,5,7.146632583499013e-07,-1.0522950105951168e-05,1.58631937665632e-05,0.0005700573674403131,0.0007338054710999131,8.057400009420235e-06,0.0,0.0,0.0,0.0,0.0,0.0,0.0,0.0,0.0,0.00019533729937393218,-0.0007652555359527469,-0.0,0.0,0.0,0.0,0.0,0.0,0.0,0.0,0.0,0.0,0.0,0.0,0.0,0.0,0.0,0.0,0.0,0.0,0.0,0.0,0.0,0.0,0.0,1.6340806484222412,0.043498321042206974,-0.024783902166298867,0.025511692678383505,0.003013226669281721,0.0005916531663388014,0.0,0.0,0.0,0.0
71,5,-4.816858563572168e-06,-1.5147647900448646e-05,7.352496140811127e-06,-0.00043575966265052557,0.000848485971800983,0.0010245066368952394,0.0,0.0,0.0,0.0,0.0,0.0,0.0,0.0,0.0,0.00019533729937393218,-0.0007652555359527469,-0.0,0.0,0.0,0.0,0.0,0.0,0.0,0.0,0.0,0.0,0.0,0.0,0.0,0.0,0.0,0.0,0.0,0.0,0.0,0.0,0.0,0.0,0.0,1.6340806484222412,0.04407490118177386,-0.024826246101386708,0.02576762349988656,0.003013226669281721,0.0005916531663388014,0.0,0.0,0.0,0.0
76,5,-2.229540314147016e-06,-2.368431887589395e-05,2.0518004021141678e-05,0.00013617431977763772,0.001363794901408255,-0.0011700583854690194,0.0,0.0,0.0,0.0,0.0,0.0,0.0,0.0,0.0,-0.0010769638465717435,-0.00042132893577218056,-0.0,0.0,0.0,0.0,0.0,0.0,0.0,0.0,0.0,0.0,0.0,0.0,0.0,0.0,0.0,0.0,0.0,0.0,0.0,0.0,0.0,0.0,0.0,1.6356877088546753,0.043567773179658355,-0.024821380849093244,0.02573999726459752,0.00166063173674047,-0.0032652008812874556,-0.0,0.0,0.0,0.0
81,5,5.156431143404916e-06,-1.0877271961362567e-05,2.6328227249905467e-05,0.0009407863253727555,-0.0009913276880979538,-0.0011652499670162797,0.0,0.0,0.0,0.0,0.0,0.0,0.0,0.0,0.0,-0.0010769638465717435,-0.00042132893577218056,-0.0,0.0,0.0,0.0,0.0,0.0,0.0,0.0,0.0,0.0,0.0,0.0,0.0,0.0,0.0,0.0,0.0,0.0,0.0,0.0,0.0,0.0,0.0,1.6356877088546753,0.043548934175321435,-0.024932962999500017,0.025725639173416928,0.00166063173674047,-0.0032652008812874556,-0.0,0.0,0.0,0.0
87,5,4.36799291492207e-06,-1.1176927728229202e-05,2.1749898223788477e-05,0.0002817019703797996,-0.0003605723613873124,8.329931733896956e-05,0.0,0.0,0.0,0.0,0.0,0.0,0.0,0.0,0.0,0.001203504391014576,0.0009001421858556569,-0.0,0.0,0.0,0.0,0.0,0.0,0.0,0.0,0.0,0.0,0.0,0.0,0.0,0.0,0.0,0.0,0.0,0.0,0.0,0.0,0.0,0.0,0.0,1.6395858526229858,0.04360868940830198,-0.025091653012917364,0.025804534494320727,-0.0035562869161367416,0.0036575491540133953,0.0,0.0,0.0,0.0
92,5,7.071781965350965e-06,-1.5912244634819217e-05,1.969746699614916e-05,0.0004371354589238763,0.0004240091366227716,0.0002796116459649056,0.0,0.0,0.0,0.0,0.0,0.0,0.0,0.0,0.0,0.001203504391014576,0.0009001421858556569,-0.0,0.0,0.0,0.0,0.0,0.0,0.0,0.0,0.0,0.0,0.0,0.0,0.0,0.0,0.0,0.0,0.0,0.0,0.0,0.0,0.0,0.0,0.0,1.6395858526229858,0.043685651968547366,-0.024888689675242694,0.025694706427026818,-0.0035562869161367416,0.0036575491540133953,0.0,0.0,0.0,0.0
97,5,7.071781965350965e-06,-1.5912244634819217e-05,1.969746699614916e-05,0.0004371354589238763,0.0004240091366227716,0.0002796116459649056,0.0,0.0,0.0,0.0,0.0,0.0,0.0,0.0,0.0,-0.0005545475869439542,0.0004266878531780094,-0.0,0.0,0.0,0.0,0.0,0.0,0.0,0.0,0.0,0.0,0.0,0.0,0.0,0.0,0.0,0.0,0.0,0.0,0.0,0.0,0.0,0.0,0.0,1.6321874856948853,0.043685651968547366,-0.024888689675242694,0.025694706427026818,-0.0016781552694737911,-0.0016777119599282742,-0.0,0.0,0.0,0.0
102,5,1.5250096112140454e-05,-1.5212431208055932e-05,-8.973031981440727e-06,0.0013244060100987554,0.00036942787119187415,0.00328151136636734,0.0,0.0,0.0,0.0,0.0,0.0,0.0,0.0,0.0,-0.0005545475869439542,0.0004266878531780094,-0.0,0.0,0.0,0.0,0.0,0.0,0.0,0.0,0.0,0.0,0.0,0.0,0.0,0.0,0.0,0.0,0.0,0.0,0.0,0.0,0.0,0.0,0.0,1.6321874856948853,0.04344760704545505,-0.02494477285796022,0.02591399356038401,-0.0016781552694737911,-0.0016777119599282742,-0.0,0.0,0.0,0.0
107,5,3.1182205475488445e-06,-1.8997248844243586e-05,-8.057663762883749e-07,-0.000926062639337033,0.0006019491702318192,0.0003325327124912292,0.0,0.0,0.0,0.0,0.0,0.0,0.0,0.0,0.0,-0.00048332082224078476,0.0012780004180967808,-0.0,0.0,0.0,0.0,0.0,0.0,0.0,0.0,0.0,0.0,0.0,0.0,0.0,0.0,0.0,0.0,0.0,0.0,0.0,0.0,0.0,0.0,0.0,1.640014410018921,0.04342337609872909,-0.024994701578786582,0.025768701569657722,-0.005050453823059797,-0.0014692364493384957,0.0,0.0,0.0,0.0
112,5,6.622215664719988e-07,-4.654853455576813e-06,7.759490472381003e-06,-0.0006651449366472661,-0.001480307662859559,-0.0008948177564889193,0.0,0.0,0.0,0.0,0.0,0.0,0.0,0.0,0.0,-0.00048332082224078476,0.0012780004180967808,-0.0,0.0,0.0,0.0,0.0,0.0,0.0,0.0,0.0,0.0,0.0,0.0,0.0,0.0,0.0,0.0,0.0,0.0,0.0,0.0,0.0,0.0,0.0,1.640014410018921,0.04347505959044536,-0.02512910368935267,0.025792104687022404,-0.005050453823059797,-0.0014692364493384957,0.0,0.0,0.0,0.0
117,5,4.789406830241205e-06,-1.0754270078905392e-05,1.2313428669585846e-05,0.00022920427727513015,0.00013980692892801017,-0.0009043996687978506,0.0,0.0,0.0,0.0,0.0,0.0,0.0,0.0,0.0,-0.00019334894022904336,0.0002257493615616113,-0.0,0.0,0.0,0.0,0.0,0.0,0.0,0.0,0.0,0.0,0.0,0.0,0.0,0.0,0.0,0.0,0.0,0.0,0.0,0.0,0.0,0.0,0.0,1.628625512123108,0.04375284421741225,-0.024979974604980054,0.025706453068533273,-0.0008859304944053292,-0.0005836756317876279,0.0,0.0,0.0,0.0
122,5,-1.2173795767012052e-06,-5.623873221338727e-06,2.8586438929778524e-05,-0.0006291326717473567,-0.0005597248673439026,-0.0023145212326198816,0.0,0.0,0.0,0.0,0.0,0.0,0.0,0.0,0.0,-0.00019334894022904336,0.0002257493615616113,-0.0,0.0,0.0,0.0,0.0,0.0,0.0,0.0,0.0,0.0,0.0,0.0,0.0,0.0,0.0,0.0,0.0,0.0,0.0,0.0,0.0,0.0,0.0,1.628625512123108,0.04361310571830134,-0.024898088926472346,0.02557477517810207,-0.0008859304944053292,-0.0005836756317876279,0.0,0.0,0.0,0.0
127,5,1.233184138982324e-05,-1.0293304512742907e-05,4.039603936689673e-06,0.0013742534210905433,0.0003364418516866863,0.002019811887294054,0.0,0.0,0.0,0.0,0.0,0.0,0.0,0.0,0.0,-0.00019334894022904336,0.0002257493615616113,-0.0,0.0,0.0,0.0,0.0,0.0,0.0,0.0,0.0,0.0,0.0,0.0,0.0,0.0,0.0,0.0,0.0,0.0,0.0,0.0,0.0,0.0,0.0,1.628625512123108,0.043873737370675195,-0.02525189291045012,0.02583094049889026,-0.0008859304944053292,-0.0005836756317876279,0.0,0.0,0.0,0.0
133,5,-2.065808303086669e-06,-1.2084655281796586e-05,1.8935812477138825e-05,-0.0011780166532844305,0.00034953877911902964,-0.0009796202648431063,0.0,0.0,0.0,0.0,0.0,0.0,0.0,0.0,0.0,-0.0004336634592618793,0.001320981769822538,-0.0,0.0,0.0,0.0,0.0,0.0,0.0,0.0,0.0,0.0,0.0,0.0,0.0,0.0,0.0,0.0,0.0,0.0,0.0,0.0,0.0,0.0,0.0,1.6403542757034302,0.04340322856405149,-0.025087934657073815,0.025577762227279047,-0.005221391096711159,-0.0013185573043301702,-0.0,0.0,0.0,0.0
138,5,9.946921636583284e-06,-8.412746865360532e-06,1.8563674530014396e-05,0.0009703209507279098,-0.00030081349541433156,-0.0003471914678812027,0.0,0.0,0.0,0.0,0.0,0.0,0.0,0.0,0.0,0.0003565904626157135,0.0009368279715999961,-0.0,0.0,0.0,0.0,0.0,0.0,0.0,0.0,0.0,0.0,0.0,0.0,0.0,0.0,0.0,0.0,0.0,0.0,0.0,0.0,0.0,0.0,0.0,1.6361900568008423,0.04336240718902177,-0.02514886946393718,0.025819440339467876,-0.0036935622338205576,0.0010814638808369637,0.0,0.0,0.0,0.0
143,5,1.7943419152288698e-05,-1.9932333088945597e-05,3.278591407251952e-07,0.001347708166576922,0.0012620248598977923,0.0020494211930781603,0.0,0.0,0.0,0.0,0.0,0.0,0.0,0.0,0.0,0.0003565904626157135,0.0009368279715999961,-0.0,0.0,0.0,0.0,0.0,0.0,0.0,0.0,0.0,0.0,0.0,0.0,0.0,0.0,0.0,0.0,0.0,0.0,0.0,0.0,0.0,0.0,0.0,1.6361900568008423,0.04358350653980431,-0.025121021938485765,0.025814602208478865,-0.0036935622338205576,0.0010814638808369637,0.0,0.0,0.0,0.0
148,5,8.46760030981386e-06,-2.4700651920284145e-05,1.4583102711185347e-05,-0.0005980150308459997,0.0010770082008093596,-0.0008908607414923608,0.0,0.0,0.0,0.0,0.0,0.0,0.0,0.0,0.0,0.0003565904626157135,0.0009368279715999961,-0.0,0.0,0.0,0.0,0.0,0.0,0.0,0.0,0.0,0.0,0.0,0.0,0.0,0.0,0.0,0.0,0.0,0.0,0.0,0.0,0.0,0.0,0.0,1.6361900568008423,0.04363608605772854,-0.02475063223402691,0.025520712812137268,-0.0036935622338205576,0.0010814638808369637,0.0,0.0,0.0,0.0
153,5,1.4145167369861156e-05,-1.5907617125776596e-05,9.651357686379924e-06,0.0004421020857989788,-0.0006243609241209924,0.0002354650350753218,0.0,0.0,0.0,0.0,0.0,0.0,0.0,0.0,0.0,-0.0013746549375355244,-0.0005561395082622766,-0.0,0.0,0.0,0.0,0.0,0.0,0.0,0.0,0.0,0.0,0.0,0.0,0.0,0.0,0.0,0.0,0.0,0.0,0.0,0.0,0.0,0.0,0.0,1.638545036315918,0.04355496946648167,-0.02507221396247755,0.025796783664948895,0.0021958041470497847,-0.004175037611275911,0.0,0.0,0.0,0.0
158,5,1.077839442586992e-06,-6.371294603013666e-06,1.4642994756286498e-05,-0.0013912385329604149,-0.0013941030483692884,-0.0005048104212619364,0.0,0.0,0.0,0.0,0.0,0.0,0.0,0.0,0.0,-0.0013746549375355244,-0.0005561395082622766,-0.0,0.0,0.0,0.0,0.0,0.0,0.0,0.0,0.0,0.0,0.0,0.0,0.0,0.0,0.0,0.0,0.0,0.0,0.0,0.0,0.0,0.0,0.0,1.638545036315918,0.043812994651388736,-0.02503529861873712,0.02584114391111516,0.0021958041470497847,-0.004175037611275911,0.0,0.0,0.0,0.0
163,5,9.158317880064715e-06,-8.258557500084862e-06,6.125289019109914e-06,0.00041316193528473377,-0.0003311696636956185,0.0008202005410566926,0.0,0.0,0.0,0.0,0.0,0.0,0.0,0.0,0.0,0.0017022109823301435,-0.0013140880037099123,-0.0,0.0,0.0,0.0,0.0,0.0,0.0,0.0,0.0,0.0,0.0,0.0,0.0,0.0,0.0,0.0,0.0,0.0,0.0,0.0,0.0,0.0,0.0,1.6456905603408813,0.0432904570630445,-0.025029150431406227,0.025626262212464317,0.005211032461374998,0.005192419048398733,0.0,0.0,0.0,0.0
168,5,1.1761334462789819e-05,1.982752564799739e-06,1.1013461516995449e-05,0.00047762677422724664,-0.0013614250347018242,-0.0002585004549473524,0.0,0.0,0.0,0.0,0.0,0.0,0.0,0.0,0.0,0.0016824003541842103,0.0004695167881436646,-0.0,0.0,0.0,0.0,0.0,0.0,0.0,0.0,0.0,0.0,0.0,0.0,0.0,0.0,0.0,0.0,0.0,0.0,0.0,0.0,0.0,0.0,0.0,1.640509009361267,0.04387989704585217,-0.025135997826600177,0.025818247643983067,-0.0018560129683464766,0.005115830339491367,0.0,0.0,0.0,0.0
174,6,1.5143641576287337e-05,-1.4988551811256912e-05,3.3067428830690915e-06,0.0005969275953248143,0.0014919864479452372,0.0008214060217142105,0.0,0.0,0.0,0.0,0.0,0.0,0.0,0.0,0.0,0.0016824003541842103,0.0004695167881436646,-0.0,0.0,0.0,0.0,0.0,0.0,0.0,0.0,0.0,0.0,0.0,0.0,0.0,0.0,0.0,0.0,0.0,0.0,0.0,0.0,0.0,0.0,0.0,1.640509009361267,0.04356315939511421,-0.02528096090340784,0.02579281416588058,-0.0018560129683464766,0.005115830339491367,0.0,0.0,0.0,0.0
179,5,7.970084880071227e-06,-1.2713726391666569e-05,1.244909617525991e-05,-0.0006220557261258364,0.0003238155331928283,-0.0007685199961997569,0.0,0.0,0.0,0.0,0.0,0.0,0.0,0.0,0.0,0.0016824003541842103,0.0004695167881436646,-0.0,0.0,0.0,0.0,0.0,0.0,0.0,0.0,0.0,0.0,0.0,0.0,0.0,0.0,0.0,0.0,0.0,0.0,0.0,0.0,0.0,0.0,0.0,1.640509009361267,0.04317115327543273,-0.02506620524236904,0.025664659202443745,-0.0018560129683464766,0.005115830339491367,0.0,0.0,0.0,0.0
184,5,9.27334804146085e-06,-1.086789143300848e-05,6.411506547010504e-06,-9.243079693987966e-05,-9.197397594107315e-05,0.00041710276855155826,0.0,0.0,0.0,0.0,0.0,0.0,0.0,0.0,0.0,-0.0004244635929353535,-0.0005816614720970392,-0.0,0.0,0.0,0.0,0.0,0.0,0.0,0.0,0.0,0.0,0.0,0.0,0.0,0.0,0.0,0.0,0.0,0.0,0.0,0.0,0.0,0.0,0.0,1.6328701972961426,0.04340804538171078,-0.024896316957193042,0.025658170616468922,0.002288620453327894,-0.001284696743823588,0.0,0.0,0.0,0.0
189,5,1.580524076416623e-05,-1.591271757206414e-05,5.458745363284834e-06,0.0007468547555617988,0.0005685896030627191,0.00028117242618463933,0.0,0.0,0.0,0.0,0.0,0.0,0.0,0.0,0.0,-0.0004244635929353535,-0.0005816614720970392,-0.0,0.0,0.0,0.0,0.0,0.0,0.0,0.0,0.0,0.0,0.0,0.0,0.0,0.0,0.0,0.0,0.0,0.0,0.0,0.0,0.0,0.0,0.0,1.6328701972961426,0.04332017263051833,-0.024723111686224857,0.025679201895311466,0.002288620453327894,-0.001284696743823588,0.0,0.0,0.0,0.0
194,5,2.560360371717252e-06,-1.1312785318295937e-05,1.7721851691021584e-05,-0.0012906435877084732,-0.00032455610926263034,-0.001359103713184595,0.0,0.0,0.0,0.0,0.0,0.0,0.0,0.0,0.0,-0.0007323314785026014,0.0007327421917580068,-0.0,0.0,0.0,0.0,0.0,0.0,0.0,0.0,0.0,0.0,0.0,0.0,0.0,0.0,0.0,0.0,0.0,0.0,0.0,0.0,0.0,0.0,0.0,1.635632038116455,0.043442810504498004,-0.025055570719455623,0.025893192549050544,-0.0028879425954073668,-0.0022202495019882917,-0.0,0.0,0.0,0.0
199,5,8.86711131897755e-06,-6.448423391702818e-06,3.1344141461886466e-05,0.00024055260291788727,-0.0007135458290576935,-0.002178316470235586,0.0,0.0,0.0,0.0,0.0,0.0,0.0,0.0,0.0,-0.0007323314785026014,0.0007327421917580068,-0.0,0.0,0.0,0.0,0.0,0.0,0.0,0.0,0.0,0.0,0.0,0.0,0.0,0.0,0.0,0.0,0.0,0.0,0.0,0.0,0.0,0.0,0.0,1.635632038116455,0.043522845844512256,-0.02494708130096082,0.025713263534318957,-0.0028879425954073668,-0.0022202495019882917,-0.0,0.0,0.0,0.0
205,5,1.3134776054357644e-05,-2.001849134103395e-05,5.866967512702104e-06,0.0006083408952690661,0.0013429897371679544,0.002185934456065297,0.0,0.0,0.0,0.0,0.0,0.0,0.0,0.0,0.0,0.0008719232282601297,0.00024167337687686086,-0.0,0.0,0.0,0.0,0.0,0.0,0.0,0.0,0.0,0.0,0.0,0.0,0.0,0.0,0.0,0.0,0.0,0.0,0.0,0.0,0.0,0.0,0.0,1.6333624124526978,0.04333048228012059,-0.024883381794920653,0.025589675173839414,-0.0009511808748356998,0.002639789367094636,0.0,0.0,0.0,0.0
210,5,8.562989933125209e-06,-1.0024922630691435e-05,3.466511770966463e-05,-0.00030527805211022496,-0.0006620322237722576,-0.0025814042892307043,0.0,0.0,0.0,0.0,0.0,0.0,0.0,0.0,0.0,0.0008719232282601297,0.00024167337687686086,-0.0,0.0,0.0,0.0,0.0,0.0,0.0,0.0,0.0,0.0,0.0,0.0,0.0,0.0,0.0,0.0,0.0,0.0,0.0,0.0,0.0,0.0,0.0,1.6333624124526978,0.043638433785226256,-0.025054073559480576,0.025763844688637717,-0.0009511808748356998,0.002639789367094636,0.0,0.0,0.0,0.0
215,5,9.618208423489705e-06,-1.2519340998551343e-05,1.7714761270326562e-05,4.515014552453067e-06,3.4517215681262314e-05,0.0010014810832217336,0.0,0.0,0.0,0.0,0.0,0.0,0.0,0.0,0.0,0.0008017980144359171,-0.00027887168107554317,-0.0,0.0,0.0,0.0,0.0,0.0,0.0,0.0,0.0,0.0,0.0,0.0,0.0,0.0,0.0,0.0,0.0,0.0,0.0,0.0,0.0,0.0,0.0,1.6329759359359741,0.0433249121285875,-0.02481579178494684,0.0255941309382814,0.0010973267490044236,0.0024269074201583862,0.0,0.0,0.0,0.0
220,5,3.0542585136572598e-06,-7.996811291377526e-06,1.3563194443122484e-05,-0.0007858679164201021,-0.0005288966349326074,0.0008987805340439081,0.0,0.0,0.0,0.0,0.0,0.0,0.0,0.0,0.0,0.0008017980144359171,-0.00027887168107554317,-0.0,0.0,0.0,0.0,0.0,0.0,0.0,0.0,0.0,0.0,0.0,0.0,0.0,0.0,0.0,0.0,0.0,0.0,0.0,0.0,0.0,0.0,0.0,1.6329759359359741,0.04349612881046772,-0.024665352909351464,0.025479235872261898,0.0010973267490044236,0.0024269074201583862,0.0,0.0,0.0,0.0
225,5,6.143364316812949e-06,-6.8444428507064e-06,-9.651746495364932e-07,5.6345510529354215e-05,-0.00034984288504347205,0.0021029163617640734,0.0,0.0,0.0,0.0,0.0,0.0,0.0,0.0,0.0,0.0006396269309334457,-0.0007435287116095424,-0.0,0.0,0.0,0.0,0.0,0.0,0.0,0.0,0.0,0.0,0.0,0.0,0.0,0.0,0.0,0.0,0.0,0.0,0.0,0.0,0.0,0.0,0.0,1.635280728340149,0.04321403546314216,-0.025026230745473117,0.02563271027839554,0.002929826034232974,0.001938775647431612,-0.0,0.0,0.0,0.0
230,5,9.11499864741927e-06,-1.4550194464391097e-05,-6.167124865896767e-06,0.0003791342896874994,0.0007847530068829656,0.0014654005644842982,0.0,0.0,0.0,0.0,0.0,0.0,0.0,0.0,0.0,0.0006396269309334457,-0.0007435287116095424,-0.0,0.0,0.0,0.0,0.0,0.0,0.0,0.0,0.0,0.0,0.0,0.0,0.0,0.0,0.0,0.0,0.0,0.0,0.0,0.0,0.0,0.0,0.0,1.635280728340149,0.04365747501616236,-0.025135331308268873,0.025610210111029527,0.002929826034232974,0.001938775647431612,-0.0,0.0,0.0,0.0
235,5,-4.607803475664696e-06,-5.439833785203518e-06,1.4965787158871535e-05,-0.0014950825134292245,-0.0007793420227244496,-0.001949789235368371,0.0,0.0,0.0,0.0,0.0,0.0,0.0,0.0,0.0,-0.0009977418230846524,0.0003737317456398159,-0.0,0.0,0.0,0.0,0.0,0.0,0.0,0.0,0.0,0.0,0.0,0.0,0.0,0.0,0.0,0.0,0.0,0.0,0.0,0.0,0.0,0.0,0.0,1.634873390197754,0.043578477322497554,-0.02522298283470783,0.025424230579655444,-0.0014722981723025441,-0.003023504978045821,0.0,0.0,0.0,0.0
241,6,-2.900361096180859e-06,-1.0233092325506732e-05,1.8382763300905935e-05,-0.000652068411000073,-0.00018488049681764096,-0.0007811803952790797,0.0,0.0,0.0,0.0,0.0,0.0,0.0,0.0,0.0,-0.0009977418230846524,0.0003737317456398159,-0.0,0.0,0.0,0.0,0.0,0.0,0.0,0.0,0.0,0.0,0.0,0.0,0.0,0.0,0.0,0.0,0.0,0.0,0.0,0.0,0.0,0.0,0.0,1.634873390197754,0.043923561898836554,-0.024806062141747798,0.025644965646493212,-0.0014722981723025441,-0.003023504978045821,0.0,0.0,0.0,0.0
246,5,8.993730261863675e-06,-2.012413096963428e-05,7.854681825847365e-06,0.0011664635967463255,0.0011129723861813545,0.000950897519942373,0.0,0.0,0.0,0.0,0.0,0.0,0.0,0.0,0.0,0.00021027187176514417,-0.0006255092448554933,-0.0,0.0,0.0,0.0,0.0,0.0,0.0,0.0,0.0,0.0,0.0,0.0,0.0,0.0,0.0,0.0,0.0,0.0,0.0,0.0,0.0,0.0,0.0,1.6326454877853394,0.0437983357117448,-0.024808667431957556,0.025559457519627626,0.002460806630551815,0.0006363288266584277,0.0,0.0,0.0,0.0
251,5,8.993730261863675e-06,-2.012413096963428e-05,7.854681825847365e-06,0.0011664635967463255,0.0011129723861813545,0.000950897519942373,0.0,0.0,0.0,0.0,0.0,0.0,0.0,0.0,0.0,0.00021027187176514417,-0.0006255092448554933,-0.0,0.0,0.0,0.0,0.0,0.0,0.0,0.0,0.0,0.0,0.0,0.0,0.0,0.0,0.0,0.0,0.0,0.0,0.0,0.0,0.0,0.0,0.0,1.6326454877853394,0.0437983357117448,-0.024808667431957556,0.025559457519627626,0.002460806630551815,0.0006363288266584277,0.0,0.0,0.0,0.0
256,5,7.3529531618987676e-06,-1.7413010937161744e-05,3.9462465792894363e-05,0.00037435005651786923,0.0003877354902215302,-0.0018166525987908244,0.0,0.0,0.0,0.0,0.0,0.0,0.0,0.0,0.0,-0.001407535863108933,0.0011178537970408797,-0.0,0.0,0.0,0.0,0.0,0.0,0.0,0.0,0.0,0.0,0.0,0.0,0.0,0.0,0.0,0.0,0.0,0.0,0.0,0.0,0.0,0.0,0.0,1.6424503326416016,0.043564624021408836,-0.025038247316635644,0.025623918605790642,-0.004424137528985739,-0.0042850906029343605,-0.0,0.0,0.0,0.0
261,5,1.5798108506714925e-05,-1.2700013940047938e-05,2.806807060551364e-05,0.0011631586821749806,-0.00041046549449674785,0.0006406664033420384,0.0,0.0,0.0,0.0,0.0,0.0,0.0,0.0,0.0,-0.001407535863108933,0.0011178537970408797,-0.0,0.0,0.0,0.0,0.0,0.0,0.0,0.0,0.0,0.0,0.0,0.0,0.0,0.0,0.0,0.0,0.0,0.0,0.0,0.0,0.0,0.0,0.0,1.6424503326416016,0.043738346223845086,-0.02508517924851904,0.025761182906314743,-0.004424137528985739,-0.0042850906029343605,-0.0,0.0,0.0,0.0
266,5,1.4922695299901534e-05,-1.1972047104791272e-05,2.628102265589405e-05,0.00036021380219608545,-0.00025154228205792606,0.0004707122570835054,0.0,0.0,0.0,0.0,0.0,0.0,0.0,0.0,0.0,0.0004835669824387878,0.0011269304668530822,-0.0,0.0,0.0,0.0,0.0,0.0,0.0,0.0,0.0,0.0,0.0,0.0,0.0,0.0,0.0,0.0,0.0,0.0,0.0,0.0,0.0,0.0,0.0,1.638458013534546,0.04318989284030865,-0.02503567295318188,0.025814553124297493,-0.004449223168194294,0.0014685896458104253,-0.0,0.0,0.0,0.0
271,5,1.3693172149942257e-05,-2.038462298514787e-05,1.2306334610912018e-05,-3.4572619824757567e-06,0.000908892136067152,0.0018652474973350763,0.0,0.0,0.0,0.0,0.0,0.0,0.0,0.0,0.0,0.0004835669824387878,0.0011269304668530822,-0.0,0.0,0.0,0.0,0.0,0.0,0.0,0.0,0.0,0.0,0.0,0.0,0.0,0.0,0.0,0.0,0.0,0.0,0.0,0.0,0.0,0.0,0.0,1.638458013534546,0.04386223156136258,-0.025083747507965555,0.02562271743922353,-0.004449223168194294,0.0014685896458104253,-0.0,0.0,0.0,0.0
276,5,2.368376044614706e-06,-1.1690708561218344e-05,1.75370296346955e-05,-0.0013603584375232458,-0.0006797128007747233,0.00011841568630188704,0.0,0.0,0.0,0.0,0.0,0.0,0.0,0.0,0.0,-0.0011617179261520505,1.5958499716361985e-05,-0.0,0.0,0.0,0.0,0.0,0.0,0.0,0.0,0.0,0.0,0.0,0.0,0.0,0.0,0.0,0.0,0.0,0.0,0.0,0.0,0.0,0.0,0.0,1.635304570198059,0.04378119861458743,-0.024890561492687223,0.025777316534608713,-6.288431177381426e-05,-0.003521338105201721,-0.0,0.0,0.0,0.0
282,5,1.0500873941055033e-05,-1.6519719792995602e-05,-5.438286279968452e-06,0.0004317563434597105,0.0003075961722061038,0.0028044041246175766,0.0,0.0,0.0,0.0,0.0,0.0,0.0,0.0,0.0,-0.0011617179261520505,1.5958499716361985e-05,-0.0,0.0,0.0,0.0,0.0,0.0,0.0,0.0,0.0,0.0,0.0,0.0,0.0,0.0,0.0,0.0,0.0,0.0,0.0,0.0,0.0,0.0,0.0,1.635304570198059,0.04357270838322307,-0.024715120870102896,0.025556463853613483,-6.288431177381426e-05,-0.003521338105201721,-0.0,0.0,0.0,0.0
287,5,-8.163373763636628e-07,-8.448294465779327e-06,2.5658364393166266e-06,-0.0011853628093376756,-0.0008455325150862336,0.0001612669148016721,0.0,0.0,0.0,0.0,0.0,0.0,0.0,0.0,0.0,-0.0011617179261520505,1.5958499716361985e-05,-0.0,0.0,0.0,0.0,0.0,0.0,0.0,0.0,0.0,0.0,0.0,0.0,0.0,0.0,0.0,0.0,0.0,0.0,0.0,0.0,0.0,0.0,0.0,1.635304570198059,0.04329809841725571,-0.025020413092976233,0.025864020570341456,0.004449066706001759,0.0031233744230121374,-0.0,0.0,0.0,0.0
292,5,3.247127551730955e-06,-1.2895686268166173e-05,-6.648150474575232e-07,1.3470670637616422e-05,0.0001954740146175027,0.0004521849623415619,0.0,0.0,0.0,0.0,0.0,0.0,0.0,0.0,0.0,0.0010271682403981686,-0.0011254942510277033,-0.0,0.0,0.0,0.0,0.0,0.0,0.0,0.0,0.0,0.0,0.0,0.0,0.0,0.0,0.0,0.0,0.0,0.0,0.0,0.0,0.0,0.0,0.0,1.6404917240142822,0.043578715361757774,-0.024742920593148532,0.02565929373040677,0.004449066706001759,0.0031233744230121374,-0.0,0.0,0.0,0.0
297,5,9.147958735411521e-06,-7.927525984996464e-06,2.162028249586001e-05,0.0007134880288504064,-0.000517989625222981,-0.0024933377280831337,0.0,0.0,0.0,0.0,0.0,0.0,0.0,0.0,0.0,0.0006263484247028828,0.0006921380409039557,-0.0,0.0,0.0,0.0,0.0,0.0,0.0,0.0,0.0,0.0,0.0,0.0,0.0,0.0,0.0,0.0,0.0,0.0,0.0,0.0,0.0,0.0,0.0,1.634762167930603,0.04322230042107886,-0.024994326917561403,0.0257162889611798,-0.0027264596428722143,0.001897925161756575,0.0,0.0,0.0,0.0
302,5,6.436507192120189e-06,-1.2111223441024777e-05,2.295213380421046e-05,-3.9978960558073595e-05,0.00029484782135114074,-0.0011571572395041585,0.0,0.0,0.0,0.0,0.0,0.0,0.0,0.0,0.0,0.0006263484247028828,0.0006921380409039557,-0.0,0.0,0.0,0.0,0.0,0.0,0.0,0.0,0.0,0.0,0.0,0.0,0.0,0.0,0.0,0.0,0.0,0.0,0.0,0.0,0.0,0.0,0.0,1.634762167930603,0.043270388901205256,-0.025162002311325093,0.02573754279744034,-0.0027264596428722143,0.001897925161756575,0.0,0.0,0.0,0.0
307,5,1.1600865946093109e-05,-1.213326868310105e-05,3.18321654049214e-05,0.0006037314306013286,0.0001205845401273109,-0.001528466702438891,0.0,0.0,0.0,0.0,0.0,0.0,0.0,0.0,0.0,-0.0001718437415547669,0.0005920074763707817,-0.0,0.0,0.0,0.0,0.0,0.0,0.0,0.0,0.0,0.0,0.0,0.0,0.0,0.0,0.0,0.0,0.0,0.0,0.0,0.0,0.0,0.0,0.0,1.6322221755981445,0.04366623432166914,-0.025311290569778662,0.02583367830907173,-0.0023284039925783873,-0.000519902037922293,0.0,0.0,0.0,0.0
312,5,2.3670367227168754e-05,-2.1889392883167602e-05,1.720424734230619e-05,0.001689832890406251,0.0012189687695354223,0.0011439635418355465,0.0,0.0,0.0,0.0,0.0,0.0,0.0,0.0,0.0,-0.0001718437415547669,0.0005920074763707817,-0.0,0.0,0.0,0.0,0.0,0.0,0.0,0.0,0.0,0.0,0.0,0.0,0.0,0.0,0.0,0.0,0.0,0.0,0.0,0.0,0.0,0.0,0.0,1.6322221755981445,0.04396857601937327,-0.02513177215851188,0.025778737498941266,-0.0023284039925783873,-0.000519902037922293,0.0,0.0,0.0,0.0
317,5,1.7415382899343967e-05,-2.0648056306526996e-05,1.6221874830080196e-05,-7.466497481800616e-05,0.00033862708369269967,0.0005754702142439783,0.0,0.0,0.0,0.0,0.0,0.0,0.0,0.0,0.0,-0.00045836271601729095,-4.674322917708196e-05,-0.0,0.0,0.0,0.0,0.0,0.0,0.0,0.0,0.0,0.0,0.0,0.0,0.0,0.0,0.0,0.0,0.0,0.0,0.0,0.0,0.0,0.0,0.0,1.6295371055603027,0.04385586634169844,-0.02500121105569607,0.025744832069203093,0.00018354173516854644,-0.0013844652567058802,-0.0,0.0,0.0,0.0
322,5,-3.2222590107267024e-07,-7.370294042630121e-06,2.9003296731389128e-05,-0.0021583791822195053,-0.0014578806003555655,-0.0013035825686529279,0.0,0.0,0.0,0.0,0.0,0.0,0.0,0.0,0.0,-0.00045836271601729095,-4.674322917708196e-05,-0.0,0.0,0.0,0.0,0.0,0.0,0.0,0.0,0.0,0.0,0.0,0.0,0.0,0.0,0.0,0.0,0.0,0.0,0.0,0.0,0.0,0.0,0.0,1.6295371055603027,0.04348442078921055,-0.024936169488309335,0.025995342684511417,0.00018354173516854644,-0.0013844652567058802,-0.0,0.0,0.0,0.0
327,5,1.5342131518991664e-05,-1.98560010176152e-05,4.251865846072178e-07,0.0010163711849600077,0.0009151325793936849,0.002907940186560154,0.0,0.0,0.0,0.0,0.0,0.0,0.0,0.0,0.0,-0.001165191177278757,0.0009859853889793158,-0.0,0.0,0.0,0.0,0.0,0.0,0.0,0.0,0.0,0.0,0.0,0.0,0.0,0.0,0.0,0.0,0.0,0.0,0.0,0.0,0.0,0.0,0.0,1.6400309801101685,0.04305848793847171,-0.025063794828025895,0.025769882576461896,-0.0038964946288615465,-0.003542074002325535,-0.0,0.0,0.0,0.0
332,5,3.007665327459108e-06,-9.50582034420222e-06,4.2902906898234505e-06,-0.001073587452992797,-0.0008759686024859548,0.0006993635324761271,0.0,0.0,0.0,0.0,0.0,0.0,0.0,0.0,0.0,-0.001165191177278757,0.0009859853889793158,-0.0,0.0,0.0,0.0,0.0,0.0,0.0,0.0,0.0,0.0,0.0,0.0,0.0,0.0,0.0,0.0,0.0,0.0,0.0,0.0,0.0,0.0,0.0,1.6400309801101685,0.04347256138320299,-0.02499846896519298,0.025700919129945342,-0.0038964946288615465,-0.003542074002325535,-0.0,0.0,0.0,0.0
337,5,1.6987781918942346e-06,-8.044741662160959e-06,1.3263289474707562e-05,-0.000586501439101994,-0.0005257169832475483,-0.0007970143924467266,0.0,0.0,0.0,0.0,0.0,0.0,0.0,0.0,0.0,-0.001165191177278757,0.0009859853889793158,-0.0,0.0,0.0,0.0,0.0,0.0,0.0,0.0,0.0,0.0,0.0,0.0,0.0,0.0,0.0,0.0,0.0,0.0,0.0,0.0,0.0,0.0,0.0,1.6400309801101685,0.04328485372136669,-0.025008179471349434,0.025752826644486162,-0.0038964946288615465,-0.003542074002325535,-0.0,0.0,0.0,0.0
343,5,-1.3653884707309771e-06,-3.873720743285958e-06,1.3647373634739779e-05,-0.0006023005698807538,-0.0007108092540875077,-0.00036489591002464294,0.0,0.0,0.0,0.0,0.0,0.0,0.0,0.0,0.0,0.0006360572297126055,-0.0005561521975323558,-0.0,0.0,0.0,0.0,0.0,0.0,0.0,0.0,0.0,0.0,0.0,0.0,0.0,0.0,0.0,0.0,0.0,0.0,0.0,0.0,0.0,0.0,0.0,1.6336607933044434,0.04368495290064747,-0.024865499257108046,0.025520483040417527,0.0021893102675676346,0.0019260456319898367,0.0,0.0,0.0,0.0
348,5,2.435046781101846e-06,-6.778591796319233e-06,1.8001933312916663e-06,0.00021513199317269027,6.426081381505355e-05,0.0012757033109664917,0.0,0.0,0.0,0.0,0.0,0.0,0.0,0.0,0.0,0.0006360572297126055,-0.0005561521975323558,-0.0,0.0,0.0,0.0,0.0,0.0,0.0,0.0,0.0,0.0,0.0,0.0,0.0,0.0,0.0,0.0,0.0,0.0,0.0,0.0,0.0,0.0,0.0,1.6336607933044434,0.04368816967333476,-0.024869395079959,0.025750715032108042,0.0021893102675676346,0.0019260456319898367,0.0,0.0,0.0,0.0
353,5,2.069665470116888e-06,-9.077722097572405e-06,4.23641631641658e-06,4.220705523039214e-05,0.0003015999391209334,0.00021793454652652144,0.0,0.0,0.0,0.0,0.0,0.0,0.0,0.0,0.0,-9.257398050976917e-05,0.0002091929636662826,-0.0,0.0,0.0,0.0,0.0,0.0,0.0,0.0,0.0,0.0,0.0,0.0,0.0,0.0,0.0,0.0,0.0,0.0,0.0,0.0,0.0,0.0,0.0,1.6284600496292114,0.04337115946424715,-0.02507845354713036,0.025766007100380538,-0.0008208731887862086,-0.0002794309984892607,-0.0,0.0,0.0,0.0
358,5,1.78420282281877e-06,-1.9637658624560572e-05,2.407547799521126e-05,-1.7372694856021553e-05,0.0013878324534744024,-0.002293513622134924,0.0,0.0,0.0,0.0,0.0,0.0,0.0,0.0,0.0,-9.257398050976917e-05,0.0002091929636662826,-0.0,0.0,0.0,0.0,0.0,0.0,0.0,0.0,0.0,0.0,0.0,0.0,0.0,0.0,0.0,0.0,0.0,0.0,0.0,0.0,0.0,0.0,0.0,1.6284600496292114,0.043497928036116344,-0.025012562200576818,0.025489529953043873,-0.0008208731887862086,-0.0002794309984892607,-0.0,0.0,0.0,0.0
363,5,8.146253094309941e-06,-1.4130021554592531e-05,2.789277641568333e-05,0.0007564969710074365,-0.00010578356886981055,-0.001375481253489852,0.0,0.0,0.0,0.0,0.0,0.0,0.0,0.0,0.0,-0.0017478151712566614,-1.3813290024700109e-05,-0.0,0.0,0.0,0.0,0.0,0.0,0.0,0.0,0.0,0.0,0.0,0.0,0.0,0.0,0.0,0.0,0.0,0.0,0.0,0.0,0.0,0.0,0.0,1.6401617527008057,0.04377035407503586,-0.024989851932239942,0.02562495324018565,5.4592761443927884e-05,-0.00531361810863018,0.0,0.0,0.0,0.0
368,5,1.4957288840378169e-05,-1.980898559850175e-05,8.434733899775892e-06,0.0011199229629710317,0.0006391623173840344,0.001784772495739162,0.0,0.0,0.0,0.0,0.0,0.0,0.0,0.0,0.0,-0.0017478151712566614,-1.3813290024700109e-05,-0.0,0.0,0.0,0.0,0.0,0.0,0.0,0.0,0.0,0.0,0.0,0.0,0.0,0.0,0.0,0.0,0.0,0.0,0.0,0.0,0.0,0.0,0.0,1.6401617527008057,0.043652668657480506,-0.025126852623631298,0.025763185296612305,5.4592761443927884e-05,-0.00531361810863018,0.0,0.0,0.0,0.0
373,5,9.095050046425968e-08,-8.140335012285504e-06,2.0952724298695102e-05,-0.0013359913136810064,-0.0011445732088759542,-0.000788249890320003,0.0,0.0,0.0,0.0,0.0,0.0,0.0,0.0,0.0,-0.0008251476683653891,0.0010842729825526476,-0.0,0.0,0.0,0.0,0.0,0.0,0.0,0.0,0.0,0.0,0.0,0.0,0.0,0.0,0.0,0.0,0.0,0.0,0.0,0.0,0.0,0.0,0.0,1.639209508895874,0.04389986242089424,-0.025027900781679664,0.025689431871310883,-0.004282770212739706,-0.0025071168784052134,-0.0,0.0,0.0,0.0
378,5,5.906480055273278e-06,-1.1149059901072178e-05,1.5022474144643638e-05,0.00016346703341696411,-9.678231435827911e-05,0.00039633011328987777,0.0,0.0,0.0,0.0,0.0,0.0,0.0,0.0,0.0,-0.0008251476683653891,0.0010842729825526476,-0.0,0.0,0.0,0.0,0.0,0.0,0.0,0.0,0.0,0.0,0.0,0.0,0.0,0.0,0.0,0.0,0.0,0.0,0.0,0.0,0.0,0.0,0.0,1.639209508895874,0.04382357046113415,-0.025224450289894902,0.025774539380773773,-0.004282770212739706,-0.0025071168784052134,-0.0,0.0,0.0,0.0
383,5,2.5056251615751535e-06,-5.918097940593725e-06,1.4250842468754854e-05,-0.0003427158226259053,-0.0006664282991550863,0.00025112787261605263,0.0,0.0,0.0,0.0,0.0,0.0,0.0,0.0,0.0,9.947652142727748e-05,0.00016470483387820423,-0.0,0.0,0.0,0.0,0.0,0.0,0.0,0.0,0.0,0.0,0.0,0.0,0.0,0.0,0.0,0.0,0.0,0.0,0.0,0.0,0.0,0.0,0.0,1.6284600496292114,0.0439628978735554,-0.025063630508160465,0.025627684381802258,-0.0006463017780333757,0.0003002660523634404,-0.0,0.0,0.0,0.0
388,5,2.1551570625888417e-06,-1.6295913155772723e-05,7.168468073359691e-06,-0.00017914248746819794,0.0009787664748728275,0.0009503361070528626,0.0,0.0,0.0,0.0,0.0,0.0,0.0,0.0,0.0,9.947652142727748e-05,0.00016470483387820423,-0.0,0.0,0.0,0.0,0.0,0.0,0.0,0.0,0.0,0.0,0.0,0.0,0.0,0.0,0.0,0.0,0.0,0.0,0.0,0.0,0.0,0.0,0.0,1.6284600496292114,0.04407444454000622,-0.024768177737509896,0.02571376299090762,-0.0006463017780333757,0.0003002660523634404,-0.0,0.0,0.0,0.0
393,5,5.0550584091979545e-06,-1.6572137610637583e-05,6.7981927713844925e-06,0.0002763311786111444,0.0004246535827405751,0.0004245674645062536,0.0,0.0,0.0,0.0,0.0,0.0,0.0,0.0,0.0,9.947652142727748e-05,0.00016470483387820423,-0.0,0.0,0.0,0.0,0.0,0.0,0.0,0.0,0.0,0.0,0.0,0.0,0.0,0.0,0.0,0.0,0.0,0.0,0.0,0.0,0.0,0.0,0.0,1.6284600496292114,0.04363665248525716,-0.02476799067272499,0.02574030089523072,-0.0006463017780333757,0.0003002660523634404,-0.0,0.0,0.0,0.0
398,5,4.271904344932409e-06,-1.4042051589058246e-05,3.6455862755246926e-06,1.6553958630538546e-05,-0.0001337489375146106,0.0005481397383846343,0.0,0.0,0.0,0.0,0.0,0.0,0.0,0.0,0.0,-0.0005573095986619592,0.00027092674281448126,-0.0,0.0,0.0,0.0,0.0,0.0,0.0,0.0,0.0,0.0,0.0,0.0,0.0,0.0,0.0,0.0,0.0,0.0,0.0,0.0,0.0,0.0,0.0,1.6311571598052979,0.0436037625883384,-0.024629783796514468,0.02570895287314565,-0.0010648771421983838,-0.0016850035171955824,-0.0,0.0,0.0,0.0
403,5,-3.503306061247713e-06,-1.347877969237743e-05,1.2008573321509175e-05,-0.000926403678022325,-0.00012109217641409487,-0.0007843024795874953,0.0,0.0,0.0,0.0,0.0,0.0,0.0,0.0,0.0,-0.0005573095986619592,0.00027092674281448126,-0.0,0.0,0.0,0.0,0.0,0.0,0.0,0.0,0.0,0.0,0.0,0.0,0.0,0.0,0.0,0.0,0.0,0.0,0.0,0.0,0.0,0.0,0.0,1.6311571598052979,0.04363157398524468,-0.02484049684757242,0.025454899761315465,-0.0010648771421983838,-0.0016850035171955824,-0.0,0.0,0.0,0.0
408,5,1.0354083315178286e-05,-1.9862196495523676e-05,2.8257773010409437e-06,0.001292325323447585,0.0007175731589086354,0.0007882144418545067,0.0,0.0,0.0,0.0,0.0,0.0,0.0,0.0,0.0,0.00012487516505643725,-0.0008863142575137317,-0.0,0.0,0.0,0.0,0.0,0.0,0.0,0.0,0.0,0.0,0.0,0.0,0.0,0.0,0.0,0.0,0.0,0.0,0.0,0.0,0.0,0.0,0.0,1.6352797746658325,0.04345708313224084,-0.024748721969018495,0.025567462541481265,0.0034924617502838373,0.0003785094013437629,0.0,0.0,0.0,0.0
413,5,4.4751682253263425e-06,-1.0443231985846069e-05,1.4137702237349004e-05,-0.0001885397214209661,-0.0008432464674115181,-0.0010421453043818474,0.0,0.0,0.0,0.0,0.0,0.0,0.0,0.0,0.0,0.00012487516505643725,-0.0008863142575137317,-0.0,0.0,0.0,0.0,0.0,0.0,0.0,0.0,0.0,0.0,0.0,0.0,0.0,0.0,0.0,0.0,0.0,0.0,0.0,0.0,0.0,0.0,0.0,1.6352797746658325,0.04344482242720368,-0.024899180551459663,0.025508669845084406,0.0034924617502838373,0.0003785094013437629,0.0,0.0,0.0,0.0
418,5,2.4415769530605758e-06,-3.88716216548346e-06,2.790922371787019e-05,-0.0003194468154106289,-0.0011240269523113966,-0.002069440670311451,0.0,0.0,0.0,0.0,0.0,0.0,0.0,0.0,0.0,0.0010243718279525638,-0.00017306588415522128,-0.0,0.0,0.0,0.0,0.0,0.0,0.0,0.0,0.0,0.0,0.0,0.0,0.0,0.0,0.0,0.0,0.0,0.0,0.0,0.0,0.0,0.0,0.0,1.6343697309494019,0.04367272958755516,-0.025483067087393493,0.025844476581050692,0.0006815746892243624,0.0031032469123601913,0.0,0.0,0.0,0.0
424,5,4.870872999163112e-06,-8.891064680938143e-06,1.8839287804439664e-05,0.0001637368113733828,0.00015085744962561876,0.00026061604148708284,0.0,0.0,0.0,0.0,0.0,0.0,0.0,0.0,0.0,-0.0002041228290181607,0.00016352083184756339,-0.0,0.0,0.0,0.0,0.0,0.0,0.0,0.0,0.0,0.0,0.0,0.0,0.0,0.0,0.0,0.0,0.0,0.0,0.0,0.0,0.0,0.0,0.0,1.6284600496292114,0.043636955946799755,-0.025467054211047196,0.025816886791384778,-0.0006416557589545846,-0.0006161369383335114,-0.0,0.0,0.0,0.0
429,5,1.1773306141549256e-05,-9.900687473418657e-06,1.2925247574457899e-05,0.0008937866659834981,0.00018149777315557003,0.0008139313431456685,0.0,0.0,0.0,0.0,0.0,0.0,0.0,0.0,0.0,-0.0002041228290181607,0.00016352083184756339,-0.0,0.0,0.0,0.0,0.0,0.0,0.0,0.0,0.0,0.0,0.0,0.0,0.0,0.0,0.0,0.0,0.0,0.0,0.0,0.0,0.0,0.0,0.0,1.6284600496292114,0.043667209796834944,-0.024963239989633405,0.025724760226327047,-0.0006416557589545846,-0.0006161369383335114,-0.0,0.0,0.0,0.0
434,5,-3.5149332688888535e-06,-7.166543582570739e-06,2.033389864664059e-05,-0.0014770739944651723,-0.00025549819110892713,-0.0005634655244648457,0.0,0.0,0.0,0.0,0.0,0.0,0.0,0.0,0.0,-0.0002041228290181607,0.00016352083184756339,-0.0,0.0,0.0,0.0,0.0,0.0,0.0,0.0,0.0,0.0,0.0,0.0,0.0,0.0,0.0,0.0,0.0,0.0,0.0,0.0,0.0,0.0,0.0,1.6284600496292114,0.0438152452292262,-0.025207751108550596,0.02573682348515128,-0.0006416557589545846,-0.0006161369383335114,-0.0,0.0,0.0,0.0
439,5,9.879539902613033e-06,-1.846883060352411e-05,1.3325654890650185e-06,0.0010165071580559015,0.0012540752068161964,0.002054773736745119,0.0,0.0,0.0,0.0,0.0,0.0,0.0,0.0,0.0,0.00030152263934724033,-0.0014054462080821395,-0.0,0.0,0.0,0.0,0.0,0.0,0.0,0.0,0.0,0.0,0.0,0.0,0.0,0.0,0.0,0.0,0.0,0.0,0.0,0.0,0.0,0.0,0.0,1.6410242319107056,0.04352147360011038,-0.0249466669934711,0.02571809937377176,0.005557518918067217,0.000917156517971307,0.0,0.0,0.0,0.0
444,5,6.187859980855137e-06,-1.4981094864197075e-05,1.039834114635596e-05,-3.639872738858685e-05,8.310181874549016e-05,-0.00026598357362672687,0.0,0.0,0.0,0.0,0.0,0.0,0.0,0.0,0.0,0.00030152263934724033,-0.0014054462080821395,-0.0,0.0,0.0,0.0,0.0,0.0,0.0,0.0,0.0,0.0,0.0,0.0,0.0,0.0,0.0,0.0,0.0,0.0,0.0,0.0,0.0,0.0,0.0,1.6410242319107056,0.043812576448410565,-0.024790730622602525,0.025722252648323087,0.005557518918067217,0.000917156517971307,0.0,0.0,0.0,0.0
449,5,8.40074153529713e-06,-7.894959708210081e-06,2.16987136809621e-05,0.00025098625337705016,-0.0008170955698005855,-0.0014624381437897682,0.0,0.0,0.0,0.0,0.0,0.0,0.0,0.0,0.0,-0.00013106875121593475,-2.5891882614814676e-05,-0.0,0.0,0.0,0.0,0.0,0.0,0.0,0.0,0.0,0.0,0.0,0.0,0.0,0.0,0.0,0.0,0.0,0.0,0.0,0.0,0.0,0.0,0.0,1.6284600496292114,0.043456713566862454,-0.02489403179385657,0.025750848204484547,0.0001015997477225028,-0.000395626004319638,0.0,0.0,0.0,0.0
454,5,5.923204298596829e-06,-1.0584439223748632e-05,1.2395013072818983e-05,-0.00019690993940457702,-4.100607839063741e-06,0.0005314688314683735,0.0,0.0,0.0,0.0,0.0,0.0,0.0,0.0,0.0,-0.00013106875121593475,-2.5891882614814676e-05,-0.0,0.0,0.0,0.0,0.0,0.0,0.0,0.0,0.0,0.0,0.0,0.0,0.0,0.0,0.0,0.0,0.0,0.0,0.0,0.0,0.0,0.0,0.0,1.6284600496292114,0.04359837915833307,-0.024570453964176554,0.025512670779379243,0.0001015997477225028,-0.000395626004319638,0.0,0.0,0.0,0.0
459,5,-8.17652676232683e-07,-2.949557938336511e-06,2.6649993742466904e-05,-0.000887666828930378,-0.0009178260224871337,-0.00149801024235785,0.0,0.0,0.0,0.0,0.0,0.0,0.0,0.0,0.0,-1.4733444913872518e-05,-0.00017965128063224256,-0.0,0.0,0.0,0.0,0.0,0.0,0.0,0.0,0.0,0.0,0.0,0.0,0.0,0.0,0.0,0.0,0.0,0.0,0.0,0.0,0.0,0.0,0.0,1.6284600496292114,0.0434796374901101,-0.025070493897601707,0.02575009579296306,0.0007049516425468028,-4.447233732207678e-05,-0.0,0.0,0.0,0.0
464,5,7.371093033725629e-06,-8.603040441812482e-06,2.6543466447037645e-06,0.0006275827763602138,0.00031128752743825316,0.0022802737075835466,0.0,0.0,0.0,0.0,0.0,0.0,0.0,0.0,0.0,-1.4733444913872518e-05,-0.00017965128063224256,-0.0,0.0,0.0,0.0,0.0,0.0,0.0,0.0,0.0,0.0,0.0,0.0,0.0,0.0,0.0,0.0,0.0,0.0,0.0,0.0,0.0,0.0,0.0,1.6284600496292114,0.04397040322586312,-0.024876051565945606,0.02573596769570063,0.0007049516425468028,-4.447233732207678e-05,-0.0,0.0,0.0,0.0
469,5,-1.8908401955286536e-07,-3.7722204524470726e-06,-4.992370122636203e-06,-0.0006561881746165454,-0.0004551834426820278,0.001829715445637703,0.0,0.0,0.0,0.0,0.0,0.0,0.0,0.0,0.0,-0.00040182765224017203,0.0006086068460717797,-0.0,0.0,0.0,0.0,0.0,0.0,0.0,0.0,0.0,0.0,0.0,0.0,0.0,0.0,0.0,0.0,0.0,0.0,0.0,0.0,0.0,0.0,0.0,1.6330370903015137,0.043394822011825304,-0.02492211227079017,0.025641419954048582,-0.002394885290414095,-0.0012163103092461824,-0.0,0.0,0.0,0.0
474,5,-8.402620551350992e-06,-7.633928362338338e-06,1.373230497847544e-05,-0.0012480997247621417,0.00028133162413723767,-0.0015150748658925295,0.0,0.0,0.0,0.0,0.0,0.0,0.0,0.0,0.0,-0.00040182765224017203,0.0006086068460717797,-0.0,0.0,0.0,0.0,0.0,0.0,0.0,0.0,0.0,0.0,0.0,0.0,0.0,0.0,0.0,0.0,0.0,0.0,0.0,0.0,0.0,0.0,0.0,1.6330370903015137,0.04339695020198855,-0.025063870410176943,0.025532339243575064,-0.002394885290414095,-0.0012163103092461824,-0.0,0.0,0.0,0.0
479,5,-8.447519576293416e-06,-1.1365092177584302e-05,2.0008577848784626e-05,-0.0005046276492066681,0.0005602723103947937,-0.0013591826427727938,0.0,0.0,0.0,0.0,0.0,0.0,0.0,0.0,0.0,-0.0003616636386141181,-0.0011966314632445574,-0.0,0.0,0.0,0.0,0.0,0.0,0.0,0.0,0.0,0.0,0.0,0.0,0.0,0.0,0.0,0.0,0.0,0.0,0.0,0.0,0.0,0.0,0.0,1.638908863067627,0.04329535094674604,-0.025269005252912344,0.025922124373373802,0.004725709091871977,-0.0010986722772940993,0.0,0.0,0.0,0.0
484,5,-2.533487531763967e-06,-1.683523805695586e-05,1.7543310605105944e-05,0.0005078327376395464,0.000880526436958462,-0.0002478409733157605,0.0,0.0,0.0,0.0,0.0,0.0,0.0,0.0,0.0,-0.0003616636386141181,-0.0011966314632445574,-0.0,0.0,0.0,0.0,0.0,0.0,0.0,0.0,0.0,0.0,0.0,0.0,0.0,0.0,0.0,0.0,0.0,0.0,0.0,0.0,0.0,0.0,0.0,1.638908863067627,0.044090908160837994,-0.02491625909124011,0.025529984204987803,0.004725709091871977,-0.0010986722772940993,0.0,0.0,0.0,0.0
490,5,5.72692442801781e-06,-1.7358135664835572e-05,1.2854349733970594e-05,0.0011943825520575047,0.0004149581945966929,0.00046353883226402104,0.0,0.0,0.0,0.0,0.0,0.0,0.0,0.0,0.0,-0.0011197944404557347,0.00047967725549824536,-0.0,0.0,0.0,0.0,0.0,0.0,0.0,0.0,0.0,0.0,0.0,0.0,0.0,0.0,0.0,0.0,0.0,0.0,0.0,0.0,0.0,0.0,0.0,1.6362956762313843,0.04409896649060465,-0.02523991542021567,0.02583134685121404,-0.0018913090461865067,-0.003396318992599845,0.0,0.0,0.0,0.0
495,5,1.5175635780906305e-05,-1.2413287549861707e-05,1.768042056937702e-05,0.001611598301678896,-0.00042739842319861054,-0.000393712951336056,0.0,0.0,0.0,0.0,0.0,0.0,0.0,0.0,0.0,-0.0011197944404557347,0.00047967725549824536,-0.0,0.0,0.0,0.0,0.0,0.0,0.0,0.0,0.0,0.0,0.0,0.0,0.0,0.0,0.0,0.0,0.0,0.0,0.0,0.0,0.0,0.0,0.0,1.6362956762313843,0.0438883579319729,-0.024817046316008742,0.025538268722253506,-0.0018913090461865067,-0.003396318992599845,0.0,0.0,0.0,0.0
500,5,1.0943928828055505e-05,-1.456107656849781e-05,3.300030220998451e-05,0.0001368345256196335,8.677522419020534e-05,-0.001995871076360345,0.0,0.0,0.0,0.0,0.0,0.0,0.0,0.0,0.0,0.0005033119232393801,0.0015479394933208823,-0.0,0.0,0.0,0.0,0.0,0.0,0.0,0.0,0.0,0.0,0.0,0.0,0.0,0.0,0.0,0.0,0.0,0.0,0.0,0.0,0.0,0.0,0.0,1.642876148223877,0.04360660104816093,-0.025214595093877898,0.025634095948136194,-0.006127883214503527,0.0015326766297221184,0.0,0.0,0.0,0.0
505,5,1.8429604097036645e-05,-2.0015857444377616e-05,1.873477958724834e-05,0.0009530147654004395,0.0006892838282510638,0.0009135142900049686,0.0,0.0,0.0,0.0,0.0,0.0,0.0,0.0,0.0,0.0005033119232393801,0.0015479394933208823,-0.0,0.0,0.0,0.0,0.0,0.0,0.0,0.0,0.0,0.0,0.0,0.0,0.0,0.0,0.0,0.0,0.0,0.0,0.0,0.0,0.0,0.0,0.0,1.642876148223877,0.04364263515899453,-0.025089084175526737,0.02604197018133551,-0.006127883214503527,0.0015326766297221184,0.0,0.0,0.0,0.0
510,5,1.2060418157489039e-05,-5.343904376786668e-06,3.194918826920912e-05,-0.00038309639785438776,-0.001484920852817595,-0.0012203231453895569,0.0,0.0,0.0,0.0,0.0,0.0,0.0,0.0,0.0,-0.0008881576359272003,0.0009313169866800308,-0.0,0.0,0.0,0.0,0.0,0.0,0.0,0.0,0.0,0.0,0.0,0.0,0.0,0.0,0.0,0.0,0.0,0.0,0.0,0.0,0.0,0.0,0.0,1.638116478919983,0.0434392649311607,-0.024739711430516575,0.02584438414164936,-0.0036761562805622816,-0.0026967660523951054,-0.0,0.0,0.0,0.0
515,5,3.968863438785775e-06,-5.7682013903104234e-06,1.6875894289114513e-05,-0.001124225091189146,-0.0005430526798591018,0.0013206659350544214,0.0,0.0,0.0,0.0,0.0,0.0,0.0,0.0,0.0,-0.0008881576359272003,0.0009313169866800308,-0.0,0.0,0.0,0.0,0.0,0.0,0.0,0.0,0.0,0.0,0.0,0.0,0.0,0.0,0.0,0.0,0.0,0.0,0.0,0.0,0.0,0.0,0.0,1.638116478919983,0.04315366793124936,-0.024897523260341066,0.02564792512813376,-0.0036761562805622816,-0.0026967660523951054,-0.0,0.0,0.0,0.0
520,5,-3.139272394037107e-06,-9.967797268473078e-06,-7.571973696940404e-07,-0.001302666263654828,0.00028673047199845314,0.0026442373637109995,0.0,0.0,0.0,0.0,0.0,0.0,0.0,0.0,0.0,-0.0008881576359272003,0.0009313169866800308,-0.0,0.0,0.0,0.0,0.0,0.0,0.0,0.0,0.0,0.0,0.0,0.0,0.0,0.0,0.0,0.0,0.0,0.0,0.0,0.0,0.0,0.0,0.0,1.638116478919983,0.04365926627506876,-0.025029625548872596,0.025766651926826777,0.004862167872488499,-0.0011088490718975663,-0.0,0.0,0.0,0.0
525,5,-1.0254763765260577e-05,-5.8459586398385e-06,1.0239472430839669e-05,-0.0013749254867434502,-0.00037992847501300275,-0.00026190545759163797,0.0,0.0,0.0,0.0,0.0,0.0,0.0,0.0,0.0,-0.0003649320569820702,-0.0012309099547564983,-0.0,0.0,0.0,0.0,0.0,0.0,0.0,0.0,0.0,0.0,0.0,0.0,0.0,0.0,0.0,0.0,0.0,0.0,0.0,0.0,0.0,0.0,0.0,1.639275312423706,0.04380776581622109,-0.024802255787550583,0.02564242163736515,0.004862167872488499,-0.0011088490718975663,-0.0,0.0,0.0,0.0
530,5,-3.1262134143617004e-06,-1.2334343409747817e-05,-5.7222255236411e-06,0.00030545584741048515,0.0006266347481869161,0.0018106416100636125,0.0,0.0,0.0,0.0,0.0,0.0,0.0,0.0,0.0,-0.0003649320569820702,-0.0012309099547564983,-0.0,0.0,0.0,0.0,0.0,0.0,0.0,0.0,0.0,0.0,0.0,0.0,0.0,0.0,0.0,0.0,0.0,0.0,0.0,0.0,0.0,0.0,0.0,1.639275312423706,0.043791283695889624,-0.02506130008075223,0.02555569063293814,-0.0011292563285678625,-0.0024196470621973276,0.0,0.0,0.0,0.0
535,5,-1.442840130039258e-06,-1.1344594895490445e-05,7.95530195318861e-06,0.0003241871309000999,0.0001318841241300106,-0.0009170466219075024,0.0,0.0,0.0,0.0,0.0,0.0,0.0,0.0,0.0,-0.0007993903709575534,0.00028698297683149576,-0.0,0.0,0.0,0.0,0.0,0.0,0.0,0.0,0.0,0.0,0.0,0.0,0.0,0.0,0.0,0.0,0.0,0.0,0.0,0.0,0.0,0.0,0.0,1.6329941749572754,0.043485753283669736,-0.024779103214243748,0.025696135570698546,-0.0011292563285678625,-0.0024196470621973276,0.0,0.0,0.0,0.0
540,5,8.601462468504906e-06,-1.7764819858712144e-05,3.443775540290517e-06,0.0013349911896511912,0.0008231806568801403,0.00017456449859309942,0.0,0.0,0.0,0.0,0.0,0.0,0.0,0.0,0.0,-0.0007993903709575534,0.00028698297683149576,-0.0,0.0,0.0,0.0,0.0,0.0,0.0,0.0,0.0,0.0,0.0,0.0,0.0,0.0,0.0,0.0,0.0,0.0,0.0,0.0,0.0,0.0,0.0,1.6329941749572754,0.04369905439125595,-0.02504360004217108,0.02578432999648744,-0.005054546054452658,-0.0031866240315139294,-0.0,0.0,0.0,0.0
546,5,7.574036771984538e-06,-1.944774885487277e-05,1.6486243112012744e-05,0.00041070536826737225,0.000531223660800606,-0.0014952702913433313,0.0,0.0,0.0,0.0,0.0,0.0,0.0,0.0,0.0,-0.0010470368433743715,0.0012775271898135543,-0.0,0.0,0.0,0.0,0.0,0.0,0.0,0.0,0.0,0.0,0.0,0.0,0.0,0.0,0.0,0.0,0.0,0.0,0.0,0.0,0.0,0.0,0.0,1.6419520378112793,0.04348710667904598,-0.02515204564613549,0.025743653797637465,-0.005054546054452658,-0.0031866240315139294,-0.0,0.0,0.0,0.0
551,5,1.3144121112418361e-05,-1.2605714800884016e-05,2.223692717961967e-05,0.0004191018524579704,-9.712696191854775e-05,0.00018994770653080195,0.0,0.0,0.0,0.0,0.0,0.0,0.0,0.0,0.0,-0.0010470368433743715,0.0012775271898135543,-0.0,0.0,0.0,0.0,0.0,0.0,0.0,0.0,0.0,0.0,0.0,0.0,0.0,0.0,0.0,0.0,0.0,0.0,0.0,0.0,0.0,0.0,0.0,1.6419520378112793,0.04353455781110859,-0.02513445555485293,0.02573550398491138,-0.005054546054452658,-0.0031866240315139294,-0.0,0.0,0.0,0.0
556,5,1.4867188838252332e-05,-1.586710823175963e-05,1.4352209291246254e-05,0.00037440884625539184,0.00035251639201305807,0.00102214515209198,0.0,0.0,0.0,0.0,0.0,0.0,0.0,0.0,0.0,9.691470040706918e-05,0.0004187445738352835,-0.0,0.0,0.0,0.0,0.0,0.0,0.0,0.0,0.0,0.0,0.0,0.0,0.0,0.0,0.0,0.0,0.0,0.0,0.0,0.0,0.0,0.0,0.0,1.630281686782837,0.04392999116137326,-0.024682002321407475,0.025534380643706705,-0.0016449918039143085,0.00029286055359989405,-0.0,0.0,0.0,0.0
561,5,8.790643732936587e-06,-1.0224525794910733e-05,1.2766618965542875e-05,-0.0005794219323433936,-0.0005361033254303038,0.0005991288926452398,0.0,0.0,0.0,0.0,0.0,0.0,0.0,0.0,0.0,0.0006446895422413945,-0.0005394336185418069,-0.0,0.0,0.0,0.0,0.0,0.0,0.0,0.0,0.0,0.0,0.0,0.0,0.0,0.0,0.0,0.0,0.0,0.0,0.0,0.0,0.0,0.0,0.0,1.6335750818252563,0.04383817092710951,-0.024733570390548104,0.025665991123833932,0.0021233856678009033,0.0019520827336236835,-0.0,0.0,0.0,0.0
566,5,1.0903486327151768e-05,-1.670385609031655e-05,2.334960754524218e-06,2.1772391846752726e-05,0.0005630783271044493,0.0014914505882188678,0.0,0.0,0.0,0.0,0.0,0.0,0.0,0.0,0.0,0.0006446895422413945,-0.0005394336185418069,-0.0,0.0,0.0,0.0,0.0,0.0,0.0,0.0,0.0,0.0,0.0,0.0,0.0,0.0,0.0,0.0,0.0,0.0,0.0,0.0,0.0,0.0,0.0,1.6335750818252563,0.04382907250161278,-0.024854358047815623,0.025815672972470186,0.0021233856678009033,0.0019520827336236835,-0.0,0.0,0.0,0.0
571,5,-1.6488952496729326e-06,-3.1843587748880964e-06,1.5953468391671777e-05,-0.0014975768281146884,-0.0013971083099022508,-0.001037640729919076,0.0,0.0,0.0,0.0,0.0,0.0,0.0,0.0,0.0,0.001710219425149262,-0.0014174628304317594,-0.0,0.0,0.0,0.0,0.0,0.0,0.0,0.0,0.0,0.0,0.0,0.0,0.0,0.0,0.0,0.0,0.0,0.0,0.0,0.0,0.0,0.0,0.0,1.646546483039856,0.0435739458887095,-0.02474329377469292,0.02576201652288992,0.005623889621347189,0.005219561047852039,0.0,0.0,0.0,0.0
576,5,-1.5682700222896528e-06,-1.4348288459586911e-05,-1.104119974115747e-06,-0.0005893557099625468,0.0007808281807228923,0.001631854334846139,0.0,0.0,0.0,0.0,0.0,0.0,0.0,0.0,0.0,0.001710219425149262,-0.0014174628304317594,-0.0,0.0,0.0,0.0,0.0,0.0,0.0,0.0,0.0,0.0,0.0,0.0,0.0,0.0,0.0,0.0,0.0,0.0,0.0,0.0,0.0,0.0,0.0,1.646546483039856,0.043370156250340026,-0.025123946900269634,0.02581992927145585,0.005623889621347189,0.005219561047852039,0.0,0.0,0.0,0.0
581,5,2.089426743623335e-06,-1.1026821084669791e-05,-1.7990163314607344e-07,0.00020318132010288537,-8.624475594842806e-05,0.0005418355576694012,0.0,0.0,0.0,0.0,0.0,0.0,0.0,0.0,0.0,0.001710219425149262,-0.0014174628304317594,-0.0,0.0,0.0,0.0,0.0,0.0,0.0,0.0,0.0,0.0,0.0,0.0,0.0,0.0,0.0,0.0,0.0,0.0,0.0,0.0,0.0,0.0,0.0,1.646546483039856,0.04360148027749568,-0.02513358377195419,0.025669194847662165,0.005623889621347189,0.005219561047852039,0.0,0.0,0.0,0.0
586,5,2.089426743623335e-06,-1.1026821084669791e-05,-1.7990163314607344e-07,0.00020318132010288537,-8.624475594842806e-05,0.0005418355576694012,0.0,0.0,0.0,0.0,0.0,0.0,0.0,0.0,0.0,8.635215635877103e-05,0.0001973805483430624,-0.0,0.0,0.0,0.0,0.0,0.0,0.0,0.0,0.0,0.0,0.0,0.0,0.0,0.0,0.0,0.0,0.0,0.0,0.0,0.0,0.0,0.0,0.0,1.6284600496292114,0.04360148027749568,-0.02513358377195419,0.025669194847662165,-0.0007745212642475963,0.00026065067504532635,0.0,0.0,0.0,0.0
591,5,6.52526523481356e-06,-1.2280806913622655e-05,2.2685659132548608e-05,0.00022310673375613987,0.00019878189777955413,-0.0018087002681568265,0.0,0.0,0.0,0.0,0.0,0.0,0.0,0.0,0.0,-0.0002699634642340243,0.00022257331875152886,-0.0,0.0,0.0,0.0,0.0,0.0,0.0,0.0,0.0,0.0,0.0,0.0,0.0,0.0,0.0,0.0,0.0,0.0,0.0,0.0,0.0,0.0,0.0,1.628989338874817,0.04368030944529717,-0.025219255621577782,0.025740108608305435,-0.0008736615418456495,-0.000815139152109623,0.0,0.0,0.0,0.0
596,5,1.0909962838923093e-05,-1.854205947893206e-05,1.6115965991048142e-05,0.0006154063739813864,0.0008308630785904825,6.488306826213375e-05,0.0,0.0,0.0,0.0,0.0,0.0,0.0,0.0,0.0,-0.0002699634642340243,0.00022257331875152886,-0.0,0.0,0.0,0.0,0.0,0.0,0.0,0.0,0.0,0.0,0.0,0.0,0.0,0.0,0.0,0.0,0.0,0.0,0.0,0.0,0.0,0.0,0.0,1.628989338874817,0.04369215317844858,-0.025207396187655613,0.02577377172442264,-0.0008736615418456495,-0.000815139152109623,0.0,0.0,0.0,0.0
601,5,1.180887375085149e-05,-1.0881188245548401e-05,2.0630335711757652e-05,0.00035403191577643156,-0.0005869593005627394,-0.0005157712148502469,0.0,0.0,0.0,0.0,0.0,0.0,0.0,0.0,0.0,-0.0002699634642340243,0.00022257331875152886,-0.0,0.0,0.0,0.0,0.0,0.0,0.0,0.0,0.0,0.0,0.0,0.0,0.0,0.0,0.0,0.0,0.0,0.0,0.0,0.0,0.0,0.0,0.0,1.628989338874817,0.043807203084435045,-0.024904159427889417,0.025824312220987158,-0.0008736615418456495,-0.000815139152109623,0.0,0.0,0.0,0.0
606,5,1.8226890460937284e-05,-1.4346418538480066e-05,1.4514401300402824e-05,0.0009117746376432478,0.00018104389891959727,0.0005276036681607366,0.0,0.0,0.0,0.0,0.0,0.0,0.0,0.0,0.0,0.0007068258128128946,0.0003542643680702895,-0.0,0.0,0.0,0.0,0.0,0.0,0.0,0.0,0.0,0.0,0.0,0.0,0.0,0.0,0.0,0.0,0.0,0.0,0.0,0.0,0.0,0.0,0.0,1.6326762437820435,0.043686694382697705,-0.024755847598812754,0.02567833416773184,-0.0013937321491539478,0.0021390500478446484,0.0,0.0,0.0,0.0
612,5,1.2193469046906102e-05,-1.5179062756942585e-05,1.972244899661746e-05,-0.00035930066951550543,0.0001723348832456395,-0.00041392433922737837,0.0,0.0,0.0,0.0,0.0,0.0,0.0,0.0,0.0,0.0007068258128128946,0.0003542643680702895,-0.0,0.0,0.0,0.0,0.0,0.0,0.0,0.0,0.0,0.0,0.0,0.0,0.0,0.0,0.0,0.0,0.0,0.0,0.0,0.0,0.0,0.0,0.0,1.6326762437820435,0.043680261641841585,-0.02510279666716467,0.02593887965651736,-0.0013937321491539478,0.0021390500478446484,0.0,0.0,0.0,0.0
617,5,8.962530046119355e-06,-7.689817721256986e-06,1.184453685709741e-05,-0.0005314329173415899,-0.0008297754684463143,0.0007797798025421798,0.0,0.0,0.0,0.0,0.0,0.0,0.0,0.0,0.0,-0.00024231438874267042,-0.0003257128701079637,-0.0,0.0,0.0,0.0,0.0,0.0,0.0,0.0,0.0,0.0,0.0,0.0,0.0,0.0,0.0,0.0,0.0,0.0,0.0,0.0,0.0,0.0,0.0,1.6297465562820435,0.04376758812379713,-0.024767786896132755,0.02570363580614376,0.0012791070621460676,-0.0007319945143535733,0.0,0.0,0.0,0.0
622,5,4.457782324607251e-06,-2.6362904463894665e-06,1.1547786925802939e-05,-0.0007531428709626198,-0.000938333454541862,0.0003475219418760389,0.0,0.0,0.0,0.0,0.0,0.0,0.0,0.0,0.0,-0.00024231438874267042,-0.0003257128701079637,-0.0,0.0,0.0,0.0,0.0,0.0,0.0,0.0,0.0,0.0,0.0,0.0,0.0,0.0,0.0,0.0,0.0,0.0,0.0,0.0,0.0,0.0,0.0,1.6297465562820435,0.043796162778542536,-0.024741088967279643,0.025738669222460778,0.0012791070621460676,-0.0007319945143535733,0.0,0.0,0.0,0.0
627,5,-1.1441628657848923e-06,-5.836970558448229e-06,1.1162162081745919e-05,-0.0009734905324876308,8.748232176003512e-06,0.00018528374494053423,0.0,0.0,0.0,0.0,0.0,0.0,0.0,0.0,0.0,0.0011534966761246324,-0.0007090730359777808,-0.0,0.0,0.0,0.0,0.0,0.0,0.0,0.0,0.0,0.0,0.0,0.0,0.0,0.0,0.0,0.0,0.0,0.0,0.0,0.0,0.0,0.0,0.0,1.6379095315933228,0.04351103848330514,-0.024436610004567375,0.025555921419484255,0.0027985461056232452,0.0035019877832382917,-0.0,0.0,0.0,0.0
632,5,3.6955684663553257e-06,-5.832917395309778e-06,5.687004886567593e-06,0.00019137152412440628,3.012926526935189e-06,0.000731132342480123,0.0,0.0,0.0,0.0,0.0,0.0,0.0,0.0,0.0,0.0011534966761246324,-0.0007090730359777808,-0.0,0.0,0.0,0.0,0.0,0.0,0.0,0.0,0.0,0.0,0.0,0.0,0.0,0.0,0.0,0.0,0.0,0.0,0.0,0.0,0.0,0.0,0.0,1.6379095315933228,0.043574375977777004,-0.02470146359513509,0.025789274354562994,0.0027985461056232452,0.0035019877832382917,-0.0,0.0,0.0,0.0
637,5,2.1460684820340248e-06,-2.2978360902925488e-06,2.133550151484087e-05,-0.00010939138883259147,-0.00042300461791455746,-0.0015853666700422764,0.0,0.0,0.0,0.0,0.0,0.0,0.0,0.0,0.0,-1.5127902770473156e-05,0.00018838014511857182,-0.0,0.0,0.0,0.0,0.0,0.0,0.0,0.0,0.0,0.0,0.0,0.0,0.0,0.0,0.0,0.0,0.0,0.0,0.0,0.0,0.0,0.0,0.0,1.6284600496292114,0.04334127920943753,-0.024925442759687083,0.025801203727609263,-0.000739203707780689,-4.5662993215955794e-05,-0.0,0.0,0.0,0.0
642,5,8.66109985508956e-07,-1.2494853763200808e-05,2.1003354049753398e-05,-0.0001973515609279275,0.0010544402757659554,-0.0005942889838479459,0.0,0.0,0.0,0.0,0.0,0.0,0.0,0.0,0.0,-1.5127902770473156e-05,0.00018838014511857182,-0.0,0.0,0.0,0.0,0.0,0.0,0.0,0.0,0.0,0.0,0.0,0.0,0.0,0.0,0.0,0.0,0.0,0.0,0.0,0.0,0.0,0.0,0.0,1.6284600496292114,0.043958011671535076,-0.02471857430797635,0.025808105179783426,-0.000739203707780689,-4.5662993215955794e-05,-0.0,0.0,0.0,0.0
647,5,1.266101753572002e-05,-1.8998478481080383e-05,1.6254814909189008e-05,0.001336448360234499,0.0012022111332044005,0.0003321090480312705,0.0,0.0,0.0,0.0,0.0,0.0,0.0,0.0,0.0,-0.0013266929890960455,-0.00018611243285704404,-0.0,0.0,0.0,0.0,0.0,0.0,0.0,0.0,0.0,0.0,0.0,0.0,0.0,0.0,0.0,0.0,0.0,0.0,0.0,0.0,0.0,0.0,0.0,1.636849284172058,0.043689811755651245,-0.024791306063745997,0.02570501902048684,0.0007340668234974146,-0.004025199916213751,0.0,0.0,0.0,0.0
652,5,1.4912265214661602e-05,-1.340522703685565e-05,1.4425994777411688e-05,0.0008047290029935539,-0.00019030577095691115,0.0003523021296132356,0.0,0.0,0.0,0.0,0.0,0.0,0.0,0.0,0.0,-0.0013266929890960455,-0.00018611243285704404,-0.0,0.0,0.0,0.0,0.0,0.0,0.0,0.0,0.0,0.0,0.0,0.0,0.0,0.0,0.0,0.0,0.0,0.0,0.0,0.0,0.0,0.0,0.0,1.636849284172058,0.04350137787662099,-0.024940228634249807,0.025699128763201858,0.0007340668234974146,-0.004025199916213751,0.0,0.0,0.0,0.0
657,5,-0.00014047652075532824,4.081379302078858e-05,-4.477938637137413e-05,-0.01832476258277893,-0.00658240495249629,0.007245566695928574,0.0,0.0,0.0,0.0,0.0,0.0,0.0,0.0,0.0,0.0002104550803778693,0.0007874330622144043,-0.0,0.0,0.0,0.0,0.0,0.0,0.0,0.0,0.0,0.0,0.0,0.0,0.0,0.0,0.0,0.0,0.0,0.0,0.0,0.0,0.0,0.0,0.0,1.6343387365341187,0.04123376800508988,-0.032954929459737145,0.029516018446530484,-0.0031010413076728582,0.0006375437951646745,-0.0,0.0,0.0,0.0
662,5,1.6723168982935022e-06,-6.005821433063829e-06,3.1881441827863455e-05,0.009727955795824528,0.0029853919986635447,-0.006301072891801596,0.0,0.0,0.0,0.0,0.0,0.0,0.0,0.0,0.0,0.0002104550803778693,0.0007874330622144043,-0.0,0.0,0.0,0.0,0.0,0.0,0.0,0.0,0.0,0.0,0.0,0.0,0.0,0.0,0.0,0.0,0.0,0.0,0.0,0.0,0.0,0.0,0.0,1.6343387365341187,0.04338736415040104,-0.024901315501307753,0.02567836853526416,-0.0031010413076728582,0.0006375437951646745,-0.0,0.0,0.0,0.0
668,5,1.2913711543660611e-05,-8.82583663042169e-06,1.2658822925004642e-05,0.005240149796009064,0.0015325585845857859,-0.0002137147675966844,0.0,0.0,0.0,0.0,0.0,0.0,0.0,0.0,0.0,-0.0035058115608990192,0.008762435056269169,-0.0,0.0,0.0,0.0,0.0,0.0,0.0,0.0,0.0,0.0,0.0,0.0,0.0,0.0,0.0,0.0,0.0,0.0,0.0,0.0,0.0,0.0,0.0,1.72826087474823,0.04370951895277791,-0.025169368776625223,0.025801001708421454,-0.03649032860994339,-0.011230647563934326,0.0,0.0,0.0,0.0
673,5,5.479424544319045e-06,-8.570133104512934e-06,1.316017187491525e-05,0.0012039453722536564,0.000582339009270072,-0.0001456477475585416,0.0,0.0,0.0,0.0,0.0,0.0,0.0,0.0,0.0,-0.0035058115608990192,0.008762435056269169,-0.0,0.0,0.0,0.0,0.0,0.0,0.0,0.0,0.0,0.0,0.0,0.0,0.0,0.0,0.0,0.0,0.0,0.0,0.0,0.0,0.0,0.0,0.0,1.72826087474823,0.043715078834528125,-0.025014948494273825,0.025779404093892413,-0.03649032860994339,-0.011230647563934326,0.0,0.0,0.0,0.0
678,5,1.7566310361871729e-06,-1.7575095625943504e-05,6.012488483975176e-06,3.484292028588243e-05,0.0013135309563949704,0.0007994628394953907,0.0,0.0,0.0,0.0,0.0,0.0,0.0,0.0,0.0,-0.0007349145016632974,0.0011507825693115592,-0.0,0.0,0.0,0.0,0.0,0.0,0.0,0.0,0.0,0.0,0.0,0.0,0.0,0.0,0.0,0.0,0.0,0.0,0.0,0.0,0.0,0.0,0.0,1.6394872665405273,0.04382603186774348,-0.024842714614990494,0.025580325159935434,-0.004546246957033873,-0.0022333322558552027,0.0,0.0,0.0,0.0
683,5,3.0349590360856382e-06,-1.4782963262405246e-05,6.76704257784877e-06,0.00016733653319533914,0.0001903565280372277,0.00022923866345081478,0.0,0.0,0.0,0.0,0.0,0.0,0.0,0.0,0.0,-0.0007349145016632974,0.0011507825693115592,-0.0,0.0,0.0,0.0,0.0,0.0,0.0,0.0,0.0,0.0,0.0,0.0,0.0,0.0,0.0,0.0,0.0,0.0,0.0,0.0,0.0,0.0,0.0,1.6394872665405273,0.0431648810488546,-0.02492363778652292,0.025663464758574568,-0.004546246957033873,-0.0022333322558552027,0.0,0.0,0.0,0.0
688,5,-4.71418434244697e-06,-1.648581564950291e-05,1.3289432899910025e-05,-0.0008629625663161278,0.00028048487729392946,-0.0006909914081916213,0.0,0.0,0.0,0.0,0.0,0.0,0.0,0.0,0.0,-0.0002642357430886477,0.00016450099064968526,-0.0,0.0,0.0,0.0,0.0,0.0,0.0,0.0,0.0,0.0,0.0,0.0,0.0,0.0,0.0,0.0,0.0,0.0,0.0,0.0,0.0,0.0,0.0,1.6285309791564941,0.04371152487153331,-0.0247815498177101,0.025565667379314615,-0.0006455300026573241,-0.000797620159573853,-0.0,0.0,0.0,0.0
693,5,-1.8296816506335745e-07,-2.1338975784601644e-05,-2.029554707405623e-06,0.0001985608832910657,0.0006945732748135924,0.0015618819743394852,0.0,0.0,0.0,0.0,0.0,0.0,0.0,0.0,0.0,-0.0002642357430886477,0.00016450099064968526,-0.0,0.0,0.0,0.0,0.0,0.0,0.0,0.0,0.0,0.0,0.0,0.0,0.0,0.0,0.0,0.0,0.0,0.0,0.0,0.0,0.0,0.0,0.0,1.6285309791564941,0.04370544058220823,-0.024895512256786902,0.025652219932586453,-0.0006455300026573241,-0.000797620159573853,-0.0,0.0,0.0,0.0
