timestamp,dt,pos_x,pos_y,pos_z,vel_x,vel_y,vel_z,roll,pitch,yaw,agv_x,agv_y,agv_z,x_ref,y_ref,z_ref,roll_ref,pitch_ref,yaw_ref,x_vel_ref,y_vel_ref,z_vel_ref,x_torque,y_torque,z_torque,w0,w1,w2,w3,u0,u1,u2,u3,m0req,m1req,m2req,m3req,thrust0,thrust1,thrust2,thrust3,thrust_ref,roll_vicon,pitch_vicon,yaw_vicon,acc_x,acc_y,acc_z
5,5,0.0,0.0,0.0,0.0010266442550346255,-1.3873802345187869e-05,-0.0027723386883735657,-0.002984588500112295,-0.06297746300697327,0.001167489681392908,0.0006033408571965992,-0.000520227593369782,-0.0014344066148623824,0.0,0.0,0.0,1.7154707165900618e-05,0.0009764825226739049,-0.0,0.0,0.0,0.0,0.00061412324430421,0.019245542585849762,4.771691601490602e-05,1495.0,1495.0,1495.0,1495.0,0.0,0.0,0.0,0.0,0.0,0.0,0.0,0.0,1495.0,1495.0,1495.0,1495.0,1.6361944675445557,0.051455234968253515,-0.07865604382394796,0.09183185683060192,-0.0038499159272760153,5.2026760386070237e-05,0.0
32,27,0.0,0.0,0.0,-0.0014828970888629556,0.00030798104126006365,0.0009561674087308347,-0.002984588500112295,-0.06297746300697327,0.001167489681392908,0.0006033408571965992,-0.000520227593369782,-0.0014344066148623824,0.0,0.0,0.0,-0.00037966290256008506,-0.0014061834663152695,-0.0,0.0,0.0,0.0,0.00061412324430421,0.019245542585849762,4.771691601490602e-05,1495.0,1495.0,1495.0,1495.0,0.0,0.0,0.0,0.0,0.0,0.0,0.0,0.0,1495.0,1495.0,1495.0,1495.0,1.6411510705947876,0.051383395118006735,-0.07843521532110352,0.09157729631365655,0.005560864228755236,-0.0011549289338290691,0.0
37,5,0.0,0.0,0.0,0.0005252084811218083,0.0019306092290207744,0.0007255898090079427,-0.002988908439874649,-0.0629747062921524,0.0011710362741723657,-0.0016162667889147997,0.0025420431047677994,-0.0025129325222223997,0.0,0.0,0.0,-0.00037966290256008506,-0.0014061834663152695,-0.0,0.0,0.0,0.0,0.000563439738471061,0.019238533452153206,2.5306584575446323e-05,1495.0,1495.0,1495.0,1495.0,0.0,0.0,0.0,0.0,0.0,0.0,0.0,0.0,1495.0,1495.0,1495.0,1495.0,1.6411510705947876,0.051459347121146956,-0.07858996062312774,0.0917392265725486,0.005560864228755236,-0.0011549289338290691,0.0
42,5,0.0,0.0,0.0,0.001742820255458355,0.000233168073464185,0.0010198913514614105,-0.002988908439874649,-0.0629747062921524,0.0011710362741723657,-0.0016162667889147997,0.0025420431047677994,-0.0025129325222223997,0.0,0.0,0.0,-0.0002870045427698642,0.0016501715872436762,-0.0,0.0,0.0,0.0,0.000563439738471061,0.019238533452153206,2.5306584575446323e-05,1495.0,1495.0,1495.0,1495.0,0.0,0.0,0.0,0.0,0.0,0.0,0.0,0.0,1495.0,1495.0,1495.0,1495.0,1.6436262130737305,0.05133811380196352,-0.07821483637562988,0.09156857293746173,-0.006535575725138187,-0.000874380290042609,0.0
53,11,2.2885340513312258e-05,1.7435466361348517e-05,7.900108357716817e-06,0.0014496459625661373,-0.0009856200776994228,-0.001615771558135748,-0.0029707292560487986,-0.06296076625585556,0.0011634017573669553,0.0022056465968489647,0.0028557307086884975,-0.002553969854488969,0.0,0.0,0.0,-0.0002870045427698642,0.0016501715872436762,-0.0,0.0,0.0,0.0,0.0005192692624405026,0.018469782546162605,0.00021145846403669566,14837.0,12057.0,12293.0,14777.0,0.49652016162872314,0.31943345069885254,0.33293062448501587,0.49226683378219604,0.0,0.0,0.0,0.0,1495.0,1495.0,1495.0,1495.0,1.6436262130737305,0.051040834357419004,-0.07873163564444495,0.09175607238160569,-0.006535575725138187,-0.000874380290042609,0.0
58,5,1.5291903764591552e-05,2.0061350369360298e-05,4.319196705182549e-06,-0.00033135409466922283,-0.0007093541789799929,-0.0002165992045775056,-0.0029707292560487986,-0.06296076625585556,0.0011634017573669553,0.0022056465968489647,0.0028557307086884975,-0.002553969854488969,0.0,0.0,0.0,-0.0002870045427698642,0.0016501715872436762,-0.0,0.0,0.0,0.0,0.0005192692624405026,0.018469782546162605,0.00021145846403669566,14837.0,12057.0,12293.0,14777.0,0.49652016162872314,0.31943345069885254,0.33293062448501587,0.49226683378219604,0.0,0.0,0.0,0.0,1495.0,1495.0,1495.0,1495.0,1.6436262130737305,0.05141513775782224,-0.07889713858588457,0.09193129803345107,-0.006535575725138187,-0.000874380290042609,0.0
63,5,1.8703454770729877e-05,3.904625373252202e-06,3.458045057413983e-06,0.00027684439555741847,0.001655065338127315,1.669848643359728e-05,-0.002969160443171859,-0.06298951059579849,0.0012172786518931389,-8.845060074236244e-05,0.002586746122688055,0.002951475791633129,0.0,0.0,0.0,-0.0020311707630753517,0.00028826200286857784,-0.0,0.0,0.0,0.0,0.0005203526234254241,0.018545711413025856,0.00024233409203588963,14847.0,12048.0,12296.0,14772.0,0.4971975088119507,0.318897545337677,0.3331108093261719,0.49194520711898804,0.0,0.0,0.0,0.0,14815.0,12083.0,12256.0,14809.0,1.64280366897583,0.05175814673196998,-0.07874143480404416,0.09168161328360352,-0.0011411008890718222,-0.006185005884617567,-0.0
68,5,4.039138275402365e-06,1.1052883564843796e-05,4.421207904670155e-06,-0.0016489801928400993,-0.00019576486374717206,-0.00010890014527831227,-0.002969160443171859,-0.06298951059579849,0.0012172786518931389,-8.845060074236244e-05,0.002586746122688055,0.002951475791633129,0.0,0.0,0.0,-0.0020311707630753517,0.00028826200286857784,-0.0,0.0,0.0,0.0,0.0005203526234254241,0.018545711413025856,0.00024233409203588963,14847.0,12048.0,12296.0,14772.0,0.4971975088119507,0.318897545337677,0.3331108093261719,0.49194520711898804,0.0,0.0,0.0,0.0,14815.0,12083.0,12256.0,14809.0,1.64280366897583,0.05185095721423859,-0.07836430767624239,0.09167480086628496,-0.0011411008890718222,-0.006185005884617567,-0.0
74,5,-6.320108695945237e-06,1.2263633379916428e-06,1.243118185811909e-05,-0.0019027016824111342,0.0011008764849975705,-0.0010047568939626217,-0.002969160443171859,-0.06298951059579849,0.0012172786518931389,-8.845060074236244e-05,0.002586746122688055,0.002951475791633129,0.0,0.0,0.0,-0.0013491177232936025,-0.0018053402891382575,-0.0,0.0,0.0,0.0,0.0005203526234254241,0.018545711413025856,0.00024233409203588963,14847.0,12048.0,12296.0,14772.0,0.4971975088119507,0.318897545337677,0.3331108093261719,0.49194520711898804,0.0,0.0,0.0,0.0,14815.0,12083.0,12256.0,14809.0,1.6481610536575317,0.05125708309667299,-0.07870158732236034,0.09188160513708489,0.007169848773628473,-0.004121523816138506,0.0
79,5,-2.244246752525214e-05,-3.394241275600507e-06,1.9233024431741796e-05,-0.0026957637164741755,0.0009948231745511293,-0.0012181238271296024,-0.0029709278605878353,-0.06299778074026108,0.0012162787606939673,0.0002762561198323965,0.0019921772181987762,-0.00208404753357172,0.0,0.0,0.0,-0.0013491177232936025,-0.0018053402891382575,-0.0,0.0,0.0,0.0,0.0005115385865792632,0.01856127567589283,4.839775647269562e-05,14869.0,12040.0,12181.0,14886.0,0.4987792670726776,0.3184269964694977,0.326455682516098,0.49996426701545715,0.0,0.0,0.0,0.0,14884.0,12020.0,12206.0,14866.0,1.6481610536575317,0.051540042215225026,-0.07850803759509524,0.09174790578923414,0.007169848773628473,-0.004121523816138506,0.0
84,5,-1.2391322343319189e-05,-9.747963076733868e-07,5.312801931722788e-06,0.00012783193960785866,0.00010759587166830897,0.0011831771116703749,-0.0029709278605878353,-0.06299778074026108,0.0012162787606939673,0.0002762561198323965,0.0019921772181987762,-0.00208404753357172,0.0,0.0,0.0,-0.0001354436099063605,0.00010479548654984683,-0.0,0.0,0.0,0.0,0.0005115385865792632,0.01856127567589283,4.839775647269562e-05,14869.0,12040.0,12181.0,14886.0,0.4987792670726776,0.3184269964694977,0.326455682516098,0.49996426701545715,0.0,0.0,0.0,0.0,14884.0,12020.0,12206.0,14866.0,1.6284600496292114,0.051470022058557705,-0.0783155856336908,0.09156256783062668,-0.00041121747926808894,-0.0004088313435204327,-0.0
89,5,-1.1049351996916812e-05,6.583465619769413e-06,-6.357768711495737e-07,0.00021216925233602524,-0.0008639530860818923,0.0011871003080159426,-0.0029709278605878353,-0.06299778074026108,0.0012162787606939673,0.0002762561198323965,0.0019921772181987762,-0.00208404753357172,0.0,0.0,0.0,-0.0001354436099063605,0.00010479548654984683,-0.0,0.0,0.0,0.0,0.0005115385865792632,0.01856127567589283,4.839775647269562e-05,14869.0,12040.0,12181.0,14886.0,0.4987792670726776,0.3184269964694977,0.326455682516098,0.49996426701545715,0.0,0.0,0.0,0.0,14884.0,12020.0,12206.0,14866.0,1.6284600496292114,0.051541022492659794,-0.0783293256231835,0.09174954189901804,-0.00041121747926808894,-0.0004088313435204327,-0.0
94,5,7.745677976345178e-06,1.078420154954074e-05,3.129543074464891e-06,0.0023402711376547813,-0.0008496695081703365,2.3001743102213368e-05,-0.0029769171960651875,-0.06299835443496704,0.0012023289455100894,0.00042431073961779475,-0.0007189197931438684,-0.0017468139994889498,0.0,0.0,0.0,-0.0001354436099063605,0.00010479548654984683,-0.0,0.0,0.0,0.0,0.0002329701674170792,0.019051162526011467,0.00017413104069419205,14895.0,12046.0,12238.0,14797.0,0.5005968809127808,0.3187728822231293,0.3297298848628998,0.4937039911746979,0.0,0.0,0.0,0.0,14881.0,12075.0,12215.0,14807.0,1.6284600496292114,0.05169735065419133,-0.07857334498062012,0.0916132340772718,-0.00041121747926808894,-0.0004088313435204327,-0.0
99,5,7.668693797313608e-06,1.509422190792975e-06,-4.362769686849788e-06,0.0009268703870475292,0.0007731057121418417,0.0009082782198674977,-0.0029769171960651875,-0.06299835443496704,0.0012023289455100894,0.00042431073961779475,-0.0007189197931438684,-0.0017468139994889498,0.0,0.0,0.0,0.0010604463750496507,0.0022164052352309227,-0.0,0.0,0.0,0.0,0.0002329701674170792,0.019051162526011467,0.00017413104069419205,14895.0,12046.0,12238.0,14797.0,0.5005968809127808,0.3187728822231293,0.3297298848628998,0.4937039911746979,0.0,0.0,0.0,0.0,14881.0,12075.0,12215.0,14807.0,1.6512064933776855,0.051500934745110916,-0.0782920052776374,0.09151219424389254,-0.008818645030260086,0.0032456261105835438,-0.0
104,5,1.0924256457656156e-05,3.306703092675889e-06,-3.2057134831120493e-06,0.0007614156347699463,9.356857481179759e-05,0.00022446455841418356,-0.002998398384079337,-0.06297346204519272,0.0011898274533450603,-0.003024179255589843,0.0021119597367942333,-0.0009244882385246456,0.0,0.0,0.0,0.0010604463750496507,0.0022164052352309227,-0.0,0.0,0.0,0.0,0.00037142427754588425,0.018430324271321297,0.00011234064004383981,14840.0,12140.0,12279.0,14818.0,0.49673396348953247,0.32414668798446655,0.3321283459663391,0.4951520562171936,0.0,0.0,0.0,0.0,14837.0,12146.0,12285.0,14812.0,1.6512064933776855,0.051318872537874344,-0.07875666140725052,0.09179882535658099,-0.008818645030260086,0.0032456261105835438,-0.0
109,5,1.1163231647515204e-05,1.3563013453676831e-05,4.511495262704557e-06,0.0003332433698233217,-0.0011933298083022237,-0.0008362792432308197,-0.002998398384079337,-0.06297346204519272,0.0011898274533450603,-0.003024179255589843,0.0021119597367942333,-0.0009244882385246456,0.0,0.0,0.0,-0.00010984482651110739,0.0007405931246466935,-0.0,0.0,0.0,0.0,0.00037142427754588425,0.018430324271321297,0.00011234064004383981,14840.0,12140.0,12279.0,14818.0,0.49673396348953247,0.32414668798446655,0.3321283459663391,0.4951520562171936,0.0,0.0,0.0,0.0,14837.0,12146.0,12285.0,14812.0,1.6337106227874756,0.05128956963516075,-0.07833329897044602,0.09166569563030592,-0.002915457356721163,-0.0003326314326841384,0.0
114,5,1.4210530935088173e-05,1.5513927792198956e-05,-6.111619313742267e-06,0.0004989732406102121,-0.0007114415639080107,0.0009402620489709079,-0.0029860802460461855,-0.06298921257257462,0.0011645016493275762,0.0016893544234335423,0.0035723478067666292,-0.004076053854078054,0.0,0.0,0.0,-0.00010984482651110739,0.0007405931246466935,-0.0,0.0,0.0,0.0,0.0005590785876847804,0.019008630886673927,-1.0716110409703106e-05,14765.0,12033.0,12128.0,14823.0,0.49143728613853455,0.31806591153144836,0.32343313097953796,0.49552372097969055,0.0,0.0,0.0,0.0,14812.0,11976.0,12192.0,14770.0,1.6337106227874756,0.05169425013304901,-0.07839635185278016,0.0916177374422027,-0.002915457356721163,-0.0003326314326841384,0.0
119,5,-1.2350354836598854e-06,1.7682034012977965e-05,5.630868599837413e-06,-0.001653878716751933,-0.0005447493167594075,-0.0010329937795177102,-0.0029868013225495815,-0.06297429651021957,0.0011845170520246029,-0.002668511588126421,0.0014242675388231874,-0.000386534578865394,0.0,0.0,0.0,0.0009085760684683919,0.0004948374116793275,-0.0,0.0,0.0,0.0,0.0008450086461380124,0.01954897865653038,0.0001860926568042487,14914.0,12004.0,12264.0,14910.0,0.5019239187240601,0.31637874245643616,0.3312402665615082,0.5016635656356812,0.0,0.0,0.0,0.0,14887.0,12037.0,12226.0,14940.0,1.6349022388458252,0.05161953209810041,-0.07842013668297088,0.09172280033064542,-0.001949422643519938,0.0027533506508916616,0.0
127,8,-9.588839020580053e-06,5.51218681721366e-06,4.289163371140603e-06,-0.0016640078974887729,0.0012424817541614175,-0.0002521928690839559,-0.0029868013225495815,-0.06297429651021957,0.0011845170520246029,-0.002668511588126421,0.0014242675388231874,-0.000386534578865394,0.0,0.0,0.0,0.0009085760684683919,0.0004948374116793275,-0.0,0.0,0.0,0.0,0.0008450086461380124,0.01954897865653038,0.0001860926568042487,14914.0,12004.0,12264.0,14910.0,0.5019239187240601,0.31637874245643616,0.3312402665615082,0.5016635656356812,0.0,0.0,0.0,0.0,14887.0,12037.0,12226.0,14940.0,1.6349022388458252,0.05114891596406731,-0.07859595545262957,0.09175410314578801,-0.001949422643519938,0.0027533506508916616,0.0
132,5,-5.654293090628926e-06,1.2043481547152624e-05,1.572673318150919e-05,-0.00019345762848388404,-0.0002867626608349383,-0.0014733856078237295,-0.0029868013225495815,-0.06297429651021957,0.0011845170520246029,-0.002668511588126421,0.0014242675388231874,-0.000386534578865394,0.0,0.0,0.0,-0.0015163238858804107,-0.0015856664394959807,-0.0,0.0,0.0,0.0,0.0008450086461380124,0.01954897865653038,0.0001860926568042487,14914.0,12004.0,12264.0,14910.0,0.5019239187240601,0.31637874245643616,0.3312402665615082,0.5016635656356812,0.0,0.0,0.0,0.0,14887.0,12037.0,12226.0,14940.0,1.6469221115112305,0.05121649968416719,-0.07851467673268961,0.09185956615472385,0.006292686797678471,-0.004628852009773254,0.0
139,7,-3.0382925615413114e-06,-8.123447514662985e-06,-5.16889895152417e-06,0.00019615502969827503,0.0017659413861110806,0.001636538072489202,-0.0030041139107197523,-0.06299930810928345,0.0011799895437434316,0.0010867248056456447,0.0015292331809177995,-0.0013313960516825318,0.0,0.0,0.0,-0.0021879097912460566,0.00018149281095247716,-0.0,0.0,0.0,0.0,0.000590061186812818,0.019201725721359253,0.00014232599642127752,14835.0,11988.0,12190.0,14814.0,0.49636155366897583,0.31552064418792725,0.32697778940200806,0.49485063552856445,0.0,0.0,0.0,0.0,14798.0,12037.0,12140.0,14852.0,1.6439300775527954,0.051274638616172076,-0.07861801330001349,0.09201711693221165,-0.000718941621016711,-0.006666850298643112,0.0
144,5,-3.1255583508027485e-06,-4.0721611185290385e-06,8.067771886999253e-06,6.79901204421185e-05,0.0002202221076004207,-0.0009337852825410664,-0.0030041139107197523,-0.06299930810928345,0.0011799895437434316,0.0010867248056456447,0.0015292331809177995,-0.0013313960516825318,0.0,0.0,0.0,-0.0021879097912460566,0.00018149281095247716,-0.0,0.0,0.0,0.0,0.0007282347651198506,0.019206315279006958,0.00018377516244072467,14848.0,11961.0,12220.0,14816.0,0.49725598096847534,0.3139609098434448,0.32869261503219604,0.494992733001709,0.0,0.0,0.0,0.0,14798.0,12037.0,12140.0,14852.0,1.6439300775527954,0.05142022005377573,-0.07832012042273766,0.09194505435727664,-0.000718941621016711,-0.006666850298643112,0.0
149,5,5.196154688746901e-06,5.518642410606844e-06,1.1874828487634659e-05,0.0010258016409352422,-0.0010628075106069446,-0.0008303608628921211,-0.0030041139107197523,-0.06299930810928345,0.0011799895437434316,0.0010867248056456447,0.0015292331809177995,-0.0013313960516825318,0.0,0.0,0.0,-0.0021879097912460566,0.00018149281095247716,-0.0,0.0,0.0,0.0,0.0007282347651198506,0.019206315279006958,0.00018377516244072467,14848.0,11961.0,12220.0,14816.0,0.49725598096847534,0.3139609098434448,0.32869261503219604,0.494992733001709,0.0,0.0,0.0,0.0,14798.0,12037.0,12140.0,14852.0,1.6439300775527954,0.05123944973529322,-0.07827683360012912,0.09169756791601076,-0.000718941621016711,-0.006666850298643112,0.0
154,5,1.1188501957803965e-05,9.165985829895362e-06,2.290717020514421e-05,0.0011294023133814335,-0.0008628042996861041,-0.0016560252988711,-0.002973137190565467,-0.06302917748689651,0.0011790653225034475,0.003407709766179323,-0.004838674329221249,0.005279253702610731,0.0,0.0,0.0,0.0013204084243625402,0.0009801436681300402,-0.0,0.0,0.0,0.0,0.00024805389693938196,0.01837211661040783,0.00026591509231366217,14893.0,12082.0,12337.0,14746.0,0.5004585385322571,0.3208504319190979,0.3354935050010681,0.4901196360588074,0.0,0.0,0.0,0.0,14811.0,12000.0,12184.0,14850.0,1.6408847570419312,0.05167249238277093,-0.0787174260755501,0.09182363534347435,-0.0038754241541028023,0.004016009159386158,0.0
159,5,1.419707859895425e-05,2.9203103622421622e-05,2.4943710741354153e-05,0.0008127901237457991,-0.0027495757676661015,-0.0009067950886674225,-0.002973137190565467,-0.06302917748689651,0.0011790653225034475,0.003407709766179323,-0.004838674329221249,0.005279253702610731,0.0,0.0,0.0,0.0013204084243625402,0.0009801436681300402,-0.0,0.0,0.0,0.0,0.00024805389693938196,0.01837211661040783,0.00026591509231366217,14893.0,12082.0,12337.0,14746.0,0.5004585385322571,0.3208504319190979,0.3354935050010681,0.4901196360588074,0.0,0.0,0.0,0.0,14811.0,12000.0,12184.0,14850.0,1.6408847570419312,0.05142239162785156,-0.07845428026401184,0.09193656902989392,-0.0031261856202036142,0.01047175657004118,0.0
164,5,8.268775673059281e-06,1.254123890248593e-05,8.618261745141353e-06,-0.0003862802986986935,0.0008995934040285647,0.0015963357873260975,-0.0029815947636961937,-0.06298936158418655,0.0011910402681678534,-0.004321832209825516,-0.00024227325047831982,-0.002357126446440816,0.0,0.0,0.0,0.003412902122363448,0.0007837485754862428,-0.0,0.0,0.0,0.0,0.00021677336189895868,0.018947770819067955,7.330402877414599e-05,14857.0,12106.0,12190.0,14841.0,0.4979221820831299,0.32217031717300415,0.327023446559906,0.49681413173675537,0.0,0.0,0.0,0.0,14876.0,12101.0,12319.0,14763.0,1.6553455591201782,0.05139686333817162,-0.07868945566960583,0.09165458890202292,-0.0031261856202036142,0.01047175657004118,0.0
169,5,-4.0617833292344585e-06,3.615271225498873e-06,1.3368619875109289e-05,-0.0016341791488230228,0.0014309535035863519,6.849144847365096e-05,-0.0029815947636961937,-0.06298936158418655,0.0011910402681678534,-0.004321832209825516,-0.00024227325047831982,-0.002357126446440816,0.0,0.0,0.0,0.003412902122363448,0.0007837485754862428,-0.0,0.0,0.0,0.0,0.00021677336189895868,0.018947770819067955,7.330402877414599e-05,14857.0,12106.0,12190.0,14841.0,0.4979221820831299,0.32217031717300415,0.327023446559906,0.49681413173675537,0.0,0.0,0.0,0.0,14876.0,12101.0,12319.0,14763.0,1.6553455591201782,0.05089043372634357,-0.07864191429381127,0.09073234546466363,-0.0031261856202036142,0.01047175657004118,0.0
174,5,5.122711172589334e-06,2.9620823625009507e-05,1.167760001408169e-05,0.00044846764649264514,-0.0025482848286628723,0.00023031889577396214,-0.002897689351812005,-0.06308341026306152,0.0014933989150449634,0.012963629327714443,0.008008687756955624,0.06837564706802368,0.0,0.0,0.0,-0.0017502621049061418,-0.0015489516081288457,-0.0,0.0,0.0,0.0,0.0006664558895863593,0.0195009745657444,0.0019683646969497204,15471.0,11193.0,12938.0,14236.0,0.5423214435577393,0.27225515246391296,0.3713560402393341,0.4549521505832672,0.0,0.0,0.0,0.0,14984.0,11832.0,12359.0,14751.0,1.647834300994873,0.05167240576584089,-0.0788959490655499,0.09202660228207998,0.006150387227535248,-0.005345948506146669,-0.0
179,5,1.9264861350620777e-07,4.643326610676013e-05,1.266476738237543e-05,-0.0004122204554732889,-0.0030368068255484104,-2.6332530978834257e-05,-0.002897689351812005,-0.06308341026306152,0.0014933989150449634,0.012963629327714443,0.008008687756955624,0.06837564706802368,0.0,0.0,0.0,-0.0017502621049061418,-0.0015489516081288457,-0.0,0.0,0.0,0.0,0.0006664558895863593,0.0195009745657444,0.0019683646969497204,15471.0,11193.0,12938.0,14236.0,0.5423214435577393,0.27225515246391296,0.3713560402393341,0.4549521505832672,0.0,0.0,0.0,0.0,14984.0,11832.0,12359.0,14751.0,1.647834300994873,0.051335060453792034,-0.07847584914980103,0.09356097240713263,0.006150387227535248,-0.005345948506146669,-0.0
185,5,-2.9142947823856957e-05,2.482979471096769e-05,2.047445741482079e-05,-0.0036851598415523767,0.001377693610265851,-0.0009476958075538278,-0.002897689351812005,-0.06308341026306152,0.0014933989150449634,0.012963629327714443,0.008008687756955624,0.06837564706802368,0.0,0.0,0.0,0.0037898446898907423,-0.0003867335617542267,-0.0,0.0,0.0,0.0,0.0006664558895863593,0.0195009745657444,0.0019683646969497204,15471.0,11193.0,12938.0,14236.0,0.5423214435577393,0.27225515246391296,0.3713560402393341,0.4549521505832672,0.0,0.0,0.0,0.0,14984.0,11832.0,12359.0,14751.0,1.6575521230697632,0.05088375234892871,-0.07865955082433483,0.09254436146422552,0.0015446419129148126,0.01164381392300129,0.0
190,5,-4.897493272437714e-05,-8.141631042235531e-06,1.8587652448331937e-05,-0.003853902220726013,0.004507648292928934,-0.00015266179980244488,-0.0030866097658872604,-0.06310240179300308,0.00042193522676825523,-0.03563733398914337,-0.004904240369796753,-0.07670913636684418,0.0,0.0,0.0,0.0037898446898907423,-0.0003867335617542267,-0.0,0.0,0.0,0.0,0.0003139823384117335,0.018756655976176262,0.006847484037280083,14107.0,12853.0,11476.0,15649.0,0.44627049565315247,0.3661821186542511,0.2873173654079437,0.5555755496025085,0.0,0.0,0.0,0.0,15773.0,10684.0,13526.0,13954.0,1.6575521230697632,0.05084741502078946,-0.07805924320142402,0.09111291593474004,0.0015446419129148126,0.01164381392300129,0.0
195,5,-3.48572175425943e-05,3.281730096205138e-05,3.78924778487999e-05,0.0001525652187410742,-0.0031120122876018286,-0.0023776439484208822,-0.0030866097658872604,-0.06310240179300308,0.00042193522676825523,-0.03563733398914337,-0.004904240369796753,-0.07670913636684418,0.0,0.0,0.0,-0.005422163289040327,-0.003622975666075945,-0.0,0.0,0.0,0.0,0.0003139823384117335,0.018756655976176262,0.006847484037280083,14107.0,12853.0,11476.0,15649.0,0.44627049565315247,0.3661821186542511,0.2873173654079437,0.5555755496025085,0.0,0.0,0.0,0.0,15773.0,10684.0,13526.0,13954.0,1.6863328218460083,0.05011081986622494,-0.07844347743963831,0.09198863299762058,0.014721541665494442,-0.01694808341562748,0.0
200,5,6.508382284664549e-06,4.610703035723418e-05,2.6392204745206982e-05,0.005024897865951061,-0.0028395727276802063,0.0004289754433557391,-0.0031054934952408075,-0.06314977258443832,0.0027609067037701607,-0.0013185706920921803,0.010922428220510483,0.18365275859832764,0.0,0.0,0.0,-0.005422163289040327,-0.003622975666075945,-0.0,0.0,0.0,0.0,0.0012435809476301074,0.02005145512521267,-0.006990095134824514,12990.0,13908.0,9958.0,16722.0,0.3745337128639221,0.4330386519432068,0.21137036383152008,0.6386094093322754,0.0,0.0,0.0,0.0,14767.0,12227.0,12091.0,14969.0,1.6863328218460083,0.05066016239060415,-0.0783707738322441,0.09273208823783102,0.014721541665494442,-0.01694808341562748,0.0
205,5,1.793109913705848e-05,3.400723289814778e-05,1.1410156730562449e-05,0.0033806851133704185,0.00031614676117897034,0.001969435950741172,-0.0031054934952408075,-0.06314977258443832,0.0027609067037701607,-0.0013185706920921803,0.010922428220510483,0.18365275859832764,0.0,0.0,0.0,0.0034916107542812824,0.004650934133678675,-0.0,0.0,0.0,0.0,0.0012435809476301074,0.02005145512521267,-0.006990095134824514,12990.0,13908.0,9958.0,16722.0,0.3745337128639221,0.4330386519432068,0.21137036383152008,0.6386094093322754,0.0,0.0,0.0,0.0,14767.0,12227.0,12091.0,14969.0,1.6845903396606445,0.05046814177006388,-0.0779679370747565,0.09216248925206685,-0.01887913979589939,0.010902524925768375,-0.0
210,5,2.6086781872436404e-06,3.741873661056161e-05,5.1038432502537034e-06,-0.0004864163638558239,-0.0002829215372912586,0.001544532016851008,-0.003686479991301894,-0.06405838578939438,0.0020277504809200764,0.004633989650756121,0.050727229565382004,0.11671342700719833,0.0,0.0,0.0,0.0034916107542812824,0.004650934133678675,-0.0,0.0,0.0,0.0,0.0014307670062407851,0.020585181191563606,0.004669164307415485,16091.0,10905.0,13565.0,13850.0,0.5890875458717346,0.2574046552181244,0.41065993905067444,0.42918074131011963,0.0,0.0,0.0,0.0,14863.0,11905.0,12354.0,15054.0,1.6845903396606445,0.0502039691160966,-0.07806537995754077,0.09210655562024052,-0.01887913979589939,0.010902524925768375,-0.0
215,5,-2.0295256035751663e-05,4.136119969189167e-05,2.2241911210585386e-05,-0.002943038707599044,-0.0005862645339220762,-0.0014387553092092276,-0.003759469836950302,-0.06461238116025925,0.001356441411189735,-0.01648244634270668,0.03907978907227516,-0.0294550321996212,0.0,0.0,0.0,0.0004190472245682031,-0.00046026665950194,-0.0,0.0,0.0,0.0,-0.00021897751139476895,0.019176041707396507,-0.001304220873862505,14806.0,12581.0,12045.0,15213.0,0.49433475732803345,0.3498302400112152,0.3187178671360016,0.5234500169754028,0.0,0.0,0.0,0.0,14964.0,12422.0,12281.0,15000.0,1.6317436695098877,0.05034002437020446,-0.07785042194862156,0.0922829380485476,0.0018097279826179147,0.0012674283934757113,-0.0
220,5,-2.9696442652493715e-05,4.894649828202091e-05,4.942748637404293e-05,-0.00230535794980824,-0.001144741429015994,-0.003837771248072386,-0.003759469836950302,-0.06461238116025925,0.001356441411189735,-0.01648244634270668,0.03907978907227516,-0.0294550321996212,0.0,0.0,0.0,0.0004190472245682031,-0.00046026665950194,-0.0,0.0,0.0,0.0,-0.00021897751139476895,0.019176041707396507,-0.001304220873862505,14806.0,12581.0,12045.0,15213.0,0.49433475732803345,0.3498302400112152,0.3187178671360016,0.5234500169754028,0.0,0.0,0.0,0.0,14964.0,12422.0,12281.0,15000.0,1.6317436695098877,0.049921217179231175,-0.07748504982879503,0.09179866977043265,0.0018097279826179147,0.0012674283934757113,-0.0
225,5,-2.910596231231466e-05,4.878265826846473e-05,8.879441156750545e-05,-0.0008512853528372943,-0.00043823602027259767,-0.006259139161556959,-0.003759469836950302,-0.06461238116025925,0.001356441411189735,-0.01648244634270668,0.03907978907227516,-0.0294550321996212,0.0,0.0,0.0,0.0014895417261868715,-0.0022119733039289713,-0.0,0.0,0.0,0.0,-0.00021897751139476895,0.019176041707396507,-0.001304220873862505,14806.0,12581.0,12045.0,15213.0,0.49433475732803345,0.3498302400112152,0.3187178671360016,0.5234500169754028,0.0,0.0,0.0,0.0,14964.0,12422.0,12281.0,15000.0,1.6526201963424683,0.04917952479489696,-0.07810847945325282,0.09207135648246277,0.008808541111648083,0.004562826827168465,0.0
230,5,-2.5658466256572865e-05,7.73819992900826e-05,0.00015561059990432113,7.318532152567059e-05,-0.003607215126976371,-0.01052159909158945,-0.003964925650507212,-0.06491897255182266,0.0014919392997398973,-0.07195699214935303,-0.0031752092763781548,-0.01677132584154606,0.0,0.0,0.0,0.0014895417261868715,-0.0022119733039289713,-0.0,0.0,0.0,0.0,0.002220944268628955,0.021494556218385696,8.793354209046811e-05,14875.0,12106.0,12235.0,15353.0,0.4991825222969055,0.3221702575683594,0.329595148563385,0.5336424112319946,0.0,0.0,0.0,0.0,15184.0,11819.0,12415.0,15126.0,1.6526201963424683,0.0487071694723111,-0.07897784882218409,0.09250801349465876,0.008808541111648083,0.004562826827168465,0.0
235,5,-3.7844300095457584e-05,9.835485980147496e-05,0.0002610870869830251,-0.001433025929145515,-0.0039596292190253735,-0.016865817829966545,-0.003964925650507212,-0.06491897255182266,0.0014919392997398973,-0.07195699214935303,-0.0031752092763781548,-0.01677132584154606,0.0,0.0,0.0,0.004525439813733101,3.320899486425333e-05,-0.0,0.0,0.0,0.0,0.002220944268628955,0.021494556218385696,8.793354209046811e-05,14875.0,12106.0,12235.0,15353.0,0.4991825222969055,0.3221702575683594,0.329595148563385,0.5336424112319946,0.0,0.0,0.0,0.0,15184.0,11819.0,12415.0,15126.0,1.6635080575942993,0.048023127490568585,-0.08029312074221463,0.09259487767984875,-0.00013311533257365227,0.013953769579529762,0.0
240,5,-8.582008740631863e-05,0.00013075803872197866,0.0004044999659527093,-0.006330305244773626,-0.005472233518958092,-0.023955870419740677,-0.005395004991441965,-0.0635155513882637,0.001610174891538918,-0.1624104082584381,-0.1854369044303894,0.03361563757061958,0.0,0.0,0.0,0.004525439813733101,3.320899486425333e-05,-0.0,0.0,0.0,0.0,0.002959653502330184,0.01617272011935711,0.0014361059293150902,14730.0,11689.0,13033.0,14410.0,0.4889346659183502,0.29887083172798157,0.37718698382377625,0.46675118803977966,0.0,0.0,0.0,0.0,14311.0,12349.0,11961.0,15187.0,1.6635080575942993,0.0472118884800066,-0.08203317284323625,0.0926525215618851,-0.00013311533257365227,0.013953769579529762,0.0
245,5,-0.00014399481005966663,0.0001532722235424444,0.000542439753189683,-0.009513089433312416,-0.0048905955627560616,-0.026135126128792763,-0.005395004991441965,-0.0635155513882637,0.001610174891538918,-0.1624104082584381,-0.1854369044303894,0.03361563757061958,0.0,0.0,0.0,0.0066923461854457855,-0.005867721512913704,-0.0,0.0,0.0,0.0,0.002959653502330184,0.01617272011935711,0.0014361059293150902,14730.0,11689.0,13033.0,14410.0,0.4889346659183502,0.29887083172798157,0.37718698382377625,0.46675118803977966,0.0,0.0,0.0,0.0,14311.0,12349.0,11961.0,15187.0,1.7124049663543701,0.04585526656825503,-0.08483427378318052,0.09326398759010024,0.024211162701249123,0.02124161459505558,0.0
250,5,-0.0002222873008577153,0.00016189167217817158,0.0006866229232400656,-0.013200333341956139,-0.0029905724804848433,-0.02775602787733078,-0.006908458191901445,-0.061407607048749924,0.0014102485729381442,-0.22551977634429932,-0.41523611545562744,0.0013966005062684417,0.0,0.0,0.0,0.0066923461854457855,-0.005867721512913704,-0.0,0.0,0.0,0.0,0.004574344027787447,0.010426785796880722,-0.000238760287174955,14039.0,12498.0,13293.0,14495.0,0.4416903853416443,0.34493380784988403,0.393362820148468,0.4726331830024719,0.0,0.0,0.0,0.0,14379.0,12261.0,12889.0,14724.0,1.7124049663543701,0.044979754091220334,-0.08800086862024385,0.09347800549915641,0.024211162701249123,0.02124161459505558,0.0
255,5,-0.00028410463710315526,0.00019688461907207966,0.0008381159277632833,-0.012698215432465076,-0.005395382642745972,-0.02928157150745392,-0.006908458191901445,-0.061407607048749924,0.0014102485729381442,-0.22551977634429932,-0.41523611545562744,0.0013966005062684417,0.0,0.0,0.0,0.003700460772961378,-0.01192624494433403,-0.0,0.0,0.0,0.0,0.004574344027787447,0.010426785796880722,-0.000238760287174955,14039.0,12498.0,13293.0,14495.0,0.4416903853416443,0.34493380784988403,0.393362820148468,0.4726331830024719,0.0,0.0,0.0,0.0,14379.0,12261.0,12889.0,14724.0,1.765146255493164,0.044197598384640206,-0.09234613457926533,0.09351779487549337,0.050725117325782776,0.012107186950743198,0.0
261,5,-0.00037168790004216135,0.00025292253121733665,0.001011632732115686,-0.0155892763286829,-0.008882700465619564,-0.032534655183553696,-0.010103384032845497,-0.054934676736593246,0.0017388967098668218,-0.316764235496521,-0.6882001757621765,-0.005331036169081926,0.0,0.0,0.0,0.003700460772961378,-0.01192624494433403,-0.0,0.0,0.0,0.0,0.006769447587430477,0.004308192525058985,0.0003268047294113785,13399.0,12932.0,13914.0,14297.0,0.40005728602409363,0.37098875641822815,0.43342527747154236,0.4590367376804352,0.0,0.0,0.0,0.0,14193.0,12267.0,13691.0,14329.0,1.765146255493164,0.042871228369596615,-0.09766953907403247,0.09463476370202198,0.050725117325782776,0.012107186950743198,0.0
266,5,-0.0004740475560538471,0.0002909287577494979,0.001157058635726571,-0.018518870696425438,-0.008113827556371689,-0.030464958399534225,-0.010103384032845497,-0.054934676736593246,0.0017388967098668218,-0.316764235496521,-0.6882001757621765,-0.005331036169081926,0.0,0.0,0.0,0.010337783955037594,-0.013865259476006031,-0.0,0.0,0.0,0.0,0.006769447587430477,0.004308192525058985,0.0003268047294113785,13399.0,12932.0,13914.0,14297.0,0.40005728602409363,0.37098875641822815,0.43342527747154236,0.4590367376804352,0.0,0.0,0.0,0.0,14193.0,12267.0,13691.0,14329.0,1.8111748695373535,0.04234225698357027,-0.10340706450192512,0.0953756661634132,0.060506656765937805,0.03470422327518463,0.0
271,5,-0.0006085126078687608,0.000330072216456756,0.0013258156832307577,-0.023543352261185646,-0.00794274639338255,-0.032436832785606384,-0.012581347487866879,-0.047644201666116714,0.0017609501956030726,-0.35844817757606506,-1.0774130821228027,0.03090551681816578,0.0,0.0,0.0,0.010337783955037594,-0.013865259476006031,-0.0,0.0,0.0,0.0,0.008337641134858131,-0.00808778777718544,0.0007610533502884209,13010.0,13521.0,15269.0,13419.0,0.37574589252471924,0.407842218875885,0.5274885296821594,0.40132832527160645,0.0,0.0,0.0,0.0,13186.0,13490.0,14211.0,14409.0,1.8111748695373535,0.041257447020146464,-0.1092481334602138,0.09546629510361165,0.060506656765937805,0.03470422327518463,0.0
276,5,-0.0007627643644809723,0.0003656610497273505,0.0014603717718273401,-0.02792755514383316,-0.007447759620845318,-0.029121458530426025,-0.012581347487866879,-0.047644201666116714,0.0017609501956030726,-0.35844817757606506,-1.0774130821228027,0.03090551681816578,0.0,0.0,0.0,0.009064329788088799,-0.02021881937980652,-0.0,0.0,0.0,0.0,0.008337641134858131,-0.00808778777718544,0.0007610533502884209,13010.0,13521.0,15269.0,13419.0,0.37574589252471924,0.407842218875885,0.5274885296821594,0.40132832527160645,0.0,0.0,0.0,0.0,13186.0,13490.0,14211.0,14409.0,1.881137728691101,0.041046723097527535,-0.1152283880619313,0.09567476062712932,0.09163910895586014,0.03160487115383148,0.0
281,5,-0.0009189322008751333,0.0003845371538773179,0.0015894006937742233,-0.029911162331700325,-0.005244237370789051,-0.027132058516144753,-0.016573969274759293,-0.03389084339141846,0.001939465873874724,-0.316378653049469,-1.2421460151672363,-0.041271526366472244,0.0,0.0,0.0,0.009064329788088799,-0.02021881937980652,-0.0,0.0,0.0,0.0,0.00796444620937109,-0.01599748432636261,-0.0006701841484755278,11765.0,14999.0,15397.0,13666.0,0.303079754114151,0.5080300569534302,0.5368549227714539,0.41718152165412903,0.0,0.0,0.0,0.0,12906.0,13605.0,15390.0,13295.0,1.881137728691101,0.04047571724774187,-0.12186153678522618,0.09630339030718572,0.09163910895586014,0.03160487115383148,0.0
286,5,-0.0010764802573248744,0.00041128991870209575,0.0017272434197366238,-0.0308702290058136,-0.005308026447892189,-0.027393948286771774,-0.016573969274759293,-0.03389084339141846,0.001939465873874724,-0.316378653049469,-1.2421460151672363,-0.041271526366472244,0.0,0.0,0.0,0.006066325586289167,-0.025111988186836243,-0.0,0.0,0.0,0.0,0.00796444620937109,-0.01599748432636261,-0.0006701841484755278,11765.0,14999.0,15397.0,13666.0,0.303079754114151,0.5080300569534302,0.5368549227714539,0.41718152165412903,0.0,0.0,0.0,0.0,12906.0,13605.0,15390.0,13295.0,1.93756103515625,0.041188395905014746,-0.12777413098917523,0.09654121581460971,0.1172289177775383,0.021786367520689964,0.0
291,5,-0.0012060373555868864,0.0004195139918010682,0.001825630315579474,-0.027894942089915276,-0.0031100972555577755,-0.022764010354876518,-0.018195748329162598,-0.023911338299512863,0.001995459198951721,-0.11224834620952606,-1.289084792137146,0.003557995893061161,0.0,0.0,0.0,0.006066325586289167,-0.025111988186836243,-0.0,0.0,0.0,0.0,0.007418822962790728,-0.02243669331073761,0.0002890682371798903,12195.0,15117.0,16138.0,12994.0,0.32726049423217773,0.5164986848831177,0.5926572680473328,0.37475836277008057,0.0,0.0,0.0,0.0,12305.0,15560.0,16598.0,12914.0,1.93756103515625,0.0422872106893534,-0.13395101134803838,0.09692474438847072,0.1172289177775383,0.021786367520689964,0.0
296,5,-0.0013183963019400835,0.00044064116082154214,0.0019330864306539297,-0.024641050025820732,-0.003779298160225153,-0.022000335156917572,-0.018195748329162598,-0.023911338299512863,0.001995459198951721,-0.11224834620952606,-1.289084792137146,0.003557995893061161,0.0,0.0,0.0,0.003928174264729023,-0.02405339851975441,-0.0,0.0,0.0,0.0,0.007418822962790728,-0.02243669331073761,0.0002890682371798903,12195.0,15117.0,16138.0,12994.0,0.32726049423217773,0.5164986848831177,0.5926572680473328,0.37475836277008057,0.0,0.0,0.0,0.0,12305.0,15560.0,16598.0,12914.0,1.9196512699127197,0.04366037375584196,-0.13909729121512757,0.09716277282051065,0.11125139147043228,0.01397718209773302,0.0
301,5,-0.0014250356471166015,0.00045369737199507654,0.002008421579375863,-0.02265314571559429,-0.003078467445448041,-0.017840346321463585,-0.017807528376579285,-0.009263704530894756,0.0023243604227900505,0.17840375006198883,-1.1332921981811523,-0.0075753238052129745,0.0,0.0,0.0,0.003928174264729023,-0.02405339851975441,-0.0,0.0,0.0,0.0,0.0037704985588788986,-0.02504766918718815,0.00018106593051925302,12445.0,15866.0,16250.0,12852.0,0.3417673110961914,0.5719017386436462,0.6014042496681213,0.3660644292831421,0.0,0.0,0.0,0.0,12405.0,15901.0,16175.0,12942.0,1.9196512699127197,0.04541900649251917,-0.14321216002707934,0.09731736903842336,0.11125139147043228,0.01397718209773302,0.0
306,5,-0.0015295608900487423,0.00045684693031944335,0.0020622138399630785,-0.021604284644126892,-0.0016093328595161438,-0.013591215014457703,-0.017807528376579285,-0.009263704530894756,0.0023243604227900505,0.17840375006198883,-1.1332921981811523,-0.0075753238052129745,0.0,0.0,0.0,0.004045894835144281,-0.02056131511926651,-0.0,0.0,0.0,0.0,0.0037704985588788986,-0.02504766918718815,0.00018106593051925302,12445.0,15866.0,16250.0,12852.0,0.3417673110961914,0.5719017386436462,0.6014042496681213,0.3660644292831421,0.0,0.0,0.0,0.0,12405.0,15901.0,16175.0,12942.0,1.873262643814087,0.04691174649871695,-0.14702164256730754,0.09756961440210808,0.09280413389205933,0.014048167504370213,0.0
312,5,-0.001599377254024148,0.00045895532821305096,0.0021030486095696688,-0.01701967604458332,-0.0008967402973212302,-0.010336663573980331,-0.015862571075558662,-0.001122094108723104,0.0023676734417676926,0.32945752143859863,-0.8673742413520813,-0.012146532535552979,0.0,0.0,0.0,0.0017488186713308096,-0.0165717713534832,-0.0,0.0,0.0,0.0,0.0005529541522264481,-0.025371704250574112,6.310366006800905e-05,12949.0,16170.0,16155.0,13021.0,0.37202170491218567,0.595131516456604,0.5940064787864685,0.3764013350009918,0.0,0.0,0.0,0.0,13080.0,16108.0,16145.0,12980.0,1.8192570209503174,0.04944709864174068,-0.14900993360982628,0.09802778757465551,0.07264310121536255,0.0058972155675292015,0.0
317,5,-0.0016627233708277345,0.0004852549755014479,0.0021519053261727095,-0.01440940611064434,-0.003514655865728855,-0.009997484274208546,-0.015862571075558662,-0.001122094108723104,0.0023676734417676926,0.32945752143859863,-0.8673742413520813,-0.012146532535552979,0.0,0.0,0.0,0.0017488186713308096,-0.0165717713534832,-0.0,0.0,0.0,0.0,0.0005529541522264481,-0.025371704250574112,6.310366006800905e-05,12949.0,16170.0,16155.0,13021.0,0.37202170491218567,0.595131516456604,0.5940064787864685,0.3764013350009918,0.0,0.0,0.0,0.0,13080.0,16108.0,16145.0,12980.0,1.8192570209503174,0.05118520979870922,-0.15030143834973939,0.09774546155790938,0.07264310121536255,0.0058972155675292015,0.0
322,5,-0.0016933404840528965,0.0004983388935215771,0.0021480892319232225,-0.009437814354896545,-0.002975928597152233,-0.0035410558339208364,-0.01164935901761055,0.006505562923848629,0.002420516684651375,0.3472502529621124,-0.4696638584136963,0.0048331208527088165,0.0,0.0,0.0,0.0017488186713308096,-0.0165717713534832,-0.0,0.0,0.0,0.0,-0.0006539883906953037,-0.010494565591216087,0.0010100494837388396,13583.0,15703.0,15797.0,13105.0,0.41181132197380066,0.5595577359199524,0.5666406154632568,0.38164159655570984,0.0,0.0,0.0,0.0,13714.0,15526.0,15755.0,13231.0,1.8192570209503174,0.052712589675217976,-0.15196163109937966,0.09829574948343636,0.07264310121536255,0.0058972155675292015,0.0
327,5,-0.0017163190059363842,0.0005200222367420793,0.002171099418774247,-0.006532545201480389,-0.0037923732306808233,-0.004177641123533249,-0.01164935901761055,0.006505562923848629,0.002420516684651375,0.3472502529621124,-0.4696638584136963,0.0048331208527088165,0.0,0.0,0.0,0.004286147654056549,-0.010601413436233997,-0.0,0.0,0.0,0.0,-0.0006539883906953037,-0.010494565591216087,0.0010100494837388396,13583.0,15703.0,15797.0,13105.0,0.41181132197380066,0.5595577359199524,0.5666406154632568,0.38164159655570984,0.0,0.0,0.0,0.0,13714.0,15526.0,15755.0,13231.0,1.7511876821517944,0.053231452037994814,-0.15069254492997772,0.09768382339844132,0.04473384469747543,0.013912525027990341,0.0
332,5,-0.001721491920761764,0.0005686174263246357,0.0021764207631349564,-0.003233770839869976,-0.007348376791924238,-0.0023096278309822083,-0.01164935901761055,0.006505562923848629,0.002420516684651375,0.3472502529621124,-0.4696638584136963,0.0048331208527088165,0.0,0.0,0.0,0.004286147654056549,-0.010601413436233997,-0.0,0.0,0.0,0.0,-0.0006539883906953037,-0.010494565591216087,0.0010100494837388396,13583.0,15703.0,15797.0,13105.0,0.41181132197380066,0.5595577359199524,0.5666406154632568,0.38164159655570984,0.0,0.0,0.0,0.0,13714.0,15526.0,15755.0,13231.0,1.7511876821517944,0.05416620018706882,-0.14965598032241376,0.09783676419525592,0.04473384469747543,0.013912525027990341,0.0
337,5,-0.0017044170526787639,0.0006252848543226719,0.002172773936763406,0.000755474844481796,-0.009739439003169537,-0.00048621304449625313,-0.009386852383613586,0.008594106882810593,0.002671384485438466,0.2572237253189087,-0.05989636480808258,0.022024713456630707,0.0,0.0,0.0,0.009592053480446339,-0.005198991391807795,-0.0,0.0,0.0,0.0,7.220232510007918e-05,-0.0022780520375818014,4.384319618111476e-05,14122.0,14809.0,15311.0,13412.0,0.4472474753856659,0.49454838037490845,0.5305917859077454,0.400875061750412,0.0,0.0,0.0,0.0,14138.0,14721.0,15255.0,13556.0,1.7266255617141724,0.05457926373887001,-0.14807297012618217,0.09727001230086364,0.021629538387060165,0.03069772757589817,0.0
342,5,-0.0017061949474737048,0.0006884300382807851,0.0021858890540897846,8.884441194823012e-05,-0.011473195627331734,-0.0017682936741039157,-0.009386852383613586,0.008594106882810593,0.002671384485438466,0.2572237253189087,-0.05989636480808258,0.022024713456630707,0.0,0.0,0.0,0.009592053480446339,-0.005198991391807795,-0.0,0.0,0.0,0.0,7.220232510007918e-05,-0.0022780520375818014,4.384319618111476e-05,14122.0,14809.0,15311.0,13412.0,0.4472474753856659,0.49454838037490845,0.5305917859077454,0.400875061750412,0.0,0.0,0.0,0.0,14138.0,14721.0,15255.0,13556.0,1.7266255617141724,0.05458095234010942,-0.14553871796084722,0.0969188890904342,0.021629538387060165,0.03069772757589817,0.0
347,5,-0.0016948784468695521,0.0007386701763607562,0.002168354345485568,0.001393518759869039,-0.010618097148835659,0.0013968398561701179,-0.007088060956448317,0.007186578121036291,0.00269439653493464,0.1518748551607132,0.29420006275177,-0.014719145372509956,0.0,0.0,0.0,0.014408178627490997,-0.00215191300958395,-0.0,0.0,0.0,0.0,0.0022204453125596046,0.0045981984585523605,-0.0007070734864100814,14134.0,14354.0,14262.0,14185.0,0.44804778695106506,0.46297404170036316,0.4567241370677948,0.45151105523109436,0.0,0.0,0.0,0.0,14256.0,14180.0,14370.0,14130.0,1.7535076141357422,0.05393971432356071,-0.14315327839030054,0.09667954678233817,0.009091569110751152,0.046827178448438644,0.0
352,5,-0.0016763568855822086,0.000803756236564368,0.002111959969624877,0.0027799939271062613,-0.01205756887793541,0.0073260595090687275,-0.007088060956448317,0.007186578121036291,0.00269439653493464,0.1518748551607132,0.29420006275177,-0.014719145372509956,0.0,0.0,0.0,0.014408178627490997,-0.00215191300958395,-0.0,0.0,0.0,0.0,0.0022204453125596046,0.0045981984585523605,-0.0007070734864100814,14134.0,14354.0,14262.0,14185.0,0.44804778695106506,0.46297404170036316,0.4567241370677948,0.45151105523109436,0.0,0.0,0.0,0.0,14256.0,14180.0,14370.0,14130.0,1.7535076141357422,0.05384802620104583,-0.14095130356614602,0.0965948272330032,0.009091569110751152,0.046827178448438644,0.0
357,5,-0.0016670448239892721,0.000879655359312892,0.00205277930945158,0.002229440724477172,-0.013930918648838997,0.010032102465629578,-0.006455496419221163,0.004177394788712263,0.0024799418170005083,-0.011397414840757847,0.4789746403694153,-0.0412648506462574,0.0,0.0,0.0,0.015233485959470272,0.00027339888038113713,-0.0,0.0,0.0,0.0,0.003915587905794382,0.00890917144715786,0.00041050525032915175,14477.0,12685.0,13681.0,14617.0,0.47137001156806946,0.3560202419757843,0.4181791841983795,0.4810561239719391,0.0,0.0,0.0,0.0,14118.0,13524.0,13577.0,14669.0,1.7586995363235474,0.05329296613563022,-0.13851930361828102,0.09679296201044256,-0.0011584835592657328,0.04965568333864212,-0.0
363,5,-0.0016568783903494477,0.0010095861507579684,0.0018873579101637006,0.0009036340634338558,-0.012909182347357273,0.01529653463512659,-0.006455496419221163,0.004177394788712263,0.0024799418170005083,-0.011397414840757847,0.4789746403694153,-0.0412648506462574,0.0,0.0,0.0,0.015233485959470272,0.00027339888038113713,-0.0,0.0,0.0,0.0,0.003915587905794382,0.00890917144715786,0.00041050525032915175,14477.0,12685.0,13681.0,14617.0,0.47137001156806946,0.3560202419757843,0.4181791841983795,0.4810561239719391,0.0,0.0,0.0,0.0,14118.0,13524.0,13577.0,14669.0,1.7586995363235474,0.052000837093585786,-0.13417684779151,0.09582966078619004,-0.0011584835592657328,0.04965568333864212,-0.0
368,5,-0.00167904666159302,0.0010783355683088303,0.0018150137038901448,-0.002298743464052677,-0.013413600623607635,0.014799919910728931,-0.0073537882417440414,-0.005820995196700096,0.0023811778519302607,-0.08960003405809402,0.43074315786361694,-0.041532039642333984,0.0,0.0,0.0,0.015233485959470272,0.00027339888038113713,-0.0,0.0,0.0,0.0,0.005373958498239517,0.009923985227942467,-0.000461005576653406,14005.0,13236.0,13359.0,15260.0,0.43940478563308716,0.3897674083709717,0.3975182771682739,0.5268172025680542,0.0,0.0,0.0,0.0,14621.0,12500.0,13875.0,14448.0,1.7586995363235474,0.051318550603025,-0.13278544654098248,0.0959176596962065,0.005776533391326666,0.053984832018613815,-0.0
373,5,-0.00167904666159302,0.0010783355683088303,0.0018150137038901448,-0.002298743464052677,-0.013413600623607635,0.014799919910728931,-0.0073537882417440414,-0.005820995196700096,0.0023811778519302607,-0.08960003405809402,0.43074315786361694,-0.041532039642333984,0.0,0.0,0.0,0.016447987407445908,-0.0013539051869884133,-0.0,0.0,0.0,0.0,0.005373958498239517,0.009923985227942467,-0.000461005576653406,14005.0,13236.0,13359.0,15260.0,0.43940478563308716,0.3897674083709717,0.3975182771682739,0.5268172025680542,0.0,0.0,0.0,0.0,14621.0,12500.0,13875.0,14448.0,1.7708673477172852,0.051318550603025,-0.13278544654098248,0.0959176596962065,0.005776533391326666,0.053984832018613815,-0.0
378,5,-0.0017368511762470007,0.0012499229051172733,0.0017490594182163477,-0.0053978594951331615,-0.015740016475319862,0.007080165669322014,-0.0073537882417440414,-0.005820995196700096,0.0023811778519302607,-0.08960003405809402,0.43074315786361694,-0.041532039642333984,0.0,0.0,0.0,0.016447987407445908,-0.0013539051869884133,-0.0,0.0,0.0,0.0,0.006206227000802755,0.007254400756210089,0.0002524344890844077,14250.0,12851.0,14055.0,14803.0,0.4558764696121216,0.36600273847579956,0.44274747371673584,0.49407288432121277,0.0,0.0,0.0,0.0,13890.0,13360.0,13225.0,15372.0,1.7708673477172852,0.05000780022113082,-0.13219354077072945,0.09664043012231688,0.005776533391326666,0.053984832018613815,-0.0
383,5,-0.0018067602068185806,0.0013138321228325367,0.0017687695799395442,-0.010548231191933155,-0.01396510936319828,0.0004668505280278623,-0.0073537882417440414,-0.005820995196700096,0.0023811778519302607,-0.08960003405809402,0.43074315786361694,-0.041532039642333984,0.0,0.0,0.0,0.019565541297197342,-0.006815728731453419,-0.0,0.0,0.0,0.0,0.006206227000802755,0.007254400756210089,0.0002524344890844077,14250.0,12851.0,14055.0,14803.0,0.4558764696121216,0.36600273847579956,0.44274747371673584,0.49407288432121277,0.0,0.0,0.0,0.0,13890.0,13360.0,13225.0,15372.0,1.8180724382400513,0.0491833467462469,-0.133118941104776,0.09696969318642136,0.029853062704205513,0.0659266859292984,-0.0
388,5,-0.0018750190502032638,0.00138957635499537,0.0018216640455648303,-0.012410352006554604,-0.01467534527182579,-0.00616060383617878,-0.00872272253036499,-0.009926745668053627,0.002034362405538559,-0.14037074148654938,0.228151336312294,0.006933047901839018,0.0,0.0,0.0,0.019565541297197342,-0.006815728731453419,-0.0,0.0,0.0,0.0,0.006467876955866814,0.003917403519153595,-0.000353496172465384,14250.0,12851.0,14055.0,14803.0,0.4558764696121216,0.36600273847579956,0.44274747371673584,0.49407288432121277,0.0,0.0,0.0,0.0,14340.0,12758.0,14246.0,14611.0,1.8180724382400513,0.048372819633305246,-0.13444745621422693,0.09733018172945447,0.029853062704205513,0.0659266859292984,-0.0
393,5,-0.0019449491519480944,0.0014454515185207129,0.0019019482424482703,-0.013355749659240246,-0.012575162574648857,-0.012098335660994053,-0.00872272253036499,-0.009926745668053627,0.002034362405538559,-0.14037074148654938,0.228151336312294,0.006933047901839018,0.0,0.0,0.0,0.018290003761649132,-0.012771191075444221,-0.0,0.0,0.0,0.0,0.006467876955866814,0.003917403519153595,-0.000353496172465384,14250.0,12851.0,14055.0,14803.0,0.4558764696121216,0.36600273847579956,0.44274747371673584,0.49407288432121277,0.0,0.0,0.0,0.0,14340.0,12758.0,14246.0,14611.0,1.8498586416244507,0.04822637565675954,-0.1361938797152979,0.09748757965917135,0.05691639706492424,0.06270712614059448,0.0
398,5,-0.0020251937676221132,0.0014904154231771827,0.0019719419069588184,-0.01497164461761713,-0.010425737127661705,-0.013238578103482723,-0.0096502136439085,-0.010814258828759193,0.002017608843743801,-0.12235236912965775,-0.013015412725508213,-0.03181710094213486,0.0,0.0,0.0,0.018290003761649132,-0.012771191075444221,-0.0,0.0,0.0,0.0,0.007496447768062353,-0.0037481917534023523,0.0010774339316412807,13740.0,13753.0,15310.0,14055.0,0.4220017194747925,0.42283153533935547,0.530462920665741,0.44277626276016235,0.0,0.0,0.0,0.0,13564.0,13625.0,14221.0,14771.0,1.8498586416244507,0.04837622960406636,-0.13836404003761102,0.0973907170408829,0.05691639706492424,0.06270712614059448,0.0
403,5,-0.002126868348568678,0.0015374902868643403,0.0020390695426613092,-0.018189633265137672,-0.009819279424846172,-0.013350732624530792,-0.0096502136439085,-0.010814258828759193,0.002017608843743801,-0.12235236912965775,-0.013015412725508213,-0.03181710094213486,0.0,0.0,0.0,0.013850544579327106,-0.015162709169089794,-0.0,0.0,0.0,0.0,0.007496447768062353,-0.0037481917534023523,0.0010774339316412807,13740.0,13753.0,15310.0,14055.0,0.4220017194747925,0.42283153533935547,0.530462920665741,0.44277626276016235,0.0,0.0,0.0,0.0,13564.0,13625.0,14221.0,14771.0,1.8437196016311646,0.048410561564387396,-0.14055662552039702,0.09750484956976516,0.06735429167747498,0.04733093082904816,0.0
408,5,-0.002207242650911212,0.0015914292307570577,0.0020846633706241846,-0.01692076027393341,-0.010400379076600075,-0.01081155426800251,-0.01157065387815237,-0.0060846577398478985,0.002025177236646414,-0.03704209253191948,-0.4684961438179016,-0.008768822997808456,0.0,0.0,0.0,0.013850544579327106,-0.015162709169089794,-0.0,0.0,0.0,0.0,0.006837317254394293,-0.008822417818009853,-5.85881934966892e-05,13120.0,14428.0,15249.0,14037.0,0.38252532482147217,0.46797919273376465,0.5260139107704163,0.4415540099143982,0.0,0.0,0.0,0.0,13529.0,13999.0,15191.0,14145.0,1.8437196016311646,0.04897838168234478,-0.14294825848887213,0.09766775311815419,0.06735429167747498,0.04733093082904816,0.0
413,5,-0.0023075230419635773,0.001649513142183423,0.0021174356807023287,-0.018801940605044365,-0.011130218394100666,-0.008257315494120121,-0.01157065387815237,-0.0060846577398478985,0.002025177236646414,-0.03704209253191948,-0.4684961438179016,-0.008768822997808456,0.0,0.0,0.0,0.01384830567985773,-0.01686660759150982,-0.0,0.0,0.0,0.0,0.006837317254394293,-0.008822417818009853,-5.85881934966892e-05,13120.0,14428.0,15249.0,14037.0,0.38252532482147217,0.46797919273376465,0.5260139107704163,0.4415540099143982,0.0,0.0,0.0,0.0,13529.0,13999.0,15191.0,14145.0,1.8621751070022583,0.049509926369390785,-0.14557927884664193,0.09813879062586066,0.07567247003316879,0.047796983271837234,0.0
418,5,-0.0023899474181234837,0.0016878345049917698,0.0021486959885805845,-0.017411701381206512,-0.009050658904016018,-0.007054157555103302,-0.01157065387815237,-0.0060846577398478985,0.002025177236646414,-0.03704209253191948,-0.4684961438179016,-0.008768822997808456,0.0,0.0,0.0,0.01384830567985773,-0.01686660759150982,-0.0,0.0,0.0,0.0,0.006837317254394293,-0.008822417818009853,-5.85881934966892e-05,13120.0,14428.0,15249.0,14037.0,0.38252532482147217,0.46797919273376465,0.5260139107704163,0.4415540099143982,0.0,0.0,0.0,0.0,13529.0,13999.0,15191.0,14145.0,1.8621751070022583,0.049913829870730037,-0.1477161932818511,0.09791928913814738,0.07567247003316879,0.047796983271837234,0.0
423,5,-0.0024806763976812363,0.0017170775681734085,0.002182289259508252,-0.017852168530225754,-0.007129423785954714,-0.006852853111922741,-0.011791257187724113,-4.6511610207744525e-07,0.0023204945027828217,0.03524121269583702,-0.5360346436500549,0.013721426017582417,0.0,0.0,0.0,0.012534437701106071,-0.017498912289738655,-0.0,0.0,0.0,0.0,0.005749552510678768,-0.013330075889825821,0.0008827297133393586,13205.0,14725.0,15793.0,13509.0,0.38786059617996216,0.48859986662864685,0.5663326978683472,0.40706557035446167,0.0,0.0,0.0,0.0,13209.0,14603.0,15676.0,13772.0,1.862562656402588,0.051273691141864745,-0.1499743341160245,0.09836511692066392,0.07852674275636673,0.04327166825532913,0.0
428,5,-0.0025553929153829813,0.0017514332430437207,0.002178456401452422,-0.016106843948364258,-0.006974454969167709,-0.002281202469021082,-0.011791257187724113,-4.6511610207744525e-07,0.0023204945027828217,0.03524121269583702,-0.5360346436500549,0.013721426017582417,0.0,0.0,0.0,0.012534437701106071,-0.017498912289738655,-0.0,0.0,0.0,0.0,0.005749552510678768,-0.013330075889825821,0.0008827297133393586,13205.0,14725.0,15793.0,13509.0,0.38786059617996216,0.48859986662864685,0.5663326978683472,0.40706557035446167,0.0,0.0,0.0,0.0,13209.0,14603.0,15676.0,13772.0,1.862562656402588,0.05237203354130472,-0.1516532517334412,0.09858333329062292,0.07852674275636673,0.04327166825532913,0.0
433,5,-0.002607516711577773,0.0017797050531953573,0.002191634150221944,-0.012697597965598106,-0.006182396784424782,-0.0024938038550317287,-0.01126041915267706,0.0044029648415744305,0.0023703721817582846,0.08469439297914505,-0.4862271249294281,0.036762870848178864,0.0,0.0,0.0,0.010482534766197205,-0.0167735256254673,-0.0,0.0,0.0,0.0,0.004021923057734966,-0.01567297801375389,0.0008413307368755341,13450.0,14664.0,15934.0,13063.0,0.40330877900123596,0.4843391478061676,0.5770326852798462,0.3790390193462372,0.0,0.0,0.0,0.0,13360.0,14720.0,15977.0,13039.0,1.8447167873382568,0.052795117418092306,-0.1527120954132704,0.09870420952192005,0.07455241680145264,0.03584182634949684,0.0
438,5,-0.0026480306405574083,0.001796772819943726,0.0021957976277917624,-0.009940697811543941,-0.004521096590906382,-0.001497155404649675,-0.01126041915267706,0.0044029648415744305,0.0023703721817582846,0.08469439297914505,-0.4862271249294281,0.036762870848178864,0.0,0.0,0.0,0.010482534766197205,-0.0167735256254673,-0.0,0.0,0.0,0.0,0.004021923057734966,-0.01567297801375389,0.0008413307368755341,13450.0,14664.0,15934.0,13063.0,0.40330877900123596,0.4843391478061676,0.5770326852798462,0.3790390193462372,0.0,0.0,0.0,0.0,13360.0,14720.0,15977.0,13039.0,1.8447167873382568,0.053354440459084426,-0.15344950189867404,0.09897163392685504,0.07455241680145264,0.03584182634949684,0.0
443,5,-0.0026756112929433584,0.00181120028719306,0.002198008820414543,-0.007285976782441139,-0.0035397368483245373,-0.0008641895838081837,-0.010070995427668095,0.00919110607355833,0.0028099496848881245,0.14765186607837677,-0.2779342532157898,0.014059513807296753,0.0,0.0,0.0,0.00814418401569128,-0.012099863030016422,-0.0,0.0,0.0,0.0,0.0033216853626072407,-0.013397885486483574,0.0006418218254111707,13540.0,14838.0,15631.0,13435.0,0.4090673327445984,0.4965420961380005,0.5542136430740356,0.4023520350456238,0.0,0.0,0.0,0.0,13462.0,14917.0,15575.0,13497.0,1.7818154096603394,0.05397665412521681,-0.15319994352682392,0.09885591904455832,0.051948148757219315,0.026897389441728592,0.0
449,5,-0.0026950608007609844,0.0018298615468665957,0.002205628901720047,-0.0052483342587947845,-0.003655242035165429,-0.0012600856134667993,-0.010070995427668095,0.00919110607355833,0.0028099496848881245,0.14765186607837677,-0.2779342532157898,0.014059513807296753,0.0,0.0,0.0,0.00814418401569128,-0.012099863030016422,-0.0,0.0,0.0,0.0,0.0033216853626072407,-0.013397885486483574,0.0006418218254111707,13540.0,14838.0,15631.0,13435.0,0.4090673327445984,0.4965420961380005,0.5542136430740356,0.4023520350456238,0.0,0.0,0.0,0.0,13462.0,14917.0,15575.0,13497.0,1.7818154096603394,0.05463059830249801,-0.15298373270220386,0.09872948324051153,0.051948148757219315,0.026897389441728592,0.0
454,5,-0.002700908575206995,0.0018472520168870687,0.002202260307967663,-0.0028010576497763395,-0.003548956010490656,-9.980872710002586e-05,-0.008981248363852501,0.010728626511991024,0.003004621947184205,0.15625689923763275,-0.08558213710784912,0.036530494689941406,0.0,0.0,0.0,0.007397969253361225,-0.008264555595815182,-0.0,0.0,0.0,0.0,0.00255997059866786,-0.010608392767608166,0.001177669269964099,14024.0,14459.0,15601.0,13395.0,0.4406825304031372,0.4701691269874573,0.551929235458374,0.3997817635536194,0.0,0.0,0.0,0.0,14247.0,14246.0,15748.0,13213.0,1.738485336303711,0.05502109188547718,-0.15232493054098611,0.09891125051952555,0.034619882702827454,0.02383882738649845,0.0
459,5,-0.0026989649049937725,0.001870765001513064,0.002205837983638048,-0.0008871782920323312,-0.004241132643073797,-0.00046925159404054284,-0.008981248363852501,0.010728626511991024,0.003004621947184205,0.15625689923763275,-0.08558213710784912,0.036530494689941406,0.0,0.0,0.0,0.007397969253361225,-0.008264555595815182,-0.0,0.0,0.0,0.0,0.00255997059866786,-0.010608392767608166,0.001177669269964099,14024.0,14459.0,15601.0,13395.0,0.4406825304031372,0.4701691269874573,0.551929235458374,0.3997817635536194,0.0,0.0,0.0,0.0,14247.0,14246.0,15748.0,13213.0,1.738485336303711,0.055223063541419516,-0.15086785111451415,0.09901581064123124,0.034619882702827454,0.02383882738649845,0.0
464,5,-0.0026994971558451653,0.001886850455775857,0.0021891784854233265,-0.00041874716407619417,-0.0036267146933823824,0.0018114469712600112,-0.007490697782486677,0.010588239878416061,0.0031759794801473618,0.09996851533651352,0.11604619771242142,-0.026786789298057556,0.0,0.0,0.0,0.008278326131403446,-0.004435637965798378,-0.0,0.0,0.0,0.0,0.0022927981335669756,-0.006392097566276789,-0.00019626031280495226,13649.0,14683.0,14730.0,14222.0,0.41608506441116333,0.48564571142196655,0.48899561166763306,0.4539903998374939,0.0,0.0,0.0,0.0,14143.0,14158.0,15160.0,13814.0,1.7118887901306152,0.05546822645268584,-0.14978858958824742,0.0989529094218104,0.018296467140316963,0.026267433539032936,0.0
469,5,-0.0027033165097236633,0.0019038193859159946,0.0021765080746263266,-0.0006258226349018514,-0.003486948786303401,0.002245041076093912,-0.007490697782486677,0.010588239878416061,0.0031759794801473618,0.09996851533651352,0.11604619771242142,-0.026786789298057556,0.0,0.0,0.0,0.008278326131403446,-0.004435637965798378,-0.0,0.0,0.0,0.0,0.0022927981335669756,-0.006392097566276789,-0.00019626031280495226,13649.0,14683.0,14730.0,14222.0,0.41608506441116333,0.48564571142196655,0.48899561166763306,0.4539903998374939,0.0,0.0,0.0,0.0,14143.0,14158.0,15160.0,13814.0,1.7118887901306152,0.05519090215035177,-0.1482277384939044,0.09884764540615093,0.018296467140316963,0.026267433539032936,0.0
474,5,-0.002693700371310115,0.0019211028702557087,0.002148633822798729,0.0009036078699864447,-0.003468800103291869,0.004242922645062208,-0.006953320000320673,0.008854158222675323,0.0033097558189183474,0.03272965922951698,0.2650562524795532,-0.0007704534800723195,0.0,0.0,0.0,0.007477802690118551,-0.004223856143653393,-0.0,0.0,0.0,0.0,0.0025475837755948305,0.0021165309008210897,5.795988727186341e-06,13898.0,13612.0,14207.0,14006.0,0.4323195815086365,0.41367220878601074,0.45298564434051514,0.4395079016685486,0.0,0.0,0.0,0.0,14123.0,13363.0,14382.0,13840.0,1.7046936750411987,0.0554804432965752,-0.1468833798924416,0.09892931150363096,0.01734977774322033,0.02362770587205887,-0.0
