timestamp,dt,pos_x,pos_y,pos_z,vel_x,vel_y,vel_z,roll,pitch,yaw,agv_x,agv_y,agv_z,x_ref,y_ref,z_ref,roll_ref,pitch_ref,yaw_ref,x_vel_ref,y_vel_ref,z_vel_ref,x_torque,y_torque,z_torque,w0,w1,w2,w3,u0,u1,u2,u3,m0req,m1req,m2req,m3req,thrust0,thrust1,thrust2,thrust3,thrust_ref,roll_vicon,pitch_vicon,yaw_vicon,acc_x,acc_y,acc_z
5,5,0.0,0.0,0.0,-0.0016566063277423382,0.0012632113648578525,-0.000503159302752465,-0.0163609366863966,-0.2035149782896042,0.008833453990519047,0.0006596742896363139,0.001863939454779029,-0.0029486685525625944,0.0,0.0,0.0,-0.001551763853058219,-0.001565402140840888,-0.0,0.0,0.0,0.0,0.0016516506439074874,0.02039189264178276,0.0007589579909108579,1495.0,1495.0,1495.0,1495.0,0.0,0.0,0.0,0.0,0.0,0.0,0.0,0.0,1495.0,1495.0,1495.0,1495.0,1.646923542022705,0.01799735390286567,0.2130950059742089,-0.07354693134397548,0.006212273612618446,-0.00473704282194376,0.0
31,26,0.0,0.0,0.0,0.0001217162498505786,0.00023470121959690005,-0.003857945092022419,-0.0163609366863966,-0.2035149782896042,0.008833453990519047,0.0006596742896363139,0.001863939454779029,-0.0029486685525625944,0.0,0.0,0.0,-0.001551763853058219,-0.001565402140840888,-0.0,0.0,0.0,0.0,0.0016516506439074874,0.02039189264178276,0.0007589579909108579,1495.0,1495.0,1495.0,1495.0,0.0,0.0,0.0,0.0,0.0,0.0,0.0,0.0,1495.0,1495.0,1495.0,1495.0,1.646923542022705,0.018668966097716753,0.21351782977455303,-0.07349374901140895,0.006212273612618446,-0.00473704282194376,0.0
36,5,0.0,0.0,0.0,-0.0010929076233878732,0.0015161002520471811,-0.0021764617413282394,-0.0163609366863966,-0.2035149782896042,0.008833453990519047,0.0006596742896363139,0.001863939454779029,-0.0029486685525625944,0.0,0.0,0.0,-0.000291582167847082,0.00011631904635578394,-0.0,0.0,0.0,0.0,0.0016516506439074874,0.02039189264178276,0.0007589579909108579,1495.0,1495.0,1495.0,1495.0,0.0,0.0,0.0,0.0,0.0,0.0,0.0,0.0,1495.0,1495.0,1495.0,1495.0,1.6284600496292114,0.017999991931979008,0.2136020336782776,-0.0734958214054041,-0.00045643592602573335,-0.000880129577126354,0.0
41,5,0.0,0.0,0.0,0.0034753624349832535,0.0017780776834115386,-0.00010552917228778824,-0.016355307772755623,-0.2035382091999054,0.008812434040009975,-0.0015864783199504018,0.0036438568495213985,0.0008486983715556562,0.0,0.0,0.0,-0.000291582167847082,0.00011631904635578394,-0.0,0.0,0.0,0.0,0.0014885535929352045,0.02022041380405426,0.0008219662122428417,1495.0,1495.0,1495.0,1495.0,0.0,0.0,0.0,0.0,0.0,0.0,0.0,0.0,1495.0,1495.0,1495.0,1495.0,1.6284600496292114,0.01933422748083678,0.2136421507066325,-0.07411232051177195,-0.00045643592602573335,-0.000880129577126354,0.0
50,9,0.0,0.0,0.0,0.0006623510271310806,-0.0009847693145275116,0.0001393090933561325,-0.016344426199793816,-0.20354661345481873,0.008834749460220337,0.0027749058790504932,-0.0007660270784981549,0.0015551483957096934,0.0,0.0,0.0,-0.000291582167847082,0.00011631904635578394,-0.0,0.0,0.0,0.0,0.0014645458431914449,0.020186886191368103,0.0009341863333247602,1495.0,1495.0,1495.0,1495.0,0.0,0.0,0.0,0.0,0.0,0.0,0.0,0.0,1495.0,1495.0,1495.0,1495.0,1.6284600496292114,0.01922483149095574,0.21352336159011043,-0.07399024785971865,-0.0024838163517415524,0.0036928849294781685,0.0
55,5,0.0,0.0,0.0,-0.0014289126265794039,-0.0012688764836639166,0.0033392508048564196,-0.016353705897927284,-0.20354199409484863,0.008843724615871906,-0.001329505117610097,-0.0020921542309224606,0.0002756121102720499,0.0,0.0,0.0,0.0012164401123300195,0.0006293630576692522,-0.0,0.0,0.0,0.0,0.001622393960133195,0.02036275342106819,0.0009063015459105372,15100.0,11434.0,12486.0,14659.0,0.5152614116668701,0.28503191471099854,0.34418803453445435,0.4839786887168884,0.0,0.0,0.0,0.0,15075.0,11468.0,12452.0,14686.0,1.637821912765503,0.01707485285912261,0.2126652623175934,-0.07302620782030715,-0.0024838163517415524,0.0036928849294781685,0.0
64,8,0.0,0.0,0.0,-0.0012296257773414254,-0.00029730002279393375,0.0026446888223290443,-0.016353705897927284,-0.20354199409484863,0.008843724615871906,-0.001329505117610097,-0.0020921542309224606,0.0002756121102720499,0.0,0.0,0.0,0.0012164401123300195,0.0006293630576692522,-0.0,0.0,0.0,0.0,0.001622393960133195,0.02036275342106819,0.0009063015459105372,15100.0,11434.0,12486.0,14659.0,0.5152614116668701,0.28503191471099854,0.34418803453445435,0.4839786887168884,0.0,0.0,0.0,0.0,15075.0,11468.0,12452.0,14686.0,1.637821912765503,0.01814058049991274,0.21343769220196745,-0.07332466128323403,-0.0024838163517415524,0.0036928849294781685,0.0
69,5,0.0,0.0,0.0,-0.0021705154795199633,-0.0005734434234909713,0.002635311335325241,-0.01635524444282055,-0.20353059470653534,0.00883085373789072,0.0021816499065607786,-0.002940695034340024,-0.0001824648497859016,0.0,0.0,0.0,0.0003670627193059772,-0.0011678177397698164,-0.0,0.0,0.0,0.0,0.0017327938694506884,0.020431900396943092,0.000834954553283751,15089.0,11452.0,12471.0,14668.0,0.5144367814064026,0.28602203726768494,0.34334972500801086,0.48465147614479065,0.0,0.0,0.0,0.0,15092.0,11450.0,12470.0,14668.0,1.6386168003082275,0.017608840776672425,0.2130525007171088,-0.07324772589343238,0.004611096810549498,0.001114875078201294,0.0
75,6,1.1099486982857343e-05,-5.447976946015842e-06,2.516325366741512e-05,0.0004922188818454742,0.00014700570318382233,-0.0010461832862347364,-0.01635524444282055,-0.20353059470653534,0.00883085373789072,0.0021816499065607786,-0.002940695034340024,-0.0001824648497859016,0.0,0.0,0.0,0.0003670627193059772,-0.0011678177397698164,-0.0,0.0,0.0,0.0,0.0017327938694506884,0.020431900396943092,0.000834954553283751,15089.0,11452.0,12471.0,14668.0,0.5144367814064026,0.28602203726768494,0.34334972500801086,0.48465147614479065,0.0,0.0,0.0,0.0,15092.0,11450.0,12470.0,14668.0,1.6386168003082275,0.018837081163357233,0.21256009038297002,-0.07344050196191347,0.004611096810549498,0.001114875078201294,0.0
80,5,1.8317026842851192e-05,-8.320178494614083e-06,2.600136213004589e-05,0.001062992261722684,0.0004034664889331907,-0.000519046385306865,-0.01635524444282055,-0.20353059470653534,0.00883085373789072,0.0021816499065607786,-0.002940695034340024,-0.0001824648497859016,0.0,0.0,0.0,-0.00019224794232286513,0.00048515628441236913,-0.0,0.0,0.0,0.0,0.0017327938694506884,0.020431900396943092,0.000834954553283751,15089.0,11452.0,12471.0,14668.0,0.5144367814064026,0.28602203726768494,0.34334972500801086,0.48465147614479065,0.0,0.0,0.0,0.0,15092.0,11450.0,12470.0,14668.0,1.631157636642456,0.018737104686440926,0.21283550234080137,-0.07341521758931395,-0.0019069068366661668,-0.0005812543095089495,0.0
85,5,2.668285378604196e-05,-5.43609985470539e-06,1.8072561942972243e-05,0.001429096213541925,-0.00018470286158844829,0.0007438374450430274,-0.01632775366306305,-0.203513965010643,0.008818501606583595,0.003284660866484046,8.790525316726416e-05,-0.0024070043582469225,0.0,0.0,0.0,-0.00019224794232286513,0.00048515628441236913,-0.0,0.0,0.0,0.0,0.0017034552292898297,0.02027527615427971,0.0009591446723788977,15103.0,11499.0,12493.0,14734.0,0.5154723525047302,0.2885230779647827,0.3445919156074524,0.4892345666885376,0.0,0.0,0.0,0.0,15098.0,11502.0,12489.0,14740.0,1.631157636642456,0.018968124146198542,0.21332765058676467,-0.07364245393413045,-0.0019069068366661668,-0.0005812543095089495,0.0
90,5,3.3639433240750805e-05,-1.921215698530432e-05,2.6300444005755708e-05,0.001406427938491106,0.0015792457852512598,-0.0006898108986206353,-0.01632775366306305,-0.203513965010643,0.008818501606583595,0.003284660866484046,8.790525316726416e-05,-0.0024070043582469225,0.0,0.0,0.0,0.0002178989670937881,0.0013926170067861676,-0.0,0.0,0.0,0.0,0.0017034552292898297,0.02027527615427971,0.0009591446723788977,15103.0,11499.0,12493.0,14734.0,0.5154723525047302,0.2885230779647827,0.3445919156074524,0.4892345666885376,0.0,0.0,0.0,0.0,15098.0,11502.0,12489.0,14740.0,1.6407886743545532,0.01860239434733115,0.21345179186698407,-0.07377097109718099,-0.005505998618900776,0.0006626991089433432,-0.0
95,5,2.9754406568827108e-05,-1.1171366168127861e-05,3.4303837310289964e-05,9.636809409130365e-05,-0.0003331966872792691,-0.0012363316491246223,-0.01634131371974945,-0.20348049700260162,0.008817748166620731,-0.0048123314045369625,0.0012371200136840343,0.0050926655530929565,0.0,0.0,0.0,0.000393371214158833,0.00013379314623307437,-0.0,0.0,0.0,0.0,0.0016275757225230336,0.020506087690591812,0.0008453636546619236,15096.0,11464.0,12455.0,14705.0,0.5149700045585632,0.28662410378456116,0.34237244725227356,0.4871911108493805,0.0,0.0,0.0,0.0,15139.0,11463.0,12551.0,14686.0,1.6292718648910522,0.017759622219492763,0.21350810801404435,-0.07325976239680307,-0.0005252659902907908,0.001187967834994197,0.0
103,7,3.901257514371537e-05,-5.114364284963813e-06,3.3794593036873266e-05,0.001149527495726943,-0.0008601188892498612,-0.0004334231489337981,-0.01634131371974945,-0.20348049700260162,0.008817748166620731,-0.0048123314045369625,0.0012371200136840343,0.0050926655530929565,0.0,0.0,0.0,0.000393371214158833,0.00013379314623307437,-0.0,0.0,0.0,0.0,0.0016275757225230336,0.020506087690591812,0.0008453636546619236,15096.0,11464.0,12455.0,14705.0,0.5149700045585632,0.28662410378456116,0.34237244725227356,0.4871911108493805,0.0,0.0,0.0,0.0,15139.0,11463.0,12551.0,14686.0,1.6292718648910522,0.018214950533197244,0.2139062283901089,-0.07345426088105833,-0.0005252659902907908,0.001187967834994197,0.0
108,5,3.294235284556635e-05,-4.1355856410518754e-06,3.910272062057629e-05,-0.0002686157531570643,-0.000461501011159271,-0.0008103446452878416,-0.016353050246834755,-0.20346900820732117,0.008829021826386452,0.0009355912334285676,0.0024685796815901995,-0.000943783379625529,0.0,0.0,0.0,0.0010512715671211481,0.0011446742573753,-0.0,0.0,0.0,0.0,0.001655127853155136,0.020637234672904015,0.000859504914842546,15096.0,11464.0,12455.0,14705.0,0.5149700045585632,0.28662410378456116,0.34237244725227356,0.4871911108493805,0.0,0.0,0.0,0.0,15130.0,11419.0,12496.0,14670.0,1.640776515007019,0.017962456520214817,0.21314240847171237,-0.07321825061407561,-0.004525670316070318,0.0031972217839211226,0.0
113,5,9.63519141805591e-06,4.658302259485936e-06,4.9244044930674136e-05,-0.002904305700212717,-0.0012398669496178627,-0.001541096600703895,-0.016331033781170845,-0.20346161723136902,0.008841324597597122,0.002796886721625924,0.0014662473695352674,-0.00038690021028742194,0.0,0.0,0.0,0.0010512715671211481,0.0011446742573753,-0.0,0.0,0.0,0.0,0.0016956577310338616,0.020493708550930023,0.0007845578365959227,15143.0,11485.0,12498.0,14741.0,0.5183858871459961,0.2877606153488159,0.34490877389907837,0.48973339796066284,0.0,0.0,0.0,0.0,15148.0,11480.0,12505.0,14734.0,1.640776515007019,0.018455196746074518,0.21301309586655237,-0.07315094988606707,-0.004525670316070318,0.0031972217839211226,0.0
118,5,6.540033723467786e-07,-1.4189315152179915e-05,3.530838876031339e-05,-0.002239464782178402,0.0017657673452049494,0.0010558399371802807,-0.016331033781170845,-0.20346161723136902,0.008841324597597122,0.002796886721625924,0.0014662473695352674,-0.00038690021028742194,0.0,0.0,0.0,0.001521495752967894,-0.002713198075070977,-0.0,0.0,0.0,0.0,0.0016956577310338616,0.020493708550930023,0.0007845578365959227,15143.0,11485.0,12498.0,14741.0,0.5183858871459961,0.2877606153488159,0.34490877389907837,0.48973339796066284,0.0,0.0,0.0,0.0,15148.0,11480.0,12505.0,14734.0,1.6577024459838867,0.017965180395063472,0.21281345296857024,-0.07367794819584937,0.010837745852768421,0.004675042815506458,0.0
123,5,5.854502433066955e-06,-1.191835599456681e-05,4.867934421781683e-06,-0.00027172602131031454,0.0004337918944656849,0.004075190518051386,-0.016331033781170845,-0.20346161723136902,0.008841324597597122,0.002796886721625924,0.0014662473695352674,-0.00038690021028742194,0.0,0.0,0.0,0.001521495752967894,-0.002713198075070977,-0.0,0.0,0.0,0.0,0.0016956577310338616,0.020493708550930023,0.0007845578365959227,15143.0,11485.0,12498.0,14741.0,0.5183858871459961,0.2877606153488159,0.34490877389907837,0.48973339796066284,0.0,0.0,0.0,0.0,15148.0,11480.0,12505.0,14734.0,1.6577024459838867,0.018193604481006324,0.21284266759947867,-0.07345835672840656,0.010837745852768421,0.004675042815506458,0.0
128,5,1.2362560482870322e-05,-6.131955160526559e-06,5.759967734775273e-06,0.0006722765392623842,-0.0005208513466641307,0.001523032202385366,-0.01634766347706318,-0.20340073108673096,0.008792608045041561,-0.0006324629648588598,-0.002003768924623728,-0.00012595715816132724,0.0,0.0,0.0,0.001521495752967894,-0.002713198075070977,-0.0,0.0,0.0,0.0,0.0017760097980499268,0.020649602636694908,0.0007823879714123905,15130.0,11483.0,12498.0,14755.0,0.5174562335014343,0.2876884937286377,0.3448910117149353,0.49074074625968933,0.0,0.0,0.0,0.0,15105.0,11424.0,12473.0,14684.0,1.6577024459838867,0.018590353069688256,0.21301230596035403,-0.07348841896614379,0.010837745852768421,0.004675042815506458,0.0
133,5,2.080066769849509e-05,-1.1080416697950568e-05,2.8383567041601054e-05,0.0012814834481105208,0.00038547482108697295,-0.0021056190598756075,-0.01634766347706318,-0.20340073108673096,0.008792608045041561,-0.0006324629648588598,-0.002003768924623728,-0.00012595715816132724,0.0,0.0,0.0,0.0006335282814688981,0.0006574723520316184,-0.0,0.0,0.0,0.0,0.0017760097980499268,0.020649602636694908,0.0007823879714123905,15130.0,11483.0,12498.0,14755.0,0.5174562335014343,0.2876884937286377,0.3448910117149353,0.49074074625968933,0.0,0.0,0.0,0.0,15105.0,11424.0,12473.0,14684.0,1.634494423866272,0.017605677897490412,0.2132489955707747,-0.0733572903268992,-0.0025894809514284134,0.00191936653573066,-0.0
138,5,3.8423979276558384e-05,6.304318844740919e-07,5.3019666665932164e-05,0.0026273909024894238,-0.0012511118547990918,-0.003798579564318061,-0.016344932839274406,-0.2033768892288208,0.008780194446444511,-0.0013848356902599335,-0.002005977788940072,-0.004353650845587254,0.0,0.0,0.0,0.0006335282814688981,0.0006574723520316184,-0.0,0.0,0.0,0.0,0.0017588590271770954,0.020722495391964912,0.000825144408736378,15146.0,11612.0,12573.0,14817.0,0.5185458064079285,0.2946782410144806,0.3493659198284149,0.4951125383377075,0.0,0.0,0.0,0.0,15146.0,11465.0,12512.0,14742.0,1.634494423866272,0.018106043367755887,0.2131442466258802,-0.07346644410772381,-0.0025894809514284134,0.00191936653573066,-0.0
143,5,3.167776594636962e-05,9.468467396800406e-06,6.391501665348187e-05,0.0002414107002550736,-0.0015610090922564268,-0.0028268739115446806,-0.016344932839274406,-0.2033768892288208,0.008780194446444511,-0.0013848356902599335,-0.002005977788940072,-0.004353650845587254,0.0,0.0,0.0,0.0015297394711524248,0.0025225137360394,-0.0,0.0,0.0,0.0,0.0017588590271770954,0.020722495391964912,0.000825144408736378,15146.0,11612.0,12573.0,14817.0,0.5185458064079285,0.2946782410144806,0.3493659198284149,0.4951125383377075,0.0,0.0,0.0,0.0,15146.0,11465.0,12512.0,14742.0,1.6558213233947754,0.01885243545208429,0.21328956946172162,-0.07305702835106566,-0.010064632631838322,0.00469503877684474,0.0
148,5,4.0691811591386795e-05,-1.4561291209247429e-05,4.124569386476651e-05,0.0011782496003434062,0.0022591673769056797,0.0015895692631602287,-0.016322901472449303,-0.20334671437740326,0.008778146468102932,0.0022750478237867355,0.002551328158006072,-0.00019316686666570604,0.0,0.0,0.0,0.0015297394711524248,0.0025225137360394,-0.0,0.0,0.0,0.0,0.0017755028093233705,0.02039114385843277,0.0008444141712971032,15172.0,11582.0,12590.0,14800.0,0.5204777717590332,0.29300519824028015,0.35035261511802673,0.49386686086654663,0.0,0.0,0.0,0.0,15163.0,11589.0,12599.0,14797.0,1.6558213233947754,0.01871978847852621,0.21359650477626235,-0.07386719801557141,-0.010064632631838322,0.00469503877684474,0.0
153,5,2.7845973818330094e-05,-1.7739361283020116e-05,9.038366442837287e-06,-0.0010702005820348859,0.0012850353959947824,0.004500707145780325,-0.016322901472449303,-0.20334671437740326,0.008778146468102932,0.0022750478237867355,0.002551328158006072,-0.00019316686666570604,0.0,0.0,0.0,-0.0027927146293222904,0.001166288973763585,-0.0,0.0,0.0,0.0,0.0017755028093233705,0.02039114385843277,0.0008444141712971032,15172.0,11582.0,12590.0,14800.0,0.5204777717590332,0.29300519824028015,0.35035261511802673,0.49386686086654663,0.0,0.0,0.0,0.0,15163.0,11589.0,12599.0,14797.0,1.6521116495132446,0.0186599885464826,0.21321255608045311,-0.07363036747489544,-0.004642967600375414,-0.00855211354792118,-0.0
158,5,1.7775773812900297e-05,-1.9159126168233342e-05,4.198268015898066e-06,-0.0016365041956305504,0.0006843858864158392,0.0023810944985598326,-0.016322901472449303,-0.20334671437740326,0.008778146468102932,0.0022750478237867355,0.002551328158006072,-0.00019316686666570604,0.0,0.0,0.0,-0.0027927146293222904,0.001166288973763585,-0.0,0.0,0.0,0.0,0.0017755028093233705,0.02039114385843277,0.0008444141712971032,15172.0,11582.0,12590.0,14800.0,0.5204777717590332,0.29300519824028015,0.35035261511802673,0.49386686086654663,0.0,0.0,0.0,0.0,15163.0,11589.0,12599.0,14797.0,1.6521116495132446,0.017975295179023604,0.21297444600035287,-0.07357356908895,-0.004642967600375414,-0.00855211354792118,-0.0
163,5,4.241537681082264e-06,-1.794443596736528e-05,2.3487143607781036e-06,-0.0022787100169807673,0.00012799148680642247,0.0011743842624127865,-0.016302213072776794,-0.20334742963314056,0.008799681439995766,-0.0012383887078613043,0.004314609337598085,0.0007414419669657946,0.0,0.0,0.0,-0.0008770501590333879,-0.0015245997346937656,-0.0,0.0,0.0,0.0,0.0017161259893327951,0.020767370238900185,0.0009296024800278246,15142.0,11415.0,12487.0,14714.0,0.5183040499687195,0.28404200077056885,0.34428536891937256,0.4878630042076111,0.0,0.0,0.0,0.0,15160.0,11391.0,12519.0,14688.0,1.6436517238616943,0.017799753908471383,0.21299776906084275,-0.07362820772029773,0.0060383351519703865,-0.002672038273885846,-0.0
168,5,1.0589745215838775e-05,-1.9436095044511603e-06,2.119698910973966e-05,-0.00014969911717344075,-0.0018689024727791548,-0.001792039256542921,-0.016254369169473648,-0.2034088671207428,0.008866940625011921,0.010356583632528782,0.010525690391659737,0.012423548847436905,0.0,0.0,0.0,-0.0008770501590333879,-0.0015245997346937656,-0.0,0.0,0.0,0.0,0.0017638371791690588,0.021031906828284264,0.0015021456638351083,15421.0,11228.0,12791.0,14611.0,0.5386651158332825,0.27408450841903687,0.3624032139778137,0.48066848516464233,0.0,0.0,0.0,0.0,15220.0,11497.0,12554.0,14820.0,1.6436517238616943,0.018581260098925006,0.2127296782544492,-0.07365797261004789,0.0060383351519703865,-0.002672038273885846,-0.0
173,5,0.00021448508778121322,-0.00026476371567696333,-0.00016841273463796824,0.024407561868429184,0.030790850520133972,0.022036351263523102,-0.016254369169473648,-0.2034088671207428,0.008866940625011921,0.010356583632528782,0.010525690391659737,0.012423548847436905,0.0,0.0,0.0,0.0022952414583414793,-0.00012673869787249714,-0.0,0.0,0.0,0.0,0.0017638371791690588,0.021031906828284264,0.0015021456638351083,15421.0,11228.0,12791.0,14611.0,0.5386651158332825,0.27408450841903687,0.3624032139778137,0.48066848516464233,0.0,0.0,0.0,0.0,15220.0,11497.0,12554.0,14820.0,1.6447690725326538,-0.00036234530225722167,0.2025785468409584,-0.07494455572125157,0.0005023020203225315,0.006997471675276756,0.0
178,5,5.0638536777114496e-05,-0.00010579772060737014,-7.33513297745958e-05,-0.009898561984300613,-0.00675957789644599,-0.002592828357592225,-0.016254369169473648,-0.2034088671207428,0.008866940625011921,0.010356583632528782,0.010525690391659737,0.012423548847436905,0.0,0.0,0.0,0.0022952414583414793,-0.00012673869787249714,-0.0,0.0,0.0,0.0,0.0017638371791690588,0.021031906828284264,0.0015021456638351083,15421.0,11228.0,12791.0,14611.0,0.5386651158332825,0.27408450841903687,0.3624032139778137,0.48066848516464233,0.0,0.0,0.0,0.0,15220.0,11497.0,12554.0,14820.0,1.6447690725326538,0.011693039380943262,0.2124689163149491,-0.07423076527789292,0.0005023020203225315,0.006997471675276756,0.0
183,5,8.710286238056142e-06,-8.923449968278874e-06,4.532196544460021e-05,-0.008990814909338951,-0.01432874333113432,-0.015277925878763199,-0.01605553925037384,-0.2034963220357895,0.008993756026029587,0.01001236867159605,-0.003164419438689947,0.11535443365573883,0.0,0.0,0.0,0.00765823433175683,-0.00876318197697401,-0.0,0.0,0.0,0.0,0.0012933936668559909,0.020864475518465042,0.002229652600362897,16022.0,10378.0,13480.0,13892.0,0.5837376713752747,0.23121321201324463,0.40522485971450806,0.4319359362125397,0.0,0.0,0.0,0.0,14986.0,11854.0,12187.0,15029.0,1.744718074798584,0.01855147848927044,0.2134896283371695,-0.07422332178628259,0.03684009239077568,0.02476593665778637,0.0
189,5,4.617319427779876e-05,-1.7994931113207713e-05,0.00011777543113566935,0.0008992229122668505,-0.004642919637262821,-0.014805587008595467,-0.01605553925037384,-0.2034963220357895,0.008993756026029587,0.01001236867159605,-0.003164419438689947,0.11535443365573883,0.0,0.0,0.0,0.00765823433175683,-0.00876318197697401,-0.0,0.0,0.0,0.0,0.0012933936668559909,0.020864475518465042,0.002229652600362897,16022.0,10378.0,13480.0,13892.0,0.5837376713752747,0.23121321201324463,0.40522485971450806,0.4319359362125397,0.0,0.0,0.0,0.0,14986.0,11854.0,12187.0,15029.0,1.744718074798584,0.01696512545773521,0.21010697450535662,-0.0738930035561761,0.03684009239077568,0.02476593665778637,0.0
194,5,0.00011659911251626909,-0.00022294311202131212,6.783271237509325e-05,0.008810799568891525,0.02273661270737648,7.089151768013835e-05,-0.01611284166574478,-0.20346787571907043,0.00845269300043583,-0.017486058175563812,-0.018736934289336205,-0.07722130417823792,0.0,0.0,0.0,0.005580660421401262,0.000899470061995089,-0.0,0.0,0.0,0.0,0.0016018202295526862,0.020560581237077713,-0.00309278373606503,14007.0,12885.0,11094.0,15826.0,0.4395724833011627,0.3681270182132721,0.26709040999412537,0.5688618421554565,0.0,0.0,0.0,0.0,15852.0,10521.0,13332.0,13996.0,1.6735554933547974,0.0024938279255140184,0.20443754639622796,-0.07543694629329632,-0.003627203404903412,0.017311319708824158,0.0
199,5,-0.00010121566447196528,-3.2902578823268414e-05,-5.917093403695617e-06,-0.02261345274746418,-0.013710218481719494,0.008878333494067192,-0.01611284166574478,-0.20346787571907043,0.00845269300043583,-0.017486058175563812,-0.018736934289336205,-0.07722130417823792,0.0,0.0,0.0,0.005580660421401262,0.000899470061995089,-0.0,0.0,0.0,0.0,0.0016018202295526862,0.020560581237077713,-0.00309278373606503,14007.0,12885.0,11094.0,15826.0,0.4395724833011627,0.3681270182132721,0.26709040999412537,0.5688618421554565,0.0,0.0,0.0,0.0,15852.0,10521.0,13332.0,13996.0,1.6735554933547974,0.019333894738661206,0.22171555659171102,-0.07616315511633956,-0.003627203404903412,0.017311319708824158,0.0
204,5,3.0064451493672095e-05,-1.0409489732410293e-05,8.179681026376784e-05,0.006708232685923576,-0.008183257654309273,-0.006974334828555584,-0.016205791383981705,-0.20330235362052917,0.008800395764410496,-0.004920106381177902,-0.00231460714712739,-0.06314662843942642,0.0,0.0,0.0,0.014641634188592434,-0.018766703084111214,-0.0,0.0,0.0,0.0,0.00189475086517632,0.02077617682516575,0.0017672711983323097,15033.0,11628.0,12377.0,14900.0,0.5104582905769348,0.2955295741558075,0.33779457211494446,0.500986635684967,0.0,0.0,0.0,0.0,15450.0,11030.0,12944.0,14436.0,1.8878517150878906,0.01825236756592787,0.21304566741579434,-0.07418464930579657,0.08535632491111755,0.05123158544301987,0.0
209,5,2.712117748160381e-05,2.606406042104936e-06,6.162529462017119e-05,0.0023301003966480494,-0.004835210740566254,-0.00036915199598297477,-0.016205791383981705,-0.20330235362052917,0.008800395764410496,-0.004920106381177902,-0.00231460714712739,-0.06314662843942642,0.0,0.0,0.0,0.014641634188592434,-0.018766703084111214,-0.0,0.0,0.0,0.0,0.00189475086517632,0.02077617682516575,0.0017672711983323097,15033.0,11628.0,12377.0,14900.0,0.5104582905769348,0.2955295741558075,0.33779457211494446,0.500986635684967,0.0,0.0,0.0,0.0,15450.0,11030.0,12944.0,14436.0,1.8878517150878906,0.018567148407246933,0.21309008310334807,-0.07367976161059785,0.08535632491111755,0.05123158544301987,0.0
214,5,1.8739738152362406e-05,-3.904267032339703e-06,6.160558405099437e-05,-7.373260450549424e-05,-0.001152803422883153,-0.00014529589680023491,-0.0164636317640543,-0.2030581831932068,0.0084192780777812,0.005111590959131718,-0.05934417247772217,0.0505976527929306,0.0,0.0,0.0,0.005826073233038187,0.002195157576352358,-0.0,0.0,0.0,0.0,0.002645879751071334,0.019313860684633255,0.0018655923195183277,15781.0,11433.0,13581.0,14639.0,0.565436840057373,0.2849637269973755,0.4116957187652588,0.4826218783855438,0.0,0.0,0.0,0.0,15565.0,11155.0,13069.0,14524.0,1.6803185939788818,0.018166234106706772,0.21309453655632302,-0.07380008376033131,-0.008887948468327522,0.018145613372325897,0.0
219,5,0.00010979467333527282,-0.00020641832088585943,3.762431151699275e-05,0.010897099040448666,0.023840565234422684,0.002819634508341551,-0.0164636317640543,-0.2030581831932068,0.0084192780777812,0.005111590959131718,-0.05934417247772217,0.0505976527929306,0.0,0.0,0.0,0.005826073233038187,0.002195157576352358,-0.0,0.0,0.0,0.0,0.002645879751071334,0.019313860684633255,0.0018655923195183277,15781.0,11433.0,13581.0,14639.0,0.565436840057373,0.2849637269973755,0.4116957187652588,0.4826218783855438,0.0,0.0,0.0,0.0,15565.0,11155.0,13069.0,14524.0,1.6803185939788818,0.004508903556160598,0.2056726200516577,-0.07539473902769073,-0.008887948468327522,0.018145613372325897,0.0
224,5,-9.771028999239206e-05,-0.00012768620217684656,0.00036946669570170343,-0.020541755482554436,8.837239147396758e-05,-0.03869323059916496,-0.016442539170384407,-0.20283566415309906,0.008428603410720825,0.0035318059381097555,0.015222744084894657,-0.02988191321492195,0.0,0.0,0.0,-0.02587539702653885,0.00911797396838665,-0.0,0.0,0.0,0.0,0.0024321512319147587,0.0210972148925066,-0.00015266903210431337,14905.0,11981.0,12234.0,15270.0,0.501330554485321,0.3151269555091858,0.32953763008117676,0.5275603532791138,0.0,0.0,0.0,0.0,15202.0,11647.0,12568.0,14960.0,1.8881118297576904,0.010088754872285615,0.2088000785386401,-0.07555829364699627,-0.041469283401966095,-0.09053890407085419,-0.0
229,5,-8.474006608594209e-05,-7.250580529216677e-05,-8.279025678348262e-06,-0.006660275626927614,-0.0065862988121807575,0.029852192848920822,-0.016442539170384407,-0.20283566415309906,0.008428603410720825,0.0035318059381097555,0.015222744084894657,-0.02988191321492195,0.0,0.0,0.0,-0.02587539702653885,0.00911797396838665,-0.0,0.0,0.0,0.0,0.0024321512319147587,0.0210972148925066,-0.00015266903210431337,14905.0,11981.0,12234.0,15270.0,0.501330554485321,0.3151269555091858,0.32953763008117676,0.5275603532791138,0.0,0.0,0.0,0.0,15202.0,11647.0,12568.0,14960.0,1.8881118297576904,0.016593956525627812,0.22010629151514388,-0.07536650198296031,-0.041469283401966095,-0.09053890407085419,-0.0
234,5,4.30860418418888e-05,-3.444315734668635e-05,0.00010715837561292574,0.012675022706389427,-0.0072020371444523335,-0.0019116108305752277,-0.01627933420240879,-0.2029411345720291,0.00840681605041027,-0.04123837500810623,0.020352927967905998,0.017946096137166023,0.0,0.0,0.0,0.007620150689035654,-0.006137502379715443,-0.0,0.0,0.0,0.0,0.0032173306681215763,0.019359175115823746,0.0008328116382472217,15865.0,12477.0,13781.0,15544.0,0.5717708468437195,0.34368401765823364,0.4246690273284912,0.5477277636528015,0.0,0.0,0.0,0.0,16011.0,12228.0,14000.0,15394.0,1.720314383506775,0.018705147658210002,0.21389648701834255,-0.07411774656589622,0.025441110134124756,0.02429809980094433,0.0
239,5,8.755272574489936e-05,-1.772325958881993e-05,0.00017174318782053888,0.010406010784208775,-0.004887202754616737,-0.008514821529388428,-0.01627933420240879,-0.2029411345720291,0.00840681605041027,-0.04123837500810623,0.020352927967905998,0.017946096137166023,0.0,0.0,0.0,0.007620150689035654,-0.006137502379715443,-0.0,0.0,0.0,0.0,0.0032173306681215763,0.019359175115823746,0.0008328116382472217,15865.0,12477.0,13781.0,15544.0,0.5717708468437195,0.34368401765823364,0.4246690273284912,0.5477277636528015,0.0,0.0,0.0,0.0,16011.0,12228.0,14000.0,15394.0,1.720314383506775,0.019010188759123362,0.21308153326567025,-0.07358957736660288,0.025441110134124756,0.02429809980094433,0.0
244,5,0.00011126709432573989,-4.3972235289402306e-05,0.00020632098312489688,0.007008128799498081,0.001194995827972889,-0.0075552635826170444,-0.01625886745750904,-0.2034982591867447,0.008334421552717686,0.085804283618927,0.04445916414260864,-0.01865883730351925,0.0,0.0,0.0,0.005643994547426701,0.009409704245626926,-0.0,0.0,0.0,0.0,0.001741110230796039,0.022008275613188744,-0.0001755743578542024,15003.0,12012.0,12124.0,15330.0,0.5082751512527466,0.31687456369400024,0.3232095241546631,0.5319593548774719,0.0,0.0,0.0,0.0,15403.0,11473.0,12716.0,14859.0,1.7423752546310425,0.01928814682400916,0.2138294444088797,-0.0738286815121902,-0.039505381137132645,0.018227731809020042,0.0
249,5,0.000153985689394176,-4.742525561596267e-05,0.0002782090159598738,0.007929482497274876,0.0008923611021600664,-0.01164866890758276,-0.01625886745750904,-0.2034982591867447,0.008334421552717686,0.085804283618927,0.04445916414260864,-0.01865883730351925,0.0,0.0,0.0,0.005643994547426701,0.009409704245626926,-0.0,0.0,0.0,0.0,0.001741110230796039,0.022008275613188744,-0.0001755743578542024,15003.0,12012.0,12124.0,15330.0,0.5082751512527466,0.31687456369400024,0.3232095241546631,0.5319593548774719,0.0,0.0,0.0,0.0,15403.0,11473.0,12716.0,14859.0,1.7423752546310425,0.01936700986139332,0.21275656251824596,-0.07352511914303277,-0.039505381137132645,0.018227731809020042,0.0
254,5,0.00011874300253111869,-0.00013078245683573186,0.0004164774145465344,-0.0010573294712230563,0.0103598078712821,-0.021251676604151726,-0.015707409009337425,-0.20331259071826935,0.008459603413939476,0.08127571642398834,-0.09774640947580338,-0.0092616006731987,0.0,0.0,0.0,-0.001139593543484807,0.0074285403825342655,-0.0,0.0,0.0,0.0,0.0018570144893601537,0.01749756932258606,0.0009803324937820435,15246.0,12038.0,13124.0,14793.0,0.5258263349533081,0.3183221220970154,0.3827662467956543,0.49339964985847473,0.0,0.0,0.0,0.0,15948.0,13081.0,13011.0,15629.0,1.7086286544799805,0.015174362107397234,0.21098904078731853,-0.07481120180785236,-0.030584318563342094,-0.0036091594956815243,0.0
259,5,0.00018637442553881556,-8.539228292647749e-05,0.00044584067654795945,0.007692839950323105,-0.0013028971152380109,-0.012024261057376862,-0.015707409009337425,-0.20331259071826935,0.008459603413939476,0.08127571642398834,-0.09774640947580338,-0.0092616006731987,0.0,0.0,0.0,-0.001139593543484807,0.0074285403825342655,-0.0,0.0,0.0,0.0,0.0018570144893601537,0.01749756932258606,0.0009803324937820435,15246.0,12038.0,13124.0,14793.0,0.5258263349533081,0.3183221220970154,0.3827662467956543,0.49339964985847473,0.0,0.0,0.0,0.0,15948.0,13081.0,13011.0,15629.0,1.7086286544799805,0.019848434344721253,0.20974163464102474,-0.07329381502479568,-0.030584318563342094,-0.0036091594956815243,0.0
264,5,0.0001832831185311079,-8.907840674510226e-05,0.0005856496863998473,0.0027061784639954567,-7.882456702645868e-05,-0.021586783230304718,-0.015707409009337425,-0.20331259071826935,0.008459603413939476,0.08127571642398834,-0.09774640947580338,-0.0092616006731987,0.0,0.0,0.0,0.0013950021238997579,0.007263183128088713,-0.0,0.0,0.0,0.0,0.0018570144893601537,0.01749756932258606,0.0009803324937820435,15246.0,12038.0,13124.0,14793.0,0.5258263349533081,0.3183221220970154,0.3827662467956543,0.49339964985847473,0.0,0.0,0.0,0.0,15948.0,13081.0,13011.0,15629.0,1.7070388793945312,0.019655406970551306,0.20664599823495153,-0.07308194054531686,-0.029875699430704117,0.0044139414094388485,0.0
269,5,0.00010927540279226378,-0.0001967098069144413,0.0007566525600850582,-0.007798454258590937,0.012884238734841347,-0.029155060648918152,-0.014768751338124275,-0.20078755915164948,0.008440546691417694,0.08114419877529144,-0.3116335868835449,0.01007007621228695,0.0,0.0,0.0,0.0013950021238997579,0.007263183128088713,-0.0,0.0,0.0,0.0,0.0016625968273729086,0.01640382409095764,0.0005811653099954128,15102.0,12451.0,13113.0,14925.0,0.5153992176055908,0.34215959906578064,0.38210657238960266,0.5027098655700684,0.0,0.0,0.0,0.0,15326.0,12028.0,13308.0,14627.0,1.7070388793945312,0.014014090608971604,0.20389612469857515,-0.07505434369379732,-0.029875699430704117,0.0044139414094388485,0.0
274,5,5.224745109444484e-06,-0.000253626931225881,0.0011606942862272263,-0.015605460852384567,0.011983750388026237,-0.060147032141685486,-0.014768751338124275,-0.20078755915164948,0.008440546691417694,0.08114419877529144,-0.3116335868835449,0.01007007621228695,0.0,0.0,0.0,-0.014988896436989307,-0.006684870459139347,-0.0,0.0,0.0,0.0,0.0016625968273729086,0.01640382409095764,0.0005811653099954128,15102.0,12451.0,13113.0,14925.0,0.5153992176055908,0.34215959906578064,0.38210657238960266,0.5027098655700684,0.0,0.0,0.0,0.0,15326.0,12028.0,13308.0,14627.0,1.7782176733016968,0.010418414696916088,0.1967158506639132,-0.07505495656683382,0.02864031493663788,-0.049400754272937775,0.0
280,5,5.2643757953774184e-05,-0.0002153478708351031,0.001162446103990078,0.0009087114012800157,0.004721023607999086,-0.014280050061643124,-0.014295108616352081,-0.19718608260154724,0.008450516499578953,0.08831268548965454,-0.5556629300117493,-0.020012203603982925,0.0,0.0,0.0,-0.014988896436989307,-0.006684870459139347,-0.0,0.0,0.0,0.0,0.0010418484453111887,0.013419370166957378,0.0004965976113453507,14852.0,12520.0,13210.0,14532.0,0.4975312054157257,0.3461934030056,0.38814207911491394,0.4751721918582916,0.0,0.0,0.0,0.0,14849.0,12751.0,12981.0,15042.0,1.7782176733016968,0.017360378684905132,0.1925456514641199,-0.07361754108943001,0.02864031493663788,-0.049400754272937775,0.0
285,5,5.2643757953774184e-05,-0.0002153478708351031,0.001162446103990078,0.0009087114012800157,0.004721023607999086,-0.014280050061643124,-0.014295108616352081,-0.19718608260154724,0.008450516499578953,0.08831268548965454,-0.5556629300117493,-0.020012203603982925,0.0,0.0,0.0,-0.014988896436989307,-0.006684870459139347,-0.0,0.0,0.0,0.0,0.0010418484453111887,0.013419370166957378,0.0004965976113453507,14852.0,12520.0,13210.0,14532.0,0.4975312054157257,0.3461934030056,0.38814207911491394,0.4751721918582916,0.0,0.0,0.0,0.0,14849.0,12751.0,12981.0,15042.0,1.7782176733016968,0.017360378684905132,0.1925456514641199,-0.07361754108943001,0.02864031493663788,-0.049400754272937775,0.0
290,5,-7.0330688686226495e-06,-0.000313400145387277,0.0015280977822840214,-0.005445662885904312,0.00993211567401886,-0.03451366350054741,-0.012541047297418118,-0.18111030757427216,0.00849916972219944,0.1308819055557251,-1.097197413444519,-0.02683037705719471,0.0,0.0,0.0,-0.006074968259781599,0.0009152924176305532,-0.0,0.0,0.0,0.0,0.0005731566343456507,0.00930874329060316,0.0008699703612364829,14567.0,12924.0,13414.0,14281.0,0.4776138365268707,0.37048986554145813,0.4009845554828644,0.457950621843338,0.0,0.0,0.0,0.0,15002.0,12345.0,13556.0,14204.0,1.677757740020752,0.018258829863872485,0.18166590933602983,-0.0749870487559656,-0.0037002661265432835,-0.0188919585198164,0.0
295,5,-3.3071697544073686e-05,-0.000353705050656572,0.0016657342202961445,-0.005302900914102793,0.008809433318674564,-0.03032183274626732,-0.012541047297418118,-0.18111030757427216,0.00849916972219944,0.1308819055557251,-1.097197413444519,-0.02683037705719471,0.0,0.0,0.0,-0.006074968259781599,0.0009152924176305532,-0.0,0.0,0.0,0.0,0.0005731566343456507,0.00930874329060316,0.0008699703612364829,14567.0,12924.0,13414.0,14281.0,0.4776138365268707,0.37048986554145813,0.4009845554828644,0.457950621843338,0.0,0.0,0.0,0.0,15002.0,12345.0,13556.0,14204.0,1.677757740020752,0.019140795509771647,0.17543216788751767,-0.07562403758591109,-0.0037002661265432835,-0.0188919585198164,0.0
300,5,-3.3071697544073686e-05,-0.000353705050656572,0.0016657342202961445,-0.005302900914102793,0.008809433318674564,-0.03032183274626732,-0.010761413723230362,-0.16650576889514923,0.008275963366031647,0.18046808242797852,-1.3163552284240723,-0.027724582701921463,0.0,0.0,0.0,-0.010885495692491531,-0.00480243656784296,-0.0,0.0,0.0,0.0,-0.0012536797439679503,0.004610454197973013,0.00019862334011122584,14555.0,13764.0,13786.0,14206.0,0.47678184509277344,0.423520565032959,0.42501991987228394,0.4528953433036804,0.0,0.0,0.0,0.0,14658.0,13618.0,13640.0,14379.0,1.7340010404586792,0.019140795509771647,0.17543216788751767,-0.07562403758591109,0.020064830780029297,-0.03498569875955582,0.0
305,5,-0.00015109899686649442,-0.0004806988581549376,0.0019152263412252069,-0.011709504760801792,0.012248647399246693,-0.025120873004198074,-0.010761413723230362,-0.16650576889514923,0.008275963366031647,0.18046808242797852,-1.3163552284240723,-0.027724582701921463,0.0,0.0,0.0,-0.010885495692491531,-0.00480243656784296,-0.0,0.0,0.0,0.0,-0.0012536797439679503,0.004610454197973013,0.00019862334011122584,14555.0,13764.0,13786.0,14206.0,0.47678184509277344,0.423520565032959,0.42501991987228394,0.4528953433036804,0.0,0.0,0.0,0.0,14658.0,13618.0,13640.0,14379.0,1.7340010404586792,0.016878338864487922,0.16095271818352377,-0.0757621222747588,0.020064830780029297,-0.03498569875955582,0.0
310,5,-0.00024795124772936106,-0.0005352368461899459,0.0020710239186882973,-0.01630607433617115,0.011444020085036755,-0.028744058683514595,-0.009341505356132984,-0.15515713393688202,0.008265217766165733,0.15392732620239258,-1.4866918325424194,-0.00995675753802061,0.0,0.0,0.0,-0.014549624174833298,-0.01030717696994543,-0.0,0.0,0.0,0.0,-0.0006133008282631636,0.0019449642859399319,0.00042424476123414934,14073.0,13394.0,13744.0,13583.0,0.44393599033355713,0.39974719285964966,0.42225098609924316,0.411823570728302,0.0,0.0,0.0,0.0,14089.0,13386.0,13425.0,13889.0,1.8015692234039307,0.013729627324705408,0.15257120828246654,-0.07581535150341753,0.04473927244544029,-0.04858290031552315,0.0
315,5,-0.000392228364944458,-0.0006488690269179642,0.0022834804840385914,-0.02383568324148655,0.018213465809822083,-0.03699241951107979,-0.009341505356132984,-0.15515713393688202,0.008265217766165733,0.15392732620239258,-1.4866918325424194,-0.00995675753802061,0.0,0.0,0.0,-0.014549624174833298,-0.01030717696994543,-0.0,0.0,0.0,0.0,-0.0006133008282631636,0.0019449642859399319,0.00042424476123414934,14073.0,13394.0,13744.0,13583.0,0.44393599033355713,0.39974719285964966,0.42225098609924316,0.411823570728302,0.0,0.0,0.0,0.0,14089.0,13386.0,13425.0,13889.0,1.8015692234039307,0.00763621462540544,0.145378443715195,-0.07736666176191279,0.04473927244544029,-0.04858290031552315,0.0
320,5,-0.0004029944248031825,-0.0007633025525137782,0.0024992518592625856,-0.010826200246810913,0.0210174098610878,-0.040689531713724136,-0.00807170569896698,-0.1366216540336609,0.008294478990137577,0.029131628572940826,-1.5930242538452148,-0.003984871786087751,0.0,0.0,0.0,-0.0200891625136137,-0.019683172926306725,-0.0,0.0,0.0,0.0,-0.000496755528729409,-0.0011286648223176599,0.00033742960658855736,14031.0,13849.0,14135.0,13641.0,0.4411954879760742,0.429129421710968,0.448089063167572,0.41558706760406494,0.0,0.0,0.0,0.0,14110.0,13862.0,13944.0,13743.0,1.9305440187454224,-0.0012554370653833243,0.13189214146743888,-0.07836928324475541,0.09154003113508224,-0.07187817245721817,0.0
325,5,-0.0005687985685653985,-0.0005799807258881629,0.002750907326117158,-0.024226976558566093,-0.013591652736067772,-0.046474456787109375,-0.00807170569896698,-0.1366216540336609,0.008294478990137577,0.029131628572940826,-1.5930242538452148,-0.003984871786087751,0.0,0.0,0.0,-0.0200891625136137,-0.019683172926306725,-0.0,0.0,0.0,0.0,-0.000496755528729409,-0.0011286648223176599,0.00033742960658855736,14031.0,13849.0,14135.0,13641.0,0.4411954879760742,0.429129421710968,0.448089063167572,0.41558706760406494,0.0,0.0,0.0,0.0,14110.0,13862.0,13944.0,13743.0,1.9305440187454224,0.01320555721875279,0.13046592536221277,-0.07523476149912231,0.09154003113508224,-0.07187817245721817,0.0
330,5,-0.0005175244295969605,-0.0006143978098407388,0.0027326878625899553,-0.0035378928296267986,-0.0013066133251413703,-0.01640346087515354,-0.008044194430112839,-0.12350308150053024,0.008349626325070858,-0.04029242321848869,-1.6488776206970215,-0.021447885781526566,0.0,0.0,0.0,0.013544633984565735,-0.020500853657722473,-0.0,0.0,0.0,0.0,-0.0004029808915220201,-0.004155653994530439,0.0006754754576832056,14013.0,14358.0,14541.0,13750.0,0.43993526697158813,0.4632355570793152,0.4757719039916992,0.4226264953613281,0.0,0.0,0.0,0.0,14394.0,14038.0,14617.0,13604.0,1.9027608633041382,0.01116445559741749,0.12237342715718921,-0.07551835715730446,0.09398050606250763,0.04776787385344505,0.0
335,5,-0.0005849485751241446,-0.0006692282040603459,0.0029338716994971037,-0.009506053291261196,0.0060570030473172665,-0.030703436583280563,-0.008044194430112839,-0.12350308150053024,0.008349626325070858,-0.04029242321848869,-1.6488776206970215,-0.021447885781526566,0.0,0.0,0.0,0.013544633984565735,-0.020500853657722473,-0.0,0.0,0.0,0.0,-0.0004029808915220201,-0.004155653994530439,0.0006754754576832056,14013.0,14358.0,14541.0,13750.0,0.43993526697158813,0.4632355570793152,0.4757719039916992,0.4226264953613281,0.0,0.0,0.0,0.0,14394.0,14038.0,14617.0,13604.0,1.9027608633041382,0.008854029762300118,0.1150355052134136,-0.07530786779828773,0.09398050606250763,0.04776787385344505,0.0
340,5,-0.0006603702786378562,-0.0007287386106327176,0.0030967569909989834,-0.012853026390075684,0.009564045816659927,-0.03182760253548622,-0.008728334680199623,-0.10414864122867584,0.008385151624679565,-0.08032266050577164,-1.602074146270752,-0.016624892130494118,0.0,0.0,0.0,-0.008133955299854279,-0.009209359996020794,-0.0,0.0,0.0,0.0,-0.0005740068736486137,-0.005965517833828926,0.0007915701135061681,14444.0,14891.0,15156.0,14040.0,0.46914440393447876,0.5003458261489868,0.5192704200744629,0.4417833685874939,0.0,0.0,0.0,0.0,14577.0,14804.0,15178.0,13972.0,1.7515815496444702,0.006501649416814605,0.10909082184783903,-0.07587781344670656,0.03886791318655014,-0.026407787576317787,0.0
346,5,-0.0007283808663487434,-0.0007715817191638052,0.003285215236246586,-0.013302480801939964,0.008966796100139618,-0.03534603491425514,-0.008728334680199623,-0.10414864122867584,0.008385151624679565,-0.08032266050577164,-1.602074146270752,-0.016624892130494118,0.0,0.0,0.0,-0.008133955299854279,-0.009209359996020794,-0.0,0.0,0.0,0.0,-0.0005740068736486137,-0.005965517833828926,0.0007915701135061681,14444.0,14891.0,15156.0,14040.0,0.46914440393447876,0.5003458261489868,0.5192704200744629,0.4417833685874939,0.0,0.0,0.0,0.0,14577.0,14804.0,15178.0,13972.0,1.7515815496444702,0.004694106904664531,0.1023651245154979,-0.07594993038507253,0.03886791318655014,-0.026407787576317787,0.0
351,5,-0.0008717872551642358,-0.0008991151116788387,0.003480160143226385,-0.022529760375618935,0.01889072172343731,-0.03753179311752319,-0.009310436435043812,-0.0919470489025116,0.008391845040023327,-0.06990469247102737,-1.505098819732666,-0.04772526025772095,0.0,0.0,0.0,-0.01134848315268755,-0.012419488281011581,-0.0,0.0,0.0,0.0,0.0029872593004256487,-0.006818830035626888,0.0005225038039498031,13890.0,14794.0,15168.0,14270.0,0.4318424463272095,0.49349385499954224,0.5202019810676575,0.4572226405143738,0.0,0.0,0.0,0.0,14404.0,14349.0,15498.0,13855.0,1.8011075258255005,-0.003207802420905288,0.096478023698207,-0.07815170914637037,0.053895946592092514,-0.0378851555287838,0.0
356,5,-0.0008916739607229829,-0.0010572185274213552,0.003677529748529196,-0.011398312635719776,0.026528695598244667,-0.038697075098752975,-0.009310436435043812,-0.0919470489025116,0.008391845040023327,-0.06990469247102737,-1.505098819732666,-0.04772526025772095,0.0,0.0,0.0,-0.01134848315268755,-0.012419488281011581,-0.0,0.0,0.0,0.0,0.0029872593004256487,-0.006818830035626888,0.0005225038039498031,13890.0,14794.0,15168.0,14270.0,0.4318424463272095,0.49349385499954224,0.5202019810676575,0.4572226405143738,0.0,0.0,0.0,0.0,14404.0,14349.0,15498.0,13855.0,1.8011075258255005,-0.012865383945753804,0.0834356827145634,-0.07968839341302317,0.053895946592092514,-0.0378851555287838,0.0
361,5,-0.0010629056487232447,-0.0009650631691329181,0.003910134546458721,-0.025107121095061302,-0.00044716225238516927,-0.04339144006371498,-0.009926454164087772,-0.07481182366609573,0.008264902979135513,-0.02133089303970337,-1.3787007331848145,-0.020718373358249664,0.0,0.0,0.0,-0.029466642066836357,-0.01025872677564621,-0.0,0.0,0.0,0.0,0.0004259407869540155,-0.005559604149311781,0.0010577895445749164,13845.0,14064.0,14648.0,13337.0,0.4288836121559143,0.443340003490448,0.4832061529159546,0.3961517810821533,0.0,0.0,0.0,0.0,14075.0,14235.0,14905.0,13411.0,1.9287387132644653,-0.002721399349371423,0.0822457217153051,-0.0774526732274552,0.04765654727816582,-0.10531698167324066,0.0
366,5,-0.0010046747047454119,-0.0010812028776854277,0.0038353907875716686,-0.003055140608921647,0.013757896609604359,-0.008387304842472076,-0.009926454164087772,-0.07481182366609573,0.008264902979135513,-0.02133089303970337,-1.3787007331848145,-0.020718373358249664,0.0,0.0,0.0,-0.029466642066836357,-0.01025872677564621,-0.0,0.0,0.0,0.0,0.0004259407869540155,-0.005559604149311781,0.0010577895445749164,13845.0,14064.0,14648.0,13337.0,0.4288836121559143,0.443340003490448,0.4832061529159546,0.3961517810821533,0.0,0.0,0.0,0.0,14075.0,14235.0,14905.0,13411.0,1.9287387132644653,-0.00576176957532036,0.07475662682819935,-0.07804086092689248,0.04765654727816582,-0.10531698167324066,0.0
371,5,-0.0010672950884327292,-0.0011603848543018103,0.003912016749382019,-0.008736501447856426,0.015004999004304409,-0.012550038285553455,-0.01025466900318861,-0.06423524022102356,0.00833127275109291,0.011774212121963501,-1.2578357458114624,-0.046182285994291306,0.0,0.0,0.0,-0.017390688881278038,-0.003949807956814766,-0.0,0.0,0.0,0.0,-4.518716377788223e-05,-0.006306052673608065,0.0008084918954409659,13868.0,14462.0,14712.0,13596.0,0.4303821623325348,0.47038212418556213,0.48769083619117737,0.4126524031162262,0.0,0.0,0.0,0.0,14158.0,15302.0,14746.0,14297.0,1.7858775854110718,-0.006854976286096506,0.06880775918554821,-0.07868898164500528,0.016994671896100044,-0.05756218358874321,0.0
376,5,-0.0011315129231661558,-0.001232753973454237,0.004023940768092871,-0.011200739070773125,0.01468629576265812,-0.01845090277493,-0.01025466900318861,-0.06423524022102356,0.00833127275109291,0.011774212121963501,-1.2578357458114624,-0.046182285994291306,0.0,0.0,0.0,-0.017390688881278038,-0.003949807956814766,-0.0,0.0,0.0,0.0,-4.518716377788223e-05,-0.006306052673608065,0.0008084918954409659,13868.0,14462.0,14712.0,13596.0,0.4303821623325348,0.47038212418556213,0.48769083619117737,0.4126524031162262,0.0,0.0,0.0,0.0,14158.0,15302.0,14746.0,14297.0,1.7858775854110718,-0.007299937037775918,0.06350350808379664,-0.07948656786819164,0.016994671896100044,-0.05756218358874321,0.0
381,5,-0.0011995590757578611,-0.0013176276115700603,0.004095820710062981,-0.012645842507481575,0.016059352084994316,-0.016005927696824074,-0.01021928247064352,-0.050127409398555756,0.007575176190584898,0.014017983339726925,-1.1287425756454468,-0.07182566076517105,0.0,0.0,0.0,-0.018207009881734848,-0.010919398628175259,-0.0,0.0,0.0,0.0,-0.0017520991386845708,-0.005927522201091051,-0.0008501198026351631,14058.0,15393.0,14618.0,14429.0,0.4429328143596649,0.5365806818008423,0.4811757206916809,0.46804943680763245,0.0,0.0,0.0,0.0,13527.0,14739.0,14151.0,13996.0,1.8338230848312378,-0.010868694770429456,0.05873783939786408,-0.07961727806776882,0.04824223741889,-0.06188152730464935,0.0
386,5,-0.0012024333700537682,-0.001498822937719524,0.004184328485280275,-0.005403249990195036,0.028167178854346275,-0.01702331006526947,-0.01021928247064352,-0.050127409398555756,0.007575176190584898,0.014017983339726925,-1.1287425756454468,-0.07182566076517105,0.0,0.0,0.0,-0.018207009881734848,-0.010919398628175259,-0.0,0.0,0.0,0.0,-0.0017520991386845708,-0.005927522201091051,-0.0008501198026351631,14058.0,15393.0,14618.0,14429.0,0.4429328143596649,0.5365806818008423,0.4811757206916809,0.46804943680763245,0.0,0.0,0.0,0.0,13527.0,14739.0,14151.0,13996.0,1.8338230848312378,-0.020868441716269715,0.04913108815855722,-0.08233099950330884,0.04824223741889,-0.06188152730464935,0.0
391,5,-0.001454402576200664,-0.0014323486248031259,0.004512913059443235,-0.032397594302892685,0.003289964282885194,-0.04623947665095329,-0.01016820315271616,-0.04177774488925934,0.007196891121566296,-0.008574618957936764,-0.9823574423789978,-0.08747876435518265,0.0,0.0,0.0,-0.03180980309844017,-0.005779047030955553,-0.0,0.0,0.0,0.0,-0.0005495676887221634,-0.005123660434037447,-0.00082344317343086,13390.0,14852.0,14035.0,14125.0,0.3994632661342621,0.49753305315971375,0.4414230287075043,0.4474582374095917,0.0,0.0,0.0,0.0,13080.0,15107.0,13724.0,14444.0,1.9324153661727905,-0.01135407277468656,0.04918184082980982,-0.08104682647733147,0.026895923539996147,-0.1139034628868103,0.0
396,5,-0.0013151918537914753,-0.00149929232429713,0.004267111886292696,0.0037462469190359116,0.009349219501018524,0.011000347323715687,-0.01016820315271616,-0.04177774488925934,0.007196891121566296,-0.008574618957936764,-0.9823574423789978,-0.08747876435518265,0.0,0.0,0.0,-0.03180980309844017,-0.005779047030955553,-0.0,0.0,0.0,0.0,-0.0005495676887221634,-0.005123660434037447,-0.00082344317343086,13390.0,14852.0,14035.0,14125.0,0.3994632661342621,0.49753305315971375,0.4414230287075043,0.4474582374095917,0.0,0.0,0.0,0.0,13080.0,15107.0,13724.0,14444.0,1.9324153661727905,-0.013101658524235728,0.044969659091468175,-0.08107487609597594,0.026895923539996147,-0.1139034628868103,0.0
402,5,-0.0013490127166733146,-0.0015978257870301604,0.00432552257552743,-0.0025600066874176264,0.01556371245533228,-0.0026091616600751877,-0.01065608486533165,-0.03102918528020382,0.006002163514494896,-0.07442469149827957,-0.8528054356575012,-0.0960354283452034,0.0,0.0,0.0,-0.013413697481155396,0.0016164288390427828,-0.0,0.0,0.0,0.0,-0.00013897259486839175,-0.005176531616598368,-0.002183267381042242,13191.0,15314.0,13907.0,14647.0,0.38695254921913147,0.5307585597038269,0.4329719841480255,0.4831400215625763,0.0,0.0,0.0,0.0,13468.0,15055.0,14161.0,14420.0,1.743391990661621,-0.013597054767228256,0.0413081935599233,-0.08213601713721286,-0.006789914332330227,-0.04334394633769989,-0.0
407,5,-0.001387321506626904,-0.001670595956966281,0.004341448657214642,-0.005621058866381645,0.014957904815673828,-0.0029547575395554304,-0.01065608486533165,-0.03102918528020382,0.006002163514494896,-0.07442469149827957,-0.8528054356575012,-0.0960354283452034,0.0,0.0,0.0,-0.013413697481155396,0.0016164288390427828,-0.0,0.0,0.0,0.0,-0.00013897259486839175,-0.005176531616598368,-0.002183267381042242,13191.0,15314.0,13907.0,14647.0,0.38695254921913147,0.5307585597038269,0.4329719841480255,0.4831400215625763,0.0,0.0,0.0,0.0,13468.0,15055.0,14161.0,14420.0,1.743391990661621,-0.014098909530374881,0.03765514150256864,-0.08272085556786232,-0.006789914332330227,-0.04334394633769989,-0.0
412,5,-0.0014294488355517387,-0.0017370631685480475,0.00437734741717577,-0.007303701713681221,0.013959220610558987,-0.005489745642989874,-0.01065608486533165,-0.03102918528020382,0.006002163514494896,-0.07442469149827957,-0.8528054356575012,-0.0960354283452034,0.0,0.0,0.0,-0.019414635375142097,-0.006570787634700537,-0.0,0.0,0.0,0.0,-0.00013897259486839175,-0.005176531616598368,-0.002183267381042242,13191.0,15314.0,13907.0,14647.0,0.38695254921913147,0.5307585597038269,0.4329719841480255,0.4831400215625763,0.0,0.0,0.0,0.0,13468.0,15055.0,14161.0,14420.0,1.8154658079147339,-0.014879216523209343,0.034243279368101766,-0.08296980256039856,0.028739051893353462,-0.06532453000545502,0.0
417,5,-0.001454296987503767,-0.00181196175981313,0.004436452407389879,-0.005903257988393307,0.01457152422517538,-0.009288541972637177,-0.011312108486890793,-0.02497420459985733,0.005449920427054167,-0.09877339750528336,-0.708635151386261,-0.09649644792079926,0.0,0.0,0.0,-0.019414635375142097,-0.006570787634700537,-0.0,0.0,0.0,0.0,0.00043730021570809186,-0.0025151644367724657,-0.0013901948696002364,13810.0,15582.0,14214.0,14913.0,0.42656126618385315,0.5505268573760986,0.4534089267253876,0.5019183158874512,0.0,0.0,0.0,0.0,13681.0,15672.0,14085.0,15058.0,1.8154658079147339,-0.01475568753519597,0.032225825157469516,-0.08350153914850805,0.028739051893353462,-0.06532453000545502,0.0
422,5,-0.0015040329890325665,-0.0018783134873956442,0.004481608048081398,-0.008329628966748714,0.013790818862617016,-0.009134101681411266,-0.011312108486890793,-0.02497420459985733,0.005449920427054167,-0.09877339750528336,-0.708635151386261,-0.09649644792079926,0.0,0.0,0.0,-0.019217366352677345,-0.006898261606693268,-0.0,0.0,0.0,0.0,0.00043730021570809186,-0.0025151644367724657,-0.0013901948696002364,13810.0,15582.0,14214.0,14913.0,0.42656126618385315,0.5505268573760986,0.4534089267253876,0.5019183158874512,0.0,0.0,0.0,0.0,13681.0,15672.0,14085.0,15058.0,1.8154246807098389,-0.016566310727294243,0.029349724746664252,-0.08322011871983515,0.030170753598213196,-0.06465946137905121,0.0
427,5,-0.0015554387355223298,-0.0019538525957614183,0.0045604039914906025,-0.00950053334236145,0.014581019058823586,-0.013109120540320873,-0.012307390570640564,-0.017577460035681725,0.004525917116552591,-0.08055659383535385,-0.560001015663147,-0.06572648137807846,0.0,0.0,0.0,-0.019217366352677345,-0.006898261606693268,-0.0,0.0,0.0,0.0,4.243643707013689e-05,-0.002623162232339382,-0.0022904612123966217,13215.0,14589.0,13630.0,14324.0,0.38847577571868896,0.47913241386413574,0.4148763418197632,0.4609074592590332,0.0,0.0,0.0,0.0,13420.0,14394.0,13810.0,14160.0,1.8154246807098389,-0.016736753221683814,0.027812924077455087,-0.08393302696721933,0.030170753598213196,-0.06465946137905121,0.0
432,5,-0.0015787594020366669,-0.0020339151378721,0.004594837781041861,-0.006598692387342453,0.01543989684432745,-0.009375727735459805,-0.012307390570640564,-0.017577460035681725,0.004525917116552591,-0.08055659383535385,-0.560001015663147,-0.06572648137807846,0.0,0.0,0.0,-0.019251558929681778,-0.01000180747359991,-0.0,0.0,0.0,0.0,4.243643707013689e-05,-0.002623162232339382,-0.0022904612123966217,13215.0,14589.0,13630.0,14324.0,0.38847577571868896,0.47913241386413574,0.4148763418197632,0.4609074592590332,0.0,0.0,0.0,0.0,13420.0,14394.0,13810.0,14160.0,1.8352627754211426,-0.017803897658645318,0.025897392690925714,-0.08432841606820565,0.044222258031368256,-0.06548230350017548,0.0
437,5,-0.001610420411452651,-0.0021078293211758137,0.0046337665989995,-0.006438798271119595,0.01504566427320242,-0.008421741425991058,-0.012773952446877956,-0.01362939365208149,0.0038284300826489925,-0.07371816039085388,-0.4090186655521393,-0.12031510472297668,0.0,0.0,0.0,-0.019251558929681778,-0.01000180747359991,-0.0,0.0,0.0,0.0,-6.53030801913701e-05,-0.0018952640239149332,-0.0019512745784595609,13258.0,15131.0,13498.0,14892.0,0.3911699950695038,0.5174881219863892,0.4063476622104645,0.5004189014434814,0.0,0.0,0.0,0.0,13238.0,15157.0,13527.0,14858.0,1.8352627754211426,-0.0176026527457902,0.023804813708972646,-0.08478186773310636,0.044222258031368256,-0.06548230350017548,0.0
442,5,-0.0016055114101618528,-0.0021881787106394768,0.004654365591704845,-0.0019864391069859266,0.015660196542739868,-0.005840575322508812,-0.012773952446877956,-0.01362939365208149,0.0038284300826489925,-0.07371816039085388,-0.4090186655521393,-0.12031510472297668,0.0,0.0,0.0,-0.02010960876941681,-0.007510028313845396,-0.0,0.0,0.0,0.0,-6.53030801913701e-05,-0.0018952640239149332,-0.0019512745784595609,13258.0,15131.0,13498.0,14892.0,0.3911699950695038,0.5174881219863892,0.4063476622104645,0.5004189014434814,0.0,0.0,0.0,0.0,13238.0,15157.0,13527.0,14858.0,1.8266443014144897,-0.01796907277496503,0.021975783022236146,-0.08533672761597105,0.03304878994822502,-0.06807897239923477,0.0
447,5,-0.001646826509386301,-0.0022541815415024757,0.004711060784757137,-0.005752389319241047,0.014184409752488136,-0.00913964118808508,-0.013400466181337833,-0.009374483488500118,0.0027283888775855303,-0.04957463964819908,-0.3125394284725189,-0.09549829363822937,0.0,0.0,0.0,-0.02010960876941681,-0.007510028313845396,-0.0,0.0,0.0,0.0,-0.00020278863667044789,-0.00182874477468431,-0.0027839276008307934,13258.0,15131.0,13498.0,14892.0,0.3911699950695038,0.5174881219863892,0.4063476622104645,0.5004189014434814,0.0,0.0,0.0,0.0,13480.0,14945.0,13682.0,14713.0,1.8266443014144897,-0.018588353807963517,0.02078648583376931,-0.08558893189540484,0.03304878994822502,-0.06807897239923477,0.0
452,5,-0.0016655339859426022,-0.002341099316254258,0.004753247369080782,-0.004545862786471844,0.016103900969028473,-0.008718271739780903,-0.013400466181337833,-0.009374483488500118,0.0027283888775855303,-0.04957463964819908,-0.3125394284725189,-0.09549829363822937,0.0,0.0,0.0,-0.019484076648950577,-0.007003639824688435,-0.0,0.0,0.0,0.0,-0.00020278863667044789,-0.00182874477468431,-0.0027839276008307934,13258.0,15131.0,13498.0,14892.0,0.3911699950695038,0.5174881219863892,0.4063476622104645,0.5004189014434814,0.0,0.0,0.0,0.0,13480.0,14945.0,13682.0,14713.0,1.8183449506759644,-0.01964976064862959,0.019308562728386196,-0.08573055733203643,0.03068075142800808,-0.06566209346055984,0.0
457,5,-0.0016805581981316209,-0.002419845201075077,0.00474073551595211,-0.0036212492268532515,0.015891069546341896,-0.0019858756568282843,-0.01369650661945343,-0.007113323546946049,0.0018163931090384722,-0.05504525825381279,-0.2637881636619568,-0.1351103037595749,0.0,0.0,0.0,-0.019484076648950577,-0.007003639824688435,-0.0,0.0,0.0,0.0,2.1762845790362917e-05,-0.001106452546082437,-0.0024439869448542595,13233.0,15206.0,13391.0,15091.0,0.3895787000656128,0.5228840708732605,0.39955538511276245,0.514626145362854,0.0,0.0,0.0,0.0,13150.0,15348.0,13408.0,15123.0,1.8183449506759644,-0.019705173648850938,0.018827201068954167,-0.08641281196700604,0.03068075142800808,-0.06566209346055984,0.0
462,5,-0.001705848379060626,-0.0024847479071468115,0.004732097033411264,-0.004483317956328392,0.014144745655357838,0.00024226111418101937,-0.01369650661945343,-0.007113323546946049,0.0018163931090384722,-0.05504525825381279,-0.2637881636619568,-0.1351103037595749,0.0,0.0,0.0,-0.021533306688070297,-0.00519347982481122,-0.0,0.0,0.0,0.0,2.1762845790362917e-05,-0.001106452546082437,-0.0024439869448542595,13233.0,15206.0,13391.0,15091.0,0.3895787000656128,0.5228840708732605,0.39955538511276245,0.514626145362854,0.0,0.0,0.0,0.0,13150.0,15348.0,13408.0,15123.0,1.828755259513855,-0.021924648009556236,0.017334943890132026,-0.08622611727132547,0.02288038283586502,-0.07298168540000916,0.0
468,5,-0.0017258754232898355,-0.0025515607558190823,0.004706354811787605,-0.00419657351449132,0.013675457797944546,0.0031859944574534893,-0.014600020833313465,-0.004518443252891302,0.0005585040780715644,-0.10119237005710602,-0.18013644218444824,-0.10329118371009827,0.0,0.0,0.0,-0.021533306688070297,-0.00519347982481122,-0.0,0.0,0.0,0.0,0.0003461501619312912,-0.0006256380584090948,-0.0025215710047632456,13299.0,15065.0,13425.0,15029.0,0.39375439286231995,0.5127278566360474,0.40168699622154236,0.5101757645606995,0.0,0.0,0.0,0.0,13303.0,15138.0,13431.0,15063.0,1.828755259513855,-0.02172026424595368,0.016243139383369496,-0.08671267141029551,0.02288038283586502,-0.07298168540000916,0.0
473,5,-0.0017527560703456402,-0.002624237211421132,0.004734592512249947,-0.004904298577457666,0.014191349036991596,-0.002114157658070326,-0.014600020833313465,-0.004518443252891302,0.0005585040780715644,-0.10119237005710602,-0.18013644218444824,-0.10329118371009827,0.0,0.0,0.0,-0.019473537802696228,-0.005793194752186537,-0.0,0.0,0.0,0.0,0.0003461501619312912,-0.0006256380584090948,-0.0025215710047632456,13299.0,15065.0,13425.0,15029.0,0.39375439286231995,0.5127278566360474,0.40168699622154236,0.5101757645606995,0.0,0.0,0.0,0.0,13303.0,15138.0,13431.0,15063.0,1.8122470378875732,-0.02262680207586575,0.016539972844221585,-0.0874388007823654,0.02529313415288925,-0.06540650874376297,-0.0
