timestamp,dt,pos_x,pos_y,pos_z,vel_x,vel_y,vel_z,roll,pitch,yaw,agv_x,agv_y,agv_z,x_ref,y_ref,z_ref,roll_ref,pitch_ref,yaw_ref,x_vel_ref,y_vel_ref,z_vel_ref,x_torque,y_torque,z_torque,w0,w1,w2,w3,u0,u1,u2,u3,m0req,m1req,m2req,m3req,thrust0,thrust1,thrust2,thrust3,thrust_ref,roll_vicon,pitch_vicon,yaw_vicon,acc_x,acc_y,acc_z
5,5,0.0,0.0,0.0,-0.0003409494529478252,-0.00041948017315007746,-0.0022463775239884853,-0.00685556186363101,-0.17682604491710663,0.0038007167167961597,-0.001833684858866036,-0.0011138248955830932,0.002698721131309867,0.0,0.0,0.0,0.0005202522152103484,-0.00032527389703318477,-0.0,0.0,0.0,0.0,0.0014131179777905345,0.052959974855184555,0.0004002191126346588,1495.0,1495.0,1495.0,1495.0,0.0,0.0,0.0,0.0,0.0,0.0,0.0,0.0,1495.0,1495.0,1495.0,1495.0,1.631248950958252,0.04304661802156363,0.030712683653516943,0.05181630807754211,0.0012785604922100902,0.0015730506274849176,0.0
34,29,0.0,0.0,0.0,0.001223147613927722,-0.0006294819177128375,-0.0008288001990877092,-0.00685556186363101,-0.17682604491710663,0.0038007167167961597,-0.001833684858866036,-0.0011138248955830932,0.002698721131309867,0.0,0.0,0.0,0.0005202522152103484,-0.00032527389703318477,-0.0,0.0,0.0,0.0,0.0014131179777905345,0.052959974855184555,0.0004002191126346588,1495.0,1495.0,1495.0,1495.0,0.0,0.0,0.0,0.0,0.0,0.0,0.0,0.0,1495.0,1495.0,1495.0,1495.0,1.631248950958252,0.042497743169290586,0.031024810419925993,0.05183553101064033,-0.00458680372685194,0.0023605572059750557,0.0
39,5,0.0,0.0,0.0,-0.0007204137509688735,-0.0006754816276952624,0.00032198330154642463,-0.006869054865092039,-0.17690075933933258,0.003793558105826378,0.0003571959096007049,0.008589237928390503,-0.0030778420623391867,0.0,0.0,0.0,0.0007766601047478616,0.0011608694912865758,-0.0,0.0,0.0,0.0,0.0014581310097128153,0.05309366062283516,0.00033289933344349265,1495.0,1495.0,1495.0,1495.0,0.0,0.0,0.0,0.0,0.0,0.0,0.0,0.0,1495.0,1495.0,1495.0,1495.0,1.639740228652954,0.042799243928352174,0.030899674089774648,0.05179470313429248,-0.00458680372685194,0.0023605572059750557,0.0
44,5,0.0,0.0,0.0,0.002024020766839385,0.000221782160224393,0.0039054024964571,-0.006869054865092039,-0.17690075933933258,0.003793558105826378,0.0003571959096007049,0.008589237928390503,-0.0030778420623391867,0.0,0.0,0.0,0.0007766601047478616,0.0011608694912865758,-0.0,0.0,0.0,0.0,0.0014581310097128153,0.05309366062283516,0.00033289933344349265,1495.0,1495.0,1495.0,1495.0,0.0,0.0,0.0,0.0,0.0,0.0,0.0,0.0,1495.0,1495.0,1495.0,1495.0,1.639740228652954,0.04347934335495296,0.031242747780442403,0.051454282192083,-0.007590077817440033,-0.0008316831081174314,0.0
49,5,0.0,0.0,0.0,0.0004952264716848731,-0.0008242524927482009,-0.00011523849389050156,-0.006873526610434055,-0.1769045889377594,0.0037996754981577396,0.0013246892485767603,-0.0075766416266560555,0.0031390790827572346,0.0,0.0,0.0,-0.00027252238942310214,0.0019131432054564357,-0.0,0.0,0.0,0.0,0.001476845471188426,0.052803829312324524,0.0005420024390332401,1495.0,1495.0,1495.0,1495.0,0.0,0.0,0.0,0.0,0.0,0.0,0.0,0.0,1495.0,1495.0,1495.0,1495.0,1.6464446783065796,0.04232984942548941,0.030891214110587952,0.05182983830941305,-0.007590077817440033,-0.0008316831081174314,0.0
56,7,-1.0642326742527075e-05,-7.303679467440816e-06,-1.4631520571128931e-05,-5.7593846577219665e-05,-0.0002842617395799607,-1.5153952517721336e-05,-0.006873526610434055,-0.1769045889377594,0.0037996754981577396,0.0013246892485767603,-0.0075766416266560555,0.0031390790827572346,0.0,0.0,0.0,0.001019586343318224,0.0004712206427939236,-0.0,0.0,0.0,0.0,0.001476845471188426,0.052803829312324524,0.0005420024390332401,1495.0,1495.0,1495.0,1495.0,0.0,0.0,0.0,0.0,0.0,0.0,0.0,0.0,1495.0,1495.0,1495.0,1495.0,1.6355323791503906,0.0423379700193764,0.031133445488543778,0.05162041857596446,-0.0018570992397144437,0.0030909469351172447,0.0
69,13,-1.4830980035185348e-05,-4.003319190815091e-06,2.8170594305265695e-05,-0.0009875614196062088,-0.0004655068914871663,-0.004168163053691387,-0.0068481191992759705,-0.1769150346517563,0.003778330981731415,-0.0014747141394764185,-0.0017004606779664755,-0.003833647118881345,0.0,0.0,0.0,0.00033980217995122075,-6.99588781571947e-05,-0.0,0.0,0.0,0.0,0.0015005237655714154,0.05346664786338806,0.000309182854834944,16904.0,8605.0,9263.0,16894.0,0.6532899737358093,0.153462752699852,0.18048150837421417,0.6525059938430786,0.0,0.0,0.0,0.0,1495.0,1495.0,1495.0,1495.0,1.628628134727478,0.042587645496820384,0.030852379477246034,0.05173569728189519,0.00027454696828499436,0.0010257856920361519,0.0
74,5,-1.3996423149365e-05,-1.308668106503319e-05,-5.700032943423139e-07,-0.00029487782740034163,0.000903800711967051,0.0017816065810620785,-0.0068481191992759705,-0.1769150346517563,0.003778330981731415,-0.0014747141394764185,-0.0017004606779664755,-0.003833647118881345,0.0,0.0,0.0,-0.0011416538618505,-0.00030011284979991615,-0.0,0.0,0.0,0.0,0.001299186609685421,0.05362338945269585,0.00045530463103204966,16904.0,8605.0,9263.0,16894.0,0.6532899737358093,0.153462752699852,0.18048150837421417,0.6525059938430786,0.0,0.0,0.0,0.0,16933.0,8535.0,9346.0,16855.0,1.63567316532135,0.04271009320648701,0.031102804984222375,0.05178293842822135,0.0011828583665192127,-0.0034613008610904217,0.0
79,5,-1.1857641766255256e-05,-1.6263304132735357e-05,9.839235644903965e-06,0.000138702685944736,0.0007427149685099721,-0.0005364660755731165,-0.0068481191992759705,-0.1769150346517563,0.003778330981731415,-0.0014747141394764185,-0.0017004606779664755,-0.003833647118881345,0.0,0.0,0.0,-0.0011416538618505,-0.00030011284979991615,-0.0,0.0,0.0,0.0,0.001299186609685421,0.05362338945269585,0.00045530463103204966,16904.0,8605.0,9263.0,16894.0,0.6532899737358093,0.153462752699852,0.18048150837421417,0.6525059938430786,0.0,0.0,0.0,0.0,16933.0,8535.0,9346.0,16855.0,1.63567316532135,0.042397465382647374,0.031039528343903684,0.05190055975541693,0.0011828583665192127,-0.0034613008610904217,0.0
84,5,-1.9748769773286767e-05,-1.5850022464292124e-05,5.957066150585888e-06,-0.0008914543432183564,0.00024749228032305837,0.0002512739156372845,-0.006822193041443825,-0.17692340910434723,0.0038294228725135326,0.0007932474836707115,0.001303153345361352,0.0023233548272401094,0.0,0.0,0.0,-0.0003349457401782274,-0.0008758532349020243,-0.0,0.0,0.0,0.0,0.00156091817189008,0.053332749754190445,0.0004495000757742673,16935.0,8478.0,9351.0,16825.0,0.6558439135551453,0.14848434925079346,0.18426284193992615,0.6469413042068481,0.0,0.0,0.0,0.0,16969.0,8602.0,9293.0,16898.0,1.6355104446411133,0.04230200881505235,0.030778442542326596,0.0519063765222808,0.003451727330684662,-0.0010153980692848563,0.0
89,5,-4.313012595957844e-06,-1.3413819033303298e-05,2.135924660251476e-06,0.0014957091771066189,-0.00019334758690092713,0.000559046573471278,-0.006820082664489746,-0.17693078517913818,0.0038258968852460384,0.0016785815823823214,-0.005528306122869253,0.00017574617231730372,0.0,0.0,0.0,-0.0003349457401782274,-0.0008758532349020243,-0.0,0.0,0.0,0.0,0.001428539166226983,0.053147103637456894,0.00029933391488157213,16870.0,8557.0,9249.0,16822.0,0.6505115628242493,0.15156418085098267,0.17986783385276794,0.6466845273971558,0.0,0.0,0.0,0.0,16932.0,8422.0,9386.0,16751.0,1.6355104446411133,0.04226899880793014,0.031244372806049362,0.05177279952364462,0.003451727330684662,-0.0010153980692848563,0.0
94,5,-6.018931799189886e-06,-8.443626029475126e-06,-1.0478737522134907e-06,0.00039357334026135504,-0.0006737621151842177,0.0006056744605302811,-0.006820082664489746,-0.17693078517913818,0.0038258968852460384,0.0016785815823823214,-0.005528306122869253,0.00017574617231730372,0.0,0.0,0.0,-0.0003349457401782274,-0.0008758532349020243,-0.0,0.0,0.0,0.0,0.001428539166226983,0.053147103637456894,0.00029933391488157213,16870.0,8557.0,9249.0,16822.0,0.6505115628242493,0.15156418085098267,0.17986783385276794,0.6466845273971558,0.0,0.0,0.0,0.0,16932.0,8422.0,9386.0,16751.0,1.6355104446411133,0.0424616261857349,0.030904784130775728,0.051972183099534816,0.003451727330684662,-0.0010153980692848563,0.0
100,6,-6.153786671347916e-06,-3.805156666203402e-06,3.6883163829770638e-06,0.00014124676818028092,-0.0008261211914941669,-0.00032607303000986576,-0.006820082664489746,-0.17693078517913818,0.0038258968852460384,0.0016785815823823214,-0.005528306122869253,0.00017574617231730372,0.0,0.0,0.0,0.0008190626977011561,0.00036649827961809933,-0.0,0.0,0.0,0.0,0.001428539166226983,0.053147103637456894,0.00029933391488157213,16870.0,8557.0,9249.0,16822.0,0.6505115628242493,0.15156418085098267,0.17986783385276794,0.6466845273971558,0.0,0.0,0.0,0.0,16932.0,8422.0,9386.0,16751.0,1.6335337162017822,0.04240913593715513,0.030813630728899262,0.052036740734418344,-0.001442619482986629,0.0024800116661936045,0.0
105,5,6.795213721488835e-06,-3.88532589568058e-06,-1.0569450751063414e-05,0.001610378734767437,-0.0003208281996194273,0.001580502837896347,-0.006822355557233095,-0.17687655985355377,0.0038527795113623142,-0.0017185057513415813,-0.005185512360185385,-0.0012979862513020635,0.0,0.0,0.0,0.0008190626977011561,0.00036649827961809933,-0.0,0.0,0.0,0.0,0.0013222942361608148,0.05306954309344292,0.00039032453787513077,16905.0,8627.0,9289.0,16818.0,0.6533884406089783,0.15434139966964722,0.18160781264305115,0.6463354825973511,0.0,0.0,0.0,0.0,16920.0,8600.0,9290.0,16816.0,1.6335337162017822,0.0431764834651384,0.031192931890215866,0.05172384338402695,-0.001442619482986629,0.0024800116661936045,0.0
110,5,3.6319577247923007e-06,-9.511432836006861e-06,-1.4894877494953107e-05,0.0002645607746671885,0.0005468015442602336,0.0011512523051351309,-0.006800089497119188,-0.1769523024559021,0.0038604456931352615,0.0011254738783463836,-0.0016109725693240762,-0.00017726093938108534,0.0,0.0,0.0,0.0003880927397403866,0.0015351895708590746,-0.0,0.0,0.0,0.0,0.001478029415011406,0.0534142442047596,0.000385437801014632,16912.0,8514.0,9282.0,16843.0,0.6539559364318848,0.14989551901817322,0.18130159378051758,0.648380696773529,0.0,0.0,0.0,0.0,16918.0,8570.0,9325.0,16812.0,1.6425330638885498,0.042902935222097795,0.031152043383880487,0.05181078312862225,-0.006076141260564327,0.0011815665056928992,0.0
116,5,-8.915252692531794e-06,-3.2638542961649364e-06,-2.5144506707874825e-06,-0.0013998409267514944,-0.0005309887928888202,-0.0010251502972096205,-0.006800089497119188,-0.1769523024559021,0.0038604456931352615,0.0011254738783463836,-0.0016109725693240762,-0.00017726093938108534,0.0,0.0,0.0,0.0003880927397403866,0.0015351895708590746,-0.0,0.0,0.0,0.0,0.001478029415011406,0.0534142442047596,0.000385437801014632,16912.0,8514.0,9282.0,16843.0,0.6539559364318848,0.14989551901817322,0.18130159378051758,0.648380696773529,0.0,0.0,0.0,0.0,16918.0,8570.0,9325.0,16812.0,1.6425330638885498,0.042742709263317274,0.03067849578590036,0.05184101233907376,-0.006076141260564327,0.0011815665056928992,0.0
121,5,-1.9963485101470724e-05,-1.750114643073175e-05,-2.8282440325710922e-05,-0.001885724370367825,0.0014960796106606722,0.002682098653167486,-0.006800089497119188,-0.1769523024559021,0.0038604456931352615,0.0011254738783463836,-0.0016109725693240762,-0.00017726093938108534,0.0,0.0,0.0,0.0006486416677944362,-0.001339926035143435,-0.0,0.0,0.0,0.0,0.001478029415011406,0.0534142442047596,0.000385437801014632,16912.0,8514.0,9282.0,16843.0,0.6539559364318848,0.14989551901817322,0.18130159378051758,0.648380696773529,0.0,0.0,0.0,0.0,16918.0,8570.0,9325.0,16812.0,1.6410821676254272,0.042687043727328136,0.03138862462047408,0.051593990675690496,0.005298621021211147,0.0019730753265321255,0.0
126,5,-5.8657105910242535e-06,-4.437170900928322e-06,-2.533242331992369e-05,0.0009374432847835124,-0.0009692452731542289,0.000718837371096015,-0.006796376314014196,-0.1769317239522934,0.003895367030054331,-0.002923244144767523,-0.004009746480733156,0.0006645004614256322,0.0,0.0,0.0,0.0006486416677944362,-0.001339926035143435,-0.0,0.0,0.0,0.0,0.0014872048050165176,0.053725842386484146,0.00047397764865309,16979.0,8492.0,9338.0,16868.0,0.6594105958938599,0.14901749789714813,0.18369092047214508,0.6504140496253967,0.0,0.0,0.0,0.0,16937.0,8455.0,9342.0,16815.0,1.6410821676254272,0.042790704324532886,0.031384327639323,0.051614644102956145,0.005298621021211147,0.0019730753265321255,0.0
131,5,-8.46450620883843e-06,-1.2222465556988027e-05,-1.9962766600656323e-05,6.312184996204451e-05,0.0005465372232720256,-0.00035682375892065465,-0.006796376314014196,-0.1769317239522934,0.003895367030054331,-0.002923244144767523,-0.004009746480733156,0.0006645004614256322,0.0,0.0,0.0,0.0011880480451509356,0.0008817027555778623,-0.0,0.0,0.0,0.0,0.0014872048050165176,0.053725842386484146,0.00047397764865309,16979.0,8492.0,9338.0,16868.0,0.6594105958938599,0.14901749789714813,0.18369092047214508,0.6504140496253967,0.0,0.0,0.0,0.0,16937.0,8455.0,9342.0,16815.0,1.639355182647705,0.04222039074875781,0.030999444212788493,0.051808977579221364,-0.003482946427538991,0.003610068466514349,0.0
136,5,-9.243129170499742e-06,-4.167134648014326e-06,-7.978085818649561e-07,-6.818605470471084e-05,-0.0007480247877538204,-0.0024425245355814695,-0.00681140273809433,-0.17688994109630585,0.0039009633474051952,-0.0008548470796085894,-0.0035366672091186047,0.0005430655437521636,0.0,0.0,0.0,0.0011880480451509356,0.0008817027555778623,-0.0,0.0,0.0,0.0,0.0014864880358800292,0.05376816168427467,0.0003997840394731611,16913.0,8600.0,9397.0,16832.0,0.6540594100952148,0.15327729284763336,0.18625088036060333,0.6474946141242981,0.0,0.0,0.0,0.0,16954.0,8549.0,9296.0,16888.0,1.639355182647705,0.04267152275521359,0.031033567043127396,0.051857300294154175,-0.003482946427538991,0.003610068466514349,0.0
141,5,-1.66440677276114e-05,-1.0340930884922273e-06,2.197632784373127e-05,-0.0009153869468718767,-0.0006751749315299094,-0.0037099062465131283,-0.006799055263400078,-0.1768917441368103,0.003915368113666773,0.0010267153847962618,-0.0011547754984349012,0.004110981710255146,0.0,0.0,0.0,0.0009188938420265913,-7.794459816068411e-05,-0.0,0.0,0.0,0.0,0.0014834770699962974,0.05298028886318207,0.0005290848785080016,16961.0,8514.0,9460.0,16793.0,0.6579071879386902,0.1498747617006302,0.18900512158870697,0.6442950963973999,0.0,0.0,0.0,0.0,16948.0,8484.0,9322.0,16872.0,1.63334321975708,0.042682340562707394,0.030617369086984675,0.05192314170012343,0.0003067716315854341,0.002781962277367711,0.0
146,5,3.8763491829740815e-06,-3.0378128030861262e-06,2.6698922738432884e-05,0.0020962951239198446,-2.9623608497786336e-05,-0.002050673821941018,-0.006799055263400078,-0.1768917441368103,0.003915368113666773,0.0010267153847962618,-0.0011547754984349012,0.004110981710255146,0.0,0.0,0.0,0.0009188938420265913,-7.794459816068411e-05,-0.0,0.0,0.0,0.0,0.0014834770699962974,0.05298028886318207,0.0005290848785080016,16961.0,8514.0,9460.0,16793.0,0.6579071879386902,0.1498747617006302,0.18900512158870697,0.6442950963973999,0.0,0.0,0.0,0.0,16948.0,8484.0,9322.0,16872.0,1.63334321975708,0.04223624546094985,0.030754930896603624,0.052003631597049294,0.0003067716315854341,0.002781962277367711,0.0
151,5,-2.391440602877992e-06,-1.1756721505662426e-05,1.8335091226617806e-05,-0.00047875725431367755,0.0011554349912330508,0.0007395702414214611,-0.006799055263400078,-0.1768917441368103,0.003915368113666773,0.0010267153847962618,-0.0011547754984349012,0.004110981710255146,0.0,0.0,0.0,3.084089985350147e-05,0.0019859694875776768,-0.0,0.0,0.0,0.0,0.0014834770699962974,0.05298028886318207,0.0005290848785080016,16961.0,8514.0,9460.0,16793.0,0.6579071879386902,0.1498747617006302,0.18900512158870697,0.6442950963973999,0.0,0.0,0.0,0.0,16948.0,8484.0,9322.0,16872.0,1.64711332321167,0.04262884291427172,0.031158364704998335,0.05174855563851751,-0.007882203906774521,9.415840031579137e-05,0.0
156,5,-2.1228242985671386e-06,-1.5932024325593375e-05,-1.087145619749208e-06,-0.00015926895139273256,0.0009632103610783815,0.0026264963671565056,-0.006799055263400078,-0.1768917441368103,0.003915368113666773,0.0010267153847962618,-0.0011547754984349012,0.004110981710255146,0.0,0.0,0.0,3.084089985350147e-05,0.0019859694875776768,-0.0,0.0,0.0,0.0,0.0014834770699962974,0.05298028886318207,0.0005290848785080016,16961.0,8514.0,9460.0,16793.0,0.6579071879386902,0.1498747617006302,0.18900512158870697,0.6442950963973999,0.0,0.0,0.0,0.0,16948.0,8484.0,9322.0,16872.0,1.64711332321167,0.04244596179294879,0.03125459787470866,0.05180082841049963,-0.007882203906774521,9.415840031579137e-05,0.0
161,5,-1.4352368452819064e-05,-1.77652073034551e-05,-2.3965962100191973e-05,-0.0015312529867514968,0.0006052659591659904,0.003796056378632784,-0.006800450384616852,-0.17691445350646973,0.003940571565181017,0.0006502980249933898,-0.0008190457592718303,0.0034516018349677324,0.0,0.0,0.0,-0.0012201801873743534,-0.00015453271043952554,-0.0,0.0,0.0,0.0,0.0016143268439918756,0.0537123940885067,0.0005202175816521049,16986.0,8407.0,9383.0,16838.0,0.6599952578544617,0.1457567811012268,0.18563014268875122,0.6479729413986206,0.0,0.0,0.0,0.0,16948.0,8484.0,9322.0,16872.0,1.6359224319458008,0.042650077683322414,0.03119436687732763,0.05176358330439393,0.0006091647082939744,-0.003699942957609892,0.0
167,5,-1.4352368452819064e-05,-1.77652073034551e-05,-2.3965962100191973e-05,-0.0015312529867514968,0.0006052659591659904,0.003796056378632784,-0.006793948821723461,-0.17689350247383118,0.0038629474584013224,-0.005603172350674868,-0.005553164053708315,-0.020518209785223007,0.0,0.0,0.0,-0.0012201801873743534,-0.00015453271043952554,-0.0,0.0,0.0,0.0,0.0015950292581692338,0.05328566953539848,-0.00014106713933870196,16723.0,8869.0,8965.0,17019.0,0.6386813521385193,0.16402080655097961,0.16796475648880005,0.6626763343811035,0.0,0.0,0.0,0.0,17036.0,8443.0,9375.0,16871.0,1.6359224319458008,0.042650077683322414,0.03119436687732763,0.05176358330439393,0.0006091647082939744,-0.003699942957609892,0.0
172,5,-1.018188504531281e-05,-2.0981546185794286e-05,-4.293794700060971e-05,-0.0005089564947411418,0.0020599053241312504,0.00302886962890625,-0.006793948821723461,-0.17689350247383118,0.0038629474584013224,-0.005603172350674868,-0.005553164053708315,-0.020518209785223007,0.0,0.0,0.0,-0.0012201801873743534,-0.00015453271043952554,-0.0,0.0,0.0,0.0,0.0015950292581692338,0.05328566953539848,-0.00014106713933870196,16723.0,8869.0,8965.0,17019.0,0.6386813521385193,0.16402080655097961,0.16796475648880005,0.6626763343811035,0.0,0.0,0.0,0.0,17036.0,8443.0,9375.0,16871.0,1.6359224319458008,0.04331161465626736,0.03162651435332065,0.05138048412845747,0.001987805590033531,-0.007822693325579166,0.0
177,5,-1.559141674079001e-05,-1.381880520057166e-05,-3.389020639588125e-05,-0.000852726399898529,-3.5566696169553325e-05,0.00012581892951857299,-0.006793948821723461,-0.17689350247383118,0.0038629474584013224,-0.005603172350674868,-0.005553164053708315,-0.020518209785223007,0.0,0.0,0.0,-0.0025614751502871513,-0.0005006854771636426,-0.0,0.0,0.0,0.0,0.0015950292581692338,0.05328566953539848,-0.00014106713933870196,16723.0,8869.0,8965.0,17019.0,0.6386813521385193,0.16402080655097961,0.16796475648880005,0.6626763343811035,0.0,0.0,0.0,0.0,17036.0,8443.0,9375.0,16871.0,1.6476253271102905,0.043005701566138914,0.03133069601754425,0.05133671727223307,0.001987805590033531,-0.007822693325579166,0.0
182,5,-3.228778950870037e-06,6.531344752147561e-06,-3.851117071462795e-06,0.0011424259282648563,-0.0024562447797507048,-0.0035543630365282297,-0.006717846728861332,-0.17697149515151978,0.0042576962150633335,0.002162929391488433,0.021421317011117935,0.011388636194169521,0.0,0.0,0.0,-0.0025614751502871513,-0.0005006854771636426,-0.0,0.0,0.0,0.0,0.0013375392882153392,0.0543399341404438,0.0021938413847237825,17404.0,7636.0,9946.0,16542.0,0.694423258304596,0.11760444939136505,0.21081598103046417,0.6242696642875671,0.0,0.0,0.0,0.0,16350.0,9700.0,7912.0,17468.0,1.6476253271102905,0.04274189617928397,0.03081228807345575,0.052461115189976794,0.001987805590033531,-0.007822693325579166,0.0
187,5,2.493100339506782e-07,-1.1603451639530249e-05,1.2618904293049127e-05,0.0008743410580791533,0.0011936776572838426,-0.003398147877305746,-0.006717846728861332,-0.17697149515151978,0.0042576962150633335,0.002162929391488433,0.021421317011117935,0.011388636194169521,0.0,0.0,0.0,0.0030172469560056925,0.0010708175832405686,-0.0,0.0,0.0,0.0,0.0013375392882153392,0.0543399341404438,0.0021938413847237825,17404.0,7636.0,9946.0,16542.0,0.694423258304596,0.11760444939136505,0.21081598103046417,0.6242696642875671,0.0,0.0,0.0,0.0,16350.0,9700.0,7912.0,17468.0,1.6533328294754028,0.04280893957178728,0.031240625263199893,0.05176430842131593,-0.004266046918928623,0.00924652349203825,0.0
192,5,-3.0380008411157178e-06,-1.719611100270413e-05,2.893321834562812e-05,-4.474088200367987e-05,0.0011485902359709144,-0.0033169768285006285,-0.006805401761084795,-0.1770937740802765,0.0035066313575953245,-0.0028649778105318546,-0.011329741217195988,0.1100449487566948,0.0,0.0,0.0,0.0030172469560056925,0.0010708175832405686,-0.0,0.0,0.0,0.0,0.0011559558333829045,0.053503815084695816,0.00018892479420173913,17351.0,7640.0,10028.0,16405.0,0.6900545954704285,0.11776769161224365,0.21464619040489197,0.6134539842605591,0.0,0.0,0.0,0.0,18232.0,5346.0,11496.0,15471.0,1.6533328294754028,0.04278860983544845,0.03097712738706398,0.05153651845111146,-0.004266046918928623,0.00924652349203825,0.0
197,5,1.132065062847687e-05,-1.145060195995029e-05,2.19740868487861e-05,0.0017051418544724584,-0.00023002497619017959,-0.000491695012897253,-0.006805401761084795,-0.1770937740802765,0.0035066313575953245,-0.0028649778105318546,-0.011329741217195988,0.1100449487566948,0.0,0.0,0.0,-0.0014501858968287706,-4.682657163357362e-05,-0.0,0.0,0.0,0.0,0.0011559558333829045,0.053503815084695816,0.00018892479420173913,17351.0,7640.0,10028.0,16405.0,0.6900545954704285,0.11776769161224365,0.21464619040489197,0.6134539842605591,0.0,0.0,0.0,0.0,18232.0,5346.0,11496.0,15471.0,1.6377017498016357,0.04321984694236266,0.031060468967620655,0.051891075400411796,0.0001847900712164119,-0.004402169492095709,0.0
202,5,-4.532811090030009e-06,-8.024953785934485e-06,3.155244849040173e-05,-0.001220358652062714,-0.0005030877655372024,-0.0013460812624543905,-0.0066256215795874596,-0.1770927757024765,0.003807704197242856,0.005988122429698706,0.00855665747076273,-0.1743210256099701,0.0,0.0,0.0,-0.0014501858968287706,-4.682657163357362e-05,-0.0,0.0,0.0,0.0,0.0005913187051191926,0.05370180308818817,-0.002315097488462925,15793.0,10794.0,6569.0,18009.0,0.5663548111915588,0.25174567103385925,0.0836196169257164,0.7459052205085754,0.0,0.0,0.0,0.0,15969.0,10479.0,7171.0,17821.0,1.6377017498016357,0.042446147814671986,0.030586276090357332,0.0517551588228309,0.004601594060659409,0.0018420363776385784,0.0
207,5,-1.8429445844958536e-05,-1.5315750943045714e-06,5.7992521760752425e-05,-0.0021557395812124014,-0.0009804406436160207,-0.0037112415302544832,-0.0066256215795874596,-0.1770927757024765,0.003807704197242856,0.005988122429698706,0.00855665747076273,-0.1743210256099701,0.0,0.0,0.0,0.0006062609609216452,-0.001165001536719501,-0.0,0.0,0.0,0.0,0.0005913187051191926,0.05370180308818817,-0.002315097488462925,15793.0,10794.0,6569.0,18009.0,0.5663548111915588,0.25174567103385925,0.0836196169257164,0.7459052205085754,0.0,0.0,0.0,0.0,15969.0,10479.0,7171.0,17821.0,1.6391929388046265,0.04286977342262182,0.030377175635347756,0.05103556547827686,0.004601594060659409,0.0018420363776385784,0.0
212,5,-1.943007555382792e-05,6.92743424224318e-06,5.783218512078747e-05,-0.0009823715081438422,-0.001407257397659123,-0.0014652559766545892,-0.00663529010489583,-0.1769910603761673,0.004046963527798653,0.009236622601747513,-0.016360968351364136,0.10627136379480362,0.0,0.0,0.0,0.0006062609609216452,-0.001165001536719501,-0.0,0.0,0.0,0.0,0.0018940253648906946,0.05346537008881569,0.004079819191247225,17987.0,5961.0,11208.0,15834.0,0.7440124750137329,0.06678776443004608,0.2730596661567688,0.5694730281829834,0.0,0.0,0.0,0.0,17033.0,8427.0,9538.0,16871.0,1.6391929388046265,0.042835906505349866,0.030212346917676106,0.05206891238155858,0.004601594060659409,0.0018420363776385784,0.0
217,5,-3.3428830647608265e-05,-6.830860911577474e-06,6.702023529214785e-05,-0.0020727994851768017,0.0010880924528464675,-0.0016886680386960506,-0.00663529010489583,-0.1769910603761673,0.004046963527798653,0.009236622601747513,-0.016360968351364136,0.10627136379480362,0.0,0.0,0.0,0.0017447499558329582,-0.0009573321440257132,-0.0,0.0,0.0,0.0,0.0018940253648906946,0.05346537008881569,0.004079819191247225,17987.0,5961.0,11208.0,15834.0,0.7440124750137329,0.06678776443004608,0.2730596661567688,0.5694730281829834,0.0,0.0,0.0,0.0,17033.0,8427.0,9538.0,16871.0,1.6434504985809326,0.04348073197843791,0.029938652807875978,0.05152834060911137,0.003791145281866193,0.005314934998750687,0.0
222,5,-5.3587249567499384e-05,-1.3605092135549057e-05,9.247948037227616e-05,-0.003248129738494754,0.001248144661076367,-0.0037305771838873625,-0.006705296691507101,-0.1764756739139557,0.003684079274535179,0.008730722591280937,-0.08933290094137192,0.028480231761932373,0.0,0.0,0.0,0.0017447499558329582,-0.0009573321440257132,-0.0,0.0,0.0,0.0,0.0010895164450630546,0.0519399531185627,-0.001514358795247972,16276.0,9152.0,9071.0,16928.0,0.634263813495636,0.1757798045873642,0.17238466441631317,0.6552734971046448,0.0,0.0,0.0,0.0,17692.0,6873.0,10867.0,15852.0,1.6434504985809326,0.0432579965207838,0.028594937138490033,0.05160590703626234,0.003791145281866193,0.005314934998750687,0.0
228,5,-7.81730777816847e-05,-1.3316476952240919e-06,0.00015222067304421216,-0.004249551333487034,-0.0009735553758218884,-0.008661173284053802,-0.006705296691507101,-0.1764756739139557,0.003684079274535179,0.008730722591280937,-0.08933290094137192,0.028480231761932373,0.0,0.0,0.0,-0.0015438897535204887,-0.0031154328025877476,-0.0,0.0,0.0,0.0,0.0010895164450630546,0.0519399531185627,-0.001514358795247972,16276.0,9152.0,9071.0,16928.0,0.634263813495636,0.1757798045873642,0.17238466441631317,0.6552734971046448,0.0,0.0,0.0,0.0,17692.0,6873.0,10867.0,15852.0,1.6618773937225342,0.04355783734337938,0.027147323708331405,0.052171189461909656,0.012475790455937386,-0.004755799192935228,0.0
233,5,-0.00010134598414879292,-1.6878260794328526e-05,0.00023422270896844566,-0.004480569623410702,0.001476171426475048,-0.013304715044796467,-0.006434077862650156,-0.17567825317382812,0.0041364626958966255,0.030801309272646904,-0.17690594494342804,-0.12311892956495285,0.0,0.0,0.0,-0.0015438897535204887,-0.0031154328025877476,-0.0,0.0,0.0,0.0,0.0015435932436957955,0.04606444761157036,0.003070591017603874,16297.0,9829.0,8689.0,17132.0,0.6050146222114563,0.20546527206897736,0.15679241716861725,0.671920657157898,0.0,0.0,0.0,0.0,15812.0,10579.0,8269.0,17350.0,1.6618773937225342,0.04348018651318944,0.024530396840000947,0.052008981007859625,0.012475790455937386,-0.004755799192935228,0.0
238,5,-0.0001858046744018793,-3.654076863313094e-05,0.00037773713120259345,-0.011927270330488682,0.0029499693773686886,-0.022543618455529213,-0.006434077862650156,-0.17567825317382812,0.0041364626958966255,0.030801309272646904,-0.17690594494342804,-0.12311892956495285,0.0,0.0,0.0,-0.0018129678210243583,-0.0043011195957660675,-0.0,0.0,0.0,0.0,0.0015435932436957955,0.04606444761157036,0.003070591017603874,16297.0,9829.0,8689.0,17132.0,0.6050146222114563,0.20546527206897736,0.15679241716861725,0.671920657157898,0.0,0.0,0.0,0.0,15812.0,10579.0,8269.0,17350.0,1.6750587224960327,0.044363176717166344,0.020527206004834868,0.05138084328799456,0.017360467463731766,-0.0056289611384272575,0.0
243,5,-0.0002760359493549913,-2.0559426047839224e-05,0.0005826068809255958,-0.015598662197589874,-0.0007377733127214015,-0.03360181674361229,-0.0062844096682965755,-0.17232023179531097,0.004228784702718258,-0.006434175651520491,-0.4054626524448395,0.10721825808286667,0.0,0.0,0.0,-0.0018129678210243583,-0.0043011195957660675,-0.0,0.0,0.0,0.0,0.001181269297376275,0.0334523469209671,-0.0037786681205034256,17381.0,7575.0,11598.0,15460.0,0.6925405263900757,0.11552174389362335,0.29387539625167847,0.5415128469467163,0.0,0.0,0.0,0.0,16698.0,9047.0,11114.0,15805.0,1.6750587224960327,0.044555159274880504,0.01415060603328696,0.05243964185109018,0.017360467463731766,-0.0056289611384272575,0.0
248,5,-0.00039650293183512986,-2.8914177164551802e-05,0.0008029513410292566,-0.020695500075817108,0.0007074608583934605,-0.03988206014037132,-0.0062844096682965755,-0.17232023179531097,0.004228784702718258,-0.006434175651520491,-0.4054626524448395,0.10721825808286667,0.0,0.0,0.0,0.0008014398626983166,-0.013946417719125748,-0.0,0.0,0.0,0.0,0.001181269297376275,0.0334523469209671,-0.0037786681205034256,17381.0,7575.0,11598.0,15460.0,0.6925405263900757,0.11552174389362335,0.29387539625167847,0.5415128469467163,0.0,0.0,0.0,0.0,16698.0,9047.0,11114.0,15805.0,1.7859117984771729,0.045112850145071756,0.0064826186943687004,0.053261236389625176,0.06001507490873337,0.002653013216331601,0.0
253,5,-0.0005671497783623636,-6.641444633714855e-05,0.0010686543537303805,-0.028755823150277138,0.004783016629517078,-0.04783718287944794,-0.006326338741928339,-0.16691409051418304,0.0034504164941608906,0.001199317048303783,-0.9403807520866394,-0.09690531343221664,0.0,0.0,0.0,0.0008014398626983166,-0.013946417719125748,-0.0,0.0,0.0,0.0,0.0007226819870993495,0.01696988195180893,0.0021662430372089148,15137.0,11908.0,13190.0,14299.0,0.5179388523101807,0.3110356330871582,0.386902391910553,0.45918184518814087,0.0,0.0,0.0,0.0,15832.0,10816.0,12414.0,14882.0,1.7859117984771729,0.044622798087459475,-0.002425640601992335,0.05365027793199111,0.06001507490873337,0.002653013216331601,0.0
258,5,-0.0007806526846252382,-7.627822924405336e-05,0.0013749179197475314,-0.03712267428636551,0.0030968603678047657,-0.05588650330901146,-0.006326338741928339,-0.16691409051418304,0.0034504164941608906,0.001199317048303783,-0.9403807520866394,-0.09690531343221664,0.0,0.0,0.0,-0.005141506437212229,-0.023979496210813522,-0.0,0.0,0.0,0.0,0.0007226819870993495,0.01696988195180893,0.0021662430372089148,15137.0,11908.0,13190.0,14299.0,0.5179388523101807,0.3110356330871582,0.386902391910553,0.45918184518814087,0.0,0.0,0.0,0.0,15832.0,10816.0,12414.0,14882.0,1.9204907417297363,0.04618851280402621,-0.012672065426802014,0.054051722242582846,0.1109575405716896,-0.01830238476395607,0.0
263,5,-0.00102757359854877,-9.397490794071928e-05,0.0017348203109577298,-0.04447958245873451,0.003362345974892378,-0.06554289907217026,-0.006360848434269428,-0.15135765075683594,0.004010879434645176,-0.023435810580849648,-1.6598656177520752,0.0065824673511087894,0.0,0.0,0.0,-0.005141506437212229,-0.023979496210813522,-0.0,0.0,0.0,0.0,0.002503311028704047,-0.007798184175044298,-0.0009244565153494477,13211.0,14628.0,14830.0,13707.0,0.38823312520980835,0.4818401336669922,0.4960196614265442,0.4198188781738281,0.0,0.0,0.0,0.0,14096.0,13089.0,12967.0,14541.0,1.9204907417297363,0.0467991741683739,-0.025918530833507612,0.05482032352552186,0.1109575405716896,-0.01830238476395607,0.0
268,5,-0.0012842918513342738,-0.00010778760770335793,0.002043201122432947,-0.048598021268844604,0.0030024622101336718,-0.06322285532951355,-0.006360848434269428,-0.15135765075683594,0.004010879434645176,-0.023435810580849648,-1.6598656177520752,0.0065824673511087894,0.0,0.0,0.0,-0.003421315923333168,-0.03458290174603462,-0.0,0.0,0.0,0.0,0.002503311028704047,-0.007798184175044298,-0.0009244565153494477,13211.0,14628.0,14830.0,13707.0,0.38823312520980835,0.4818401336669922,0.4960196614265442,0.4198188781738281,0.0,0.0,0.0,0.0,14096.0,13089.0,12967.0,14541.0,2.069941282272339,0.04757723181638497,-0.04024391536510064,0.05575615733254559,0.17245756089687347,-0.013126780278980732,0.0
273,5,-0.0015900935977697372,-0.00011908772285096347,0.002382881473749876,-0.05613541603088379,0.002556998748332262,-0.06605079025030136,-0.006360848434269428,-0.15135765075683594,0.004010879434645176,-0.023435810580849648,-1.6598656177520752,0.0065824673511087894,0.0,0.0,0.0,-0.003421315923333168,-0.03458290174603462,-0.0,0.0,0.0,0.0,0.002503311028704047,-0.007798184175044298,-0.0009244565153494477,13211.0,14628.0,14830.0,13707.0,0.38823312520980835,0.4818401336669922,0.4960196614265442,0.4198188781738281,0.0,0.0,0.0,0.0,14096.0,13089.0,12967.0,14541.0,2.069941282272339,0.04692585767239688,-0.05559411004794807,0.05660702163554152,0.17245756089687347,-0.013126780278980732,0.0
278,5,-0.0019097623880952597,-0.0001539522927487269,0.0027051158249378204,-0.06081442907452583,0.0052065481431782246,-0.0650884211063385,-0.008185076527297497,-0.1027183085680008,0.0039733415469527245,-0.13161109387874603,-2.9686331748962402,-0.02829470857977867,0.0,0.0,0.0,-0.0025348267517983913,-0.04174268990755081,-0.0,0.0,0.0,0.0,0.0023532190825790167,-0.029417572543025017,0.00012120993778808042,12312.0,16312.0,16593.0,12617.0,0.3340127766132355,0.6062290072441101,0.6283100843429565,0.3519388735294342,0.0,0.0,0.0,0.0,13370.0,14464.0,15856.0,12518.0,2.180555820465088,0.04764727317047624,-0.07213743477877742,0.058065864324757674,0.2192663699388504,-0.010245265439152718,0.0
284,5,-0.0022671602200716734,-0.00015903163875918835,0.003117798361927271,-0.0672135204076767,0.002692140405997634,-0.07555727660655975,-0.008185076527297497,-0.1027183085680008,0.0039733415469527245,-0.13161109387874603,-2.9686331748962402,-0.02829470857977867,0.0,0.0,0.0,-0.0025348267517983913,-0.04174268990755081,-0.0,0.0,0.0,0.0,0.0023532190825790167,-0.029417572543025017,0.00012120993778808042,12312.0,16312.0,16593.0,12617.0,0.3340127766132355,0.6062290072441101,0.6283100843429565,0.3519388735294342,0.0,0.0,0.0,0.0,13370.0,14464.0,15856.0,12518.0,2.180555820465088,0.04777556981765976,-0.0898498984927625,0.059076114386797295,0.2192663699388504,-0.010245265439152718,0.0
289,5,-0.0025961571373045444,-0.00018387232557870448,0.0034304403234273195,-0.06636502593755722,0.004057738929986954,-0.06773994117975235,-0.00935741700232029,-0.07729592174291611,0.004131741356104612,-0.1470445692539215,-3.3176987171173096,0.03344837576150894,0.0,0.0,0.0,-0.0025912413839250803,-0.04807596653699875,-0.0,0.0,0.0,0.0,0.002624870976433158,-0.048534877598285675,0.0007663000142201781,11593.0,17667.0,18530.0,11111.0,0.29363465309143066,0.7166033387184143,0.7917178273200989,0.2679855227470398,0.0,0.0,0.0,0.0,11201.0,17015.0,16635.0,12648.0,2.284451484680176,0.04770622474063619,-0.1065329543381343,0.05974634810410596,0.26454105973243713,-0.010972294956445694,0.0
294,5,-0.002906818175688386,-0.00020888514700345695,0.0036875628866255283,-0.0638253316283226,0.004624634049832821,-0.0579507015645504,-0.00935741700232029,-0.07729592174291611,0.004131741356104612,-0.1470445692539215,-3.3176987171173096,0.03344837576150894,0.0,0.0,0.0,-0.0025912413839250803,-0.04807596653699875,-0.0,0.0,0.0,0.0,0.002624870976433158,-0.048534877598285675,0.0007663000142201781,11593.0,17667.0,18530.0,11111.0,0.29363465309143066,0.7166033387184143,0.7917178273200989,0.2679855227470398,0.0,0.0,0.0,0.0,11201.0,17015.0,16635.0,12648.0,2.284451484680176,0.04805262381218562,-0.12152646893906714,0.060366265983445286,0.26454105973243713,-0.010972294956445694,0.0
299,5,-0.0031947954557836056,-0.000261706009041518,0.003925485070794821,-0.060087405145168304,0.008188358508050442,-0.051730938255786896,-0.0109867537394166,-0.03798900172114372,0.00432972377166152,-0.11655457317829132,-3.2304325103759766,-0.04513131454586983,0.0,0.0,0.0,-0.0044057355262339115,-0.046812504529953,-0.0,0.0,0.0,0.0,0.0033942905720323324,-0.059351883828639984,-0.0007229677867144346,10342.0,18957.0,18801.0,11796.0,0.22949101030826569,0.8302419185638428,0.8160257339477539,0.3047971725463867,0.0,0.0,0.0,0.0,11123.0,17938.0,18737.0,10784.0,2.2646865844726562,0.04936745759989666,-0.13455301054192217,0.061360862930994305,0.2553636431694031,-0.018494071438908577,0.0
304,5,-0.0034687798470258713,-0.00028390437364578247,0.004206717945635319,-0.0569131001830101,0.005939146038144827,-0.05444028973579407,-0.0109867537394166,-0.03798900172114372,0.00432972377166152,-0.11655457317829132,-3.2304325103759766,-0.04513131454586983,0.0,0.0,0.0,-0.0044057355262339115,-0.046812504529953,-0.0,0.0,0.0,0.0,0.0033942905720323324,-0.059351883828639984,-0.0007229677867144346,10342.0,18957.0,18801.0,11796.0,0.22949101030826569,0.8302419185638428,0.8160257339477539,0.3047971725463867,0.0,0.0,0.0,0.0,11123.0,17938.0,18737.0,10784.0,2.2646865844726562,0.050152369548161345,-0.1470716884901346,0.06217408678502518,0.2553636431694031,-0.018494071438908577,0.0
309,5,-0.0037038445007056,-0.00030532278469763696,0.004411849658936262,-0.05097299441695213,0.004945867694914341,-0.04639196768403053,-0.011791035532951355,-0.01426050253212452,0.0045671844854950905,-0.0824347510933876,-2.7059381008148193,-0.015982793644070625,0.0,0.0,0.0,-0.005809420719742775,-0.04360990226268768,-0.0,0.0,0.0,0.0,0.0029294458217918873,-0.06349632889032364,0.000654584146104753,10919.0,18699.0,19177.0,11057.0,0.2580781877040863,0.8068299889564514,0.8504429459571838,0.26520469784736633,0.0,0.0,0.0,0.0,10701.0,18772.0,19150.0,11188.0,2.2136874198913574,0.0498772204451178,-0.15754932053662177,0.062451451818829655,0.23254570364952087,-0.023837091401219368,0.0
314,5,-0.0038751536048948765,-0.0003144950605928898,0.004569521639496088,-0.04094627872109413,0.0030790194869041443,-0.03747741878032684,-0.011791035532951355,-0.01426050253212452,0.0045671844854950905,-0.0824347510933876,-2.7059381008148193,-0.015982793644070625,0.0,0.0,0.0,-0.005809420719742775,-0.04360990226268768,-0.0,0.0,0.0,0.0,0.0029294458217918873,-0.06349632889032364,0.000654584146104753,10919.0,18699.0,19177.0,11057.0,0.2580781877040863,0.8068299889564514,0.8504429459571838,0.26520469784736633,0.0,0.0,0.0,0.0,10701.0,18772.0,19150.0,11188.0,2.2136874198913574,0.04963091754487524,-0.16597796280504812,0.06284134367712407,0.23254570364952087,-0.023837091401219368,0.0
319,5,-0.0039981091395020485,-0.0003285517159383744,0.004698983393609524,-0.03113315999507904,0.0029184066224843264,-0.030526351183652878,-0.01243131048977375,0.013312877155840397,0.004772326909005642,-0.045719608664512634,-1.892389178276062,0.015555473044514656,0.0,0.0,0.0,-0.0034515722654759884,-0.03497597947716713,-0.0,0.0,0.0,0.0,0.002596514765173197,-0.05701142176985741,-1.5051360833240324e-06,12082.0,18625.0,19090.0,12085.0,0.32085224986076355,0.8002016544342041,0.8424149751663208,0.32098260521888733,0.0,0.0,0.0,0.0,11121.0,19156.0,19401.0,11639.0,2.0758965015411377,0.048765385576941774,-0.17100154571729947,0.06307320337057538,0.1749187409877777,-0.013280966319143772,0.0
324,5,-0.004051040858030319,-0.00033818493830040097,0.004795175977051258,-0.018805118277668953,0.0023233508691191673,-0.02375367470085621,-0.01243131048977375,0.013312877155840397,0.004772326909005642,-0.045719608664512634,-1.892389178276062,0.015555473044514656,0.0,0.0,0.0,-0.0034515722654759884,-0.03497597947716713,-0.0,0.0,0.0,0.0,0.002596514765173197,-0.05701142176985741,-1.5051360833240324e-06,12082.0,18625.0,19090.0,12085.0,0.32085224986076355,0.8002016544342041,0.8424149751663208,0.32098260521888733,0.0,0.0,0.0,0.0,11121.0,19156.0,19401.0,11639.0,2.0758965015411377,0.048079398543606926,-0.17334772354948405,0.0629751155317248,0.1749187409877777,-0.013280966319143772,0.0
329,5,-0.004067055881023407,-0.00036513846134766936,0.004854511469602585,-0.009443830698728561,0.004163761623203754,-0.016621721908450127,-0.012490306980907917,0.024346617981791496,0.004926938563585281,-0.0018231855938211083,-0.917222797870636,-0.01845882274210453,0.0,0.0,0.0,-0.003048298414796591,-0.020587032660841942,-0.0,0.0,0.0,0.0,0.0015993795823305845,-0.04289567098021507,0.00045529441558755934,13028.0,17947.0,18217.0,13130.0,0.376883864402771,0.7405620813369751,0.7640516757965088,0.38318896293640137,0.0,0.0,0.0,0.0,12550.0,18229.0,18951.0,12102.0,1.8722634315490723,0.04806457428467273,-0.17328145758442914,0.06321536195219345,0.09287095069885254,-0.010578686371445656,0.0
335,5,-0.004051516763865948,-0.00041977796354331076,0.004906840622425079,-0.001912855077534914,0.0082222456112504,-0.012928156182169914,-0.012490306980907917,0.024346617981791496,0.004926938563585281,-0.0018231855938211083,-0.917222797870636,-0.01845882274210453,0.0,0.0,0.0,-0.003048298414796591,-0.020587032660841942,-0.0,0.0,0.0,0.0,0.0015993795823305845,-0.04289567098021507,0.00045529441558755934,13028.0,17947.0,18217.0,13130.0,0.376883864402771,0.7405620813369751,0.7640516757965088,0.38318896293640137,0.0,0.0,0.0,0.0,12550.0,18229.0,18951.0,12102.0,1.8722634315490723,0.048616229423391,-0.17153232979996244,0.06284595526256742,0.09287095069885254,-0.010578686371445656,0.0
340,5,-0.003988251555711031,-0.00045918370597064495,0.004875487182289362,0.006826708093285561,0.00801758747547865,-0.001408894662745297,-0.012332160025835037,0.028671806678175926,0.005128812976181507,0.01714201644062996,0.09589716792106628,0.030627259984612465,0.0,0.0,0.0,-0.010250579565763474,-0.0070270574651658535,-0.0,0.0,0.0,0.0,0.0010527551639825106,-0.022735312581062317,0.001417233725078404,14764.0,16318.0,17333.0,13818.0,0.4913540780544281,0.6067078709602356,0.6885188221931458,0.42710670828819275,0.0,0.0,0.0,0.0,14468.0,15537.0,16386.0,14104.0,1.7447667121887207,0.04846926932081478,-0.16765724019446998,0.0625313829394923,0.02954176254570484,-0.03314977139234543,0.0
345,5,-0.003883049124851823,-0.00045426608994603157,0.004814821295440197,0.015354967676103115,0.002616919344291091,0.0067163510248064995,-0.012332160025835037,0.028671806678175926,0.005128812976181507,0.01714201644062996,0.09589716792106628,0.030627259984612465,0.0,0.0,0.0,-0.010250579565763474,-0.0070270574651658535,-0.0,0.0,0.0,0.0,0.0010527551639825106,-0.022735312581062317,0.001417233725078404,14764.0,16318.0,17333.0,13818.0,0.4913540780544281,0.6067078709602356,0.6885188221931458,0.42710670828819275,0.0,0.0,0.0,0.0,14468.0,15537.0,16386.0,14104.0,1.7447667121887207,0.04744910536855587,-0.16228248087174574,0.06226258270841892,0.02954176254570484,-0.03314977139234543,0.0
350,5,-0.0037540127523243427,-0.0004531746089924127,0.00470271660014987,0.02162635512650013,0.0009157900931313634,0.016139144077897072,-0.012445477768778801,0.024402663111686707,0.005139391869306564,-0.01262606866657734,0.8988811373710632,0.021548230201005936,0.0,0.0,0.0,-0.003846267703920603,0.0086749866604805,-0.0,0.0,0.0,0.0,0.0019923525396734476,-0.0021551798563450575,0.0005601710290648043,15256.0,14816.0,15568.0,14955.0,0.5265603065490723,0.4949941337108612,0.5494966506958008,0.504845380783081,0.0,0.0,0.0,0.0,15313.0,13167.0,14449.0,14697.0,1.7282336950302124,0.046557558934510156,-0.1561049448290083,0.06218219696864571,-0.036125555634498596,-0.01232107449322939,-0.0
355,5,-0.0036011768970638514,-0.0004586132999975234,0.004547732416540384,0.02699083276093006,0.0010189601453021169,0.025053711608052254,-0.01290979329496622,0.010189780034124851,0.005259431898593903,-0.09782543778419495,1.390851616859436,0.0020099098328500986,0.0,0.0,0.0,-0.003846267703920603,0.0086749866604805,-0.0,0.0,0.0,0.0,0.0026161493733525276,0.01621141843497753,0.000978470197878778,15556.0,12779.0,13743.0,15437.0,0.5486059188842773,0.36168769001960754,0.42219141125679016,0.5397784113883972,0.0,0.0,0.0,0.0,15564.0,11847.0,12471.0,15503.0,1.7282336950302124,0.04501336221388989,-0.14922211131681565,0.06164611253286908,-0.036125555634498596,-0.01232107449322939,-0.0
360,5,-0.0034570302814245224,-0.00046043339534662664,0.004356627818197012,0.028093930333852768,0.0006259943475015461,0.032954052090644836,-0.01290979329496622,0.010189780034124851,0.005259431898593903,-0.09782543778419495,1.390851616859436,0.0020099098328500986,0.0,0.0,0.0,-0.0018614378059282899,0.018320804461836815,-0.0,0.0,0.0,0.0,0.0026161493733525276,0.01621141843497753,0.000978470197878778,15556.0,12779.0,13743.0,15437.0,0.5486059188842773,0.36168769001960754,0.42219141125679016,0.5397784113883972,0.0,0.0,0.0,0.0,15564.0,11847.0,12471.0,15503.0,1.8416500091552734,0.044373382569710795,-0.1420069127786862,0.06161641994446619,-0.08129774034023285,-0.006354241631925106,-0.0
365,5,-0.003308781422674656,-0.00045074199442751706,0.004147115163505077,0.029027437791228294,-0.0009125708020292222,0.03832315281033516,-0.01290979329496622,0.010189780034124851,0.005259431898593903,-0.09782543778419495,1.390851616859436,0.0020099098328500986,0.0,0.0,0.0,-0.0018614378059282899,0.018320804461836815,-0.0,0.0,0.0,0.0,0.0026161493733525276,0.01621141843497753,0.000978470197878778,15556.0,12779.0,13743.0,15437.0,0.5486059188842773,0.36168769001960754,0.42219141125679016,0.5397784113883972,0.0,0.0,0.0,0.0,15564.0,11847.0,12471.0,15503.0,1.8416500091552734,0.04324027133091277,-0.1338201857614268,0.06147053921253989,-0.08129774034023285,-0.006354241631925106,-0.0
370,5,-0.003176531521603465,-0.00043238382204435766,0.003946722485125065,0.0274809617549181,-0.0025680088438093662,0.03937637805938721,-0.013888242654502392,-0.0016627081204205751,0.005182516295462847,-0.15898776054382324,1.5210654735565186,0.04624040424823761,0.0,0.0,0.0,0.0002692695416044444,0.02014917880296707,-0.0,0.0,0.0,0.0,0.00250847521238029,0.02916683256626129,0.001309162937104702,16145.0,10847.0,12621.0,15506.0,0.5932285785675049,0.2544099986553192,0.35219451785087585,0.5449336171150208,0.0,0.0,0.0,0.0,16311.0,10552.0,12681.0,15483.0,1.8647489547729492,0.04212966546462091,-0.12746553959992546,0.061296203808066496,-0.0905316025018692,0.0009307137806899846,-0.0
375,5,-0.0030870367772877216,-0.0004070744034834206,0.0038109170272946358,0.021731773391366005,-0.004064331762492657,0.032047200947999954,-0.013888242654502392,-0.0016627081204205751,0.005182516295462847,-0.15898776054382324,1.5210654735565186,0.04624040424823761,0.0,0.0,0.0,0.0002692695416044444,0.02014917880296707,-0.0,0.0,0.0,0.0,0.00250847521238029,0.02916683256626129,0.001309162937104702,16145.0,10847.0,12621.0,15506.0,0.5932285785675049,0.2544099986553192,0.35219451785087585,0.5449336171150208,0.0,0.0,0.0,0.0,16311.0,10552.0,12681.0,15483.0,1.8647489547729492,0.0396235295541005,-0.12143091076945672,0.060799554720981384,-0.0905316025018692,0.0009307137806899846,-0.0
380,5,-0.0030168902594596148,-0.00039245252264663577,0.00370204309001565,0.017110267654061317,-0.0033803600817918777,0.025883754715323448,-0.01541161723434925,-0.019031647592782974,0.005028560291975737,-0.11159492284059525,1.3774300813674927,-0.03288957104086876,0.0,0.0,0.0,0.0038918033242225647,0.014839720912277699,-0.0,0.0,0.0,0.0,0.003677858505398035,0.035465747117996216,6.842198490630835e-05,15847.0,10991.0,11385.0,16407.0,0.5704624652862549,0.2617662250995636,0.2823898494243622,0.6136151552200317,0.0,0.0,0.0,0.0,15861.0,10970.0,11551.0,16293.0,1.8005439043045044,0.03877606262338884,-0.11712507680224635,0.061076005763417235,-0.06438165158033371,0.012988564558327198,-0.0
385,5,-0.0029696666169911623,-0.00039856662624515593,0.0036422437988221645,0.012510956265032291,-0.0006184501689858735,0.017529429867863655,-0.01541161723434925,-0.019031647592782974,0.005028560291975737,-0.11159492284059525,1.3774300813674927,-0.03288957104086876,0.0,0.0,0.0,0.0038918033242225647,0.014839720912277699,-0.0,0.0,0.0,0.0,0.003677858505398035,0.035465747117996216,6.842198490630835e-05,15847.0,10991.0,11385.0,16407.0,0.5704624652862549,0.2617662250995636,0.2823898494243622,0.6136151552200317,0.0,0.0,0.0,0.0,15861.0,10970.0,11551.0,16293.0,1.8005439043045044,0.03895020933775769,-0.11348366406363995,0.06062120560999975,-0.06438165158033371,0.012988564558327198,-0.0
390,5,-0.0029773619025945663,-0.00039984361501410604,0.003663887269794941,0.004080938175320625,-9.414079977432266e-05,0.004414541181176901,-0.016387097537517548,-0.027869271114468575,0.005081026814877987,-0.07879497855901718,0.8778888583183289,0.051187511533498764,0.0,0.0,0.0,3.5354143619770184e-05,0.0073973024263978004,-0.0,0.0,0.0,0.0,0.004452408291399479,0.033858779817819595,0.0018531003734096885,16702.0,10682.0,13005.0,16013.0,0.6370164155960083,0.24615207314491272,0.3754276931285858,0.5830537676811218,0.0,0.0,0.0,0.0,16433.0,11219.0,12943.0,15981.0,1.7076750993728638,0.038718553038848504,-0.11248342195642383,0.0603383443697465,-0.030438732355833054,0.00011190619989065453,-0.0
395,5,-0.003007731167599559,-0.00040421876474283636,0.0036961494479328394,-0.002011915436014533,0.00048735993914306164,-0.0021056504920125008,-0.016387097537517548,-0.027869271114468575,0.005081026814877987,-0.07879497855901718,0.8778888583183289,0.051187511533498764,0.0,0.0,0.0,3.5354143619770184e-05,0.0073973024263978004,-0.0,0.0,0.0,0.0,0.004452408291399479,0.033858779817819595,0.0018531003734096885,16702.0,10682.0,13005.0,16013.0,0.6370164155960083,0.24615207314491272,0.3754276931285858,0.5830537676811218,0.0,0.0,0.0,0.0,16433.0,11219.0,12943.0,15981.0,1.7076750993728638,0.039485868016776296,-0.11245842622434091,0.0605236992086869,-0.030438732355833054,0.00011190619989065453,-0.0
400,5,-0.0030916573014110327,-0.0004311878001317382,0.0037646619603037834,-0.010875924490392208,0.003431227756664157,-0.009063750505447388,-0.01674840785562992,-0.03412679210305214,0.00482690567150712,-0.0049444702453911304,0.17046710848808289,-0.03758411854505539,0.0,0.0,0.0,-0.0012968761147931218,-0.00594579242169857,-0.0,0.0,0.0,0.0,0.0038540440145879984,0.02319355122745037,-0.0008219119044952095,15299.0,12915.0,12859.0,16215.0,0.5296750068664551,0.369929701089859,0.366514652967453,0.5986295342445374,0.0,0.0,0.0,0.0,15356.0,12932.0,13391.0,15714.0,1.692030906677246,0.0397306331346488,-0.11379811863139447,0.060727193660148754,0.024241918697953224,-0.004067383240908384,0.0
406,5,-0.003220729297026992,-0.00045566566404886544,0.0038732977118343115,-0.019839001819491386,0.004309836775064468,-0.016661781817674637,-0.01674840785562992,-0.03412679210305214,0.00482690567150712,-0.0049444702453911304,0.17046710848808289,-0.03758411854505539,0.0,0.0,0.0,-0.0012968761147931218,-0.00594579242169857,-0.0,0.0,0.0,0.0,0.0038540440145879984,0.02319355122745037,-0.0008219119044952095,15299.0,12915.0,12859.0,16215.0,0.5296750068664551,0.369929701089859,0.366514652967453,0.5986295342445374,0.0,0.0,0.0,0.0,15356.0,12932.0,13391.0,15714.0,1.692030906677246,0.04073353284044917,-0.11776578819967606,0.06082996450747296,0.024241918697953224,-0.004067383240908384,0.0
411,5,-0.0033678964246064425,-0.00046879120054654777,0.003976588137447834,-0.02559565007686615,0.0032989997416734695,-0.019059574231505394,-0.01644604094326496,-0.03287883847951889,0.004959396086633205,0.06036679074168205,-0.5172037482261658,-0.0004987494321539998,0.0,0.0,0.0,-0.005379556678235531,-0.020436393097043037,-0.0,0.0,0.0,0.0,0.0023315907455980778,0.005824773572385311,0.0009072560351341963,14199.0,13082.0,13939.0,14013.0,0.4524190425872803,0.38021427392959595,0.4350517988204956,0.43998998403549194,0.0,0.0,0.0,0.0,13414.0,13861.0,13856.0,14121.0,1.8740031719207764,0.04198321785637773,-0.12228094067295253,0.060321672345779044,0.09227625280618668,-0.01868622377514839,0.0
416,5,-0.0035562869161367416,-0.0004659260739572346,0.004124123137444258,-0.032845109701156616,0.0009757839143276215,-0.025328051298856735,-0.01644604094326496,-0.03287883847951889,0.004959396086633205,0.06036679074168205,-0.5172037482261658,-0.0004987494321539998,0.0,0.0,0.0,-0.005379556678235531,-0.020436393097043037,-0.0,0.0,0.0,0.0,0.0023315907455980778,0.005824773572385311,0.0009072560351341963,14199.0,13082.0,13939.0,14013.0,0.4524190425872803,0.38021427392959595,0.4350517988204956,0.43998998403549194,0.0,0.0,0.0,0.0,13414.0,13861.0,13856.0,14121.0,1.8740031719207764,0.04204616817011676,-0.12764598767449725,0.05993311164314724,0.09227625280618668,-0.01868622377514839,0.0
421,5,-0.003959574270993471,-0.0004437999159563333,0.004315702710300684,-0.03969286382198334,-0.0013215624494478106,-0.019519304856657982,-0.015644192695617676,-0.02315184846520424,0.00434570899233222,0.07058316469192505,-1.0669878721237183,-0.0729903057217598,0.0,0.0,0.0,-0.0016863318160176277,-0.02970452979207039,-0.0,0.0,0.0,0.0,0.0010352707467973232,-0.026661358773708344,0.00041219202103093266,12000.0,15038.0,14217.0,13577.0,0.3161553144454956,0.510826826095581,0.45363736152648926,0.4114114046096802,0.0,0.0,0.0,0.0,11832.0,15135.0,14608.0,13192.0,1.9968430995941162,0.04337900531137342,-0.14048612677433162,0.060297971551821185,0.14290717244148254,-0.006241588853299618,0.0
426,5,-0.003959574270993471,-0.0004437999159563333,0.004315702710300684,-0.03969286382198334,-0.0013215624494478106,-0.019519304856657982,-0.015644192695617676,-0.02315184846520424,0.00434570899233222,0.07058316469192505,-1.0669878721237183,-0.0729903057217598,0.0,0.0,0.0,-0.0016863318160176277,-0.02970452979207039,-0.0,0.0,0.0,0.0,0.0010352707467973232,-0.026661358773708344,0.00041219202103093266,12000.0,15038.0,14217.0,13577.0,0.3161553144454956,0.510826826095581,0.45363736152648926,0.4114114046096802,0.0,0.0,0.0,0.0,11832.0,15135.0,14608.0,13192.0,1.9968430995941162,0.04337900531137342,-0.14048612677433162,0.060297971551821185,0.14290717244148254,-0.006241588853299618,0.0
431,5,-0.00416009034961462,-0.00044395436998456717,0.004359757993370295,-0.03993910923600197,-0.0005100919515825808,-0.013094381429255009,-0.015644192695617676,-0.02315184846520424,0.00434570899233222,0.07058316469192505,-1.0669878721237183,-0.0729903057217598,0.0,0.0,0.0,0.0006515365093946457,-0.03433902934193611,-0.0,0.0,0.0,0.0,0.0010352707467973232,-0.026661358773708344,0.00041219202103093266,12000.0,15038.0,14217.0,13577.0,0.3161553144454956,0.510826826095581,0.45363736152648926,0.4114114046096802,0.0,0.0,0.0,0.0,11832.0,15135.0,14608.0,13192.0,2.064807891845703,0.043949693947282716,-0.14651640769971824,0.06038994461946385,0.17081819474697113,0.002493600593879819,0.0
436,5,-0.004370053764432669,-0.00044109599548392,0.004422091878950596,-0.04117123410105705,-0.0005470428732223809,-0.012717803940176964,-0.014919007197022438,-0.013543765991926193,0.004278093576431274,0.1010686531662941,-1.3154911994934082,0.01507633924484253,0.0,0.0,0.0,0.0006515365093946457,-0.03433902934193611,-0.0,0.0,0.0,0.0,0.0016087403055280447,-0.032693181186914444,-0.00030205099028535187,12762.0,15841.0,16400.0,12247.0,0.3606359362602234,0.5699719786643982,0.6131057739257812,0.33028942346572876,0.0,0.0,0.0,0.0,12548.0,15986.0,16494.0,12149.0,2.064807891845703,0.044138631961374644,-0.152720248743716,0.06045727334820324,0.17081819474697113,0.002493600593879819,0.0
441,5,-0.004567169584333897,-0.000439785304479301,0.004473238717764616,-0.0401223860681057,-0.0003760994295589626,-0.011224762536585331,-0.014919007197022438,-0.013543765991926193,0.004278093576431274,0.1010686531662941,-1.3154911994934082,0.01507633924484253,0.0,0.0,0.0,-0.00010292687511537224,-0.035586439073085785,-0.0,0.0,0.0,0.0,0.0016087403055280447,-0.032693181186914444,-0.00030205099028535187,12762.0,15841.0,16400.0,12247.0,0.3606359362602234,0.5699719786643982,0.6131057739257812,0.33028942346572876,0.0,0.0,0.0,0.0,12548.0,15986.0,16494.0,12149.0,2.0836358070373535,0.04502748218988717,-0.15757534449870625,0.060897038954648784,0.17863501608371735,-0.0003975201689172536,0.0
446,5,-0.004876349586993456,-0.00044120033271610737,0.0045822300016880035,-0.03144911676645279,-0.00017279537860304117,-0.011672296561300755,-0.013757181353867054,0.0017176554538309574,0.004362671170383692,0.10438976436853409,-1.2579824924468994,-0.023770734667778015,0.0,0.0,0.0,-0.00010292687511537224,-0.035586439073085785,-0.0,0.0,0.0,0.0,0.0021521730814129114,-0.03374568745493889,0.0013122475938871503,13217.0,16569.0,17546.0,12473.0,0.3885723352432251,0.6264081001281738,0.7063868045806885,0.3434406518936157,0.0,0.0,0.0,0.0,12506.0,16724.0,16976.0,12642.0,2.0836358070373535,0.04604138521266743,-0.16469445810707237,0.06122440220164499,0.17863501608371735,-0.0003975201689172536,0.0
451,5,-0.004983983933925629,-0.0004453863366506994,0.004651034716516733,-0.02549576945602894,0.00043320265831425786,-0.012925486080348492,-0.013757181353867054,0.0017176554538309574,0.004362671170383692,0.10438976436853409,-1.2579824924468994,-0.023770734667778015,0.0,0.0,0.0,-0.0004859771579504013,-0.030062882229685783,-0.0,0.0,0.0,0.0,0.0021521730814129114,-0.03374568745493889,0.0013122475938871503,13217.0,16569.0,17546.0,12473.0,0.3885723352432251,0.6264081001281738,0.7063868045806885,0.3434406518936157,0.0,0.0,0.0,0.0,12506.0,16724.0,16976.0,12642.0,2.0016462802886963,0.04681989145720934,-0.1665927580572463,0.06119741782775833,0.14497876167297363,-0.001803066348657012,0.0
456,5,-0.004983983933925629,-0.0004453863366506994,0.004651034716516733,-0.02549576945602894,0.00043320265831425786,-0.012925486080348492,-0.013311292044818401,0.010658768005669117,0.004625025205314159,0.07865214347839355,-0.9849885702133179,0.029297731816768646,0.0,0.0,0.0,-0.0004859771579504013,-0.030062882229685783,-0.0,0.0,0.0,0.0,0.0017752660205587745,-0.02851640246808529,-7.362202450167388e-05,13030.0,16858.0,16772.0,13624.0,0.3769637644290924,0.6495781540870667,0.6426296830177307,0.41446414589881897,0.0,0.0,0.0,0.0,13326.0,16502.0,17490.0,12527.0,2.0016462802886963,0.04681989145720934,-0.1665927580572463,0.06119741782775833,0.14497876167297363,-0.001803066348657012,0.0
461,5,-0.005147101357579231,-0.000430930289439857,0.00475605484098196,-0.01698790118098259,-0.001433389144949615,-0.01002920139580965,-0.013311292044818401,0.010658768005669117,0.004625025205314159,0.07865214347839355,-0.9849885702133179,0.029297731816768646,0.0,0.0,0.0,-0.0011356439208611846,-0.026265360414981842,-0.0,0.0,0.0,0.0,0.0017752660205587745,-0.02851640246808529,-7.362202450167388e-05,13030.0,16858.0,16772.0,13624.0,0.3769637644290924,0.6495781540870667,0.6426296830177307,0.41446414589881897,0.0,0.0,0.0,0.0,13326.0,16502.0,17490.0,12527.0,1.947817087173462,0.047433911063292984,-0.16718163737057085,0.0613127227762,0.12326314300298691,-0.0041001406498253345,0.0
467,5,-0.005191050469875336,-0.0004309610230848193,0.004775433801114559,-0.012069057673215866,-0.0005696687730960548,-0.006337125785648823,-0.01214055810123682,0.022494645789265633,0.004634508863091469,0.02460617758333683,-0.07748322933912277,0.009049990214407444,0.0,0.0,0.0,-0.0011356439208611846,-0.026265360414981842,-0.0,0.0,0.0,0.0,0.001994607737287879,-0.018646501004695892,0.0009056040435098112,13944.0,15554.0,16387.0,13488.0,0.4353848695755005,0.5484544038772583,0.6121059656143188,0.40570107102394104,0.0,0.0,0.0,0.0,13248.0,16693.0,16676.0,13737.0,1.947817087173462,0.0475418697775333,-0.16585434106678942,0.06087599987550431,0.12326314300298691,-0.0041001406498253345,0.0
472,5,-0.005211773794144392,-0.0004102747770957649,0.0047869812697172165,-0.007314442656934261,-0.0027102164458483458,-0.003920568153262138,-0.01214055810123682,0.022494645789265633,0.004634508863091469,0.02460617758333683,-0.07748322933912277,0.009049990214407444,0.0,0.0,0.0,-7.742919842712581e-05,-0.016868747770786285,-0.0,0.0,0.0,0.0,0.001994607737287879,-0.018646501004695892,0.0009056040435098112,13944.0,15554.0,16387.0,13488.0,0.4353848695755005,0.5484544038772583,0.6121059656143188,0.40570107102394104,0.0,0.0,0.0,0.0,13248.0,16693.0,16676.0,13737.0,1.8223352432250977,0.04738528879660762,-0.16326063315496103,0.06091129049068245,0.07407001405954361,-0.00026154209626838565,0.0
477,5,-0.0052124615758657455,-0.0003814069787040353,0.004776135552674532,-0.0030083295423537493,-0.004548222757875919,-0.00026674626860767603,-0.012319862842559814,0.0204948578029871,0.004472099710255861,-0.019943613559007645,0.36425158381462097,-0.008467213250696659,0.0,0.0,0.0,-7.742919842712581e-05,-0.016868747770786285,-0.0,0.0,0.0,0.0,0.002453061519190669,-0.008029730059206486,-0.00010430465772515163,14096.0,14997.0,15332.0,14345.0,0.4454900026321411,0.507901132106781,0.5320662260055542,0.46235978603363037,0.0,0.0,0.0,0.0,13933.0,15527.0,16057.0,13924.0,1.8223352432250977,0.04728572237319701,-0.16069047818535,0.06098406637681054,0.07407001405954361,-0.00026154209626838565,0.0
