timestamp,dt,pos_x,pos_y,pos_z,vel_x,vel_y,vel_z,roll,pitch,yaw,agv_x,agv_y,agv_z,x_ref,y_ref,z_ref,roll_ref,pitch_ref,yaw_ref,x_vel_ref,y_vel_ref,z_vel_ref,x_torque,y_torque,z_torque,w0,w1,w2,w3,u0,u1,u2,u3,m0req,m1req,m2req,m3req,thrust0,thrust1,thrust2,thrust3,thrust_ref,roll_vicon,pitch_vicon,yaw_vicon,acc_x,acc_y,acc_z
5,5,0.0,0.0,0.0,-0.001653245068155229,-0.0006121621700003743,0.0007770402589812875,-0.01519293524324894,-0.22564749419689178,-0.006053223740309477,-0.004550858400762081,-0.0014454297488555312,0.0016360024455934763,0.0,0.0,0.0,0.0007534836768172681,-0.001565314014442265,-0.0,0.0,0.0,0.0,0.004626899491995573,0.0677797943353653,-0.0005894689820706844,1495.0,1495.0,1495.0,1495.0,0.0,0.0,0.0,0.0,0.0,0.0,0.0,0.0,1495.0,1495.0,1495.0,1495.0,1.643673062324524,-0.009798642243192133,0.23404943135915313,-0.027024415816856936,0.0061996690928936005,0.002295608166605234,0.0
31,26,0.0,0.0,0.0,-0.0006910584634169936,-0.000290622963802889,0.0010696746176108718,-0.01519293524324894,-0.22564749419689178,-0.006053223740309477,-0.004550858400762081,-0.0014454297488555312,0.0016360024455934763,0.0,0.0,0.0,0.0007534836768172681,-0.001565314014442265,-0.0,0.0,0.0,0.0,0.004626899491995573,0.0677797943353653,-0.0005894689820706844,1495.0,1495.0,1495.0,1495.0,0.0,0.0,0.0,0.0,0.0,0.0,0.0,0.0,1495.0,1495.0,1495.0,1495.0,1.643673062324524,-0.010480298796917685,0.23373625762577294,-0.026757775588674662,0.0061996690928936005,0.002295608166605234,0.0
36,5,0.0,0.0,0.0,-0.0019223159179091454,0.0008493270725011826,-0.0019000442698597908,-0.015196816995739937,-0.22563841938972473,-0.006038906052708626,-0.004928429611027241,0.003899807808920741,-0.003608949715271592,0.0,0.0,0.0,0.00035996997030451894,-0.0006584273069165647,-0.0,0.0,0.0,0.0,0.004514298867434263,0.06758981943130493,-0.0005371814477257431,1495.0,1495.0,1495.0,1495.0,0.0,0.0,0.0,0.0,0.0,0.0,0.0,0.0,1495.0,1495.0,1495.0,1495.0,1.6333768367767334,-0.01088910130150869,0.23347965049937394,-0.0269090579997472,0.0025914693251252174,0.0010898361215367913,0.0
41,5,0.0,0.0,0.0,-0.00014095066580921412,-0.0006588347023352981,0.0008725012303330004,-0.015196816995739937,-0.22563841938972473,-0.006038906052708626,-0.004928429611027241,0.003899807808920741,-0.003608949715271592,0.0,0.0,0.0,0.00035996997030451894,-0.0006584273069165647,-0.0,0.0,0.0,0.0,0.004514298867434263,0.06758981943130493,-0.0005371814477257431,1495.0,1495.0,1495.0,1495.0,0.0,0.0,0.0,0.0,0.0,0.0,0.0,0.0,1495.0,1495.0,1495.0,1495.0,1.6333768367767334,-0.010132088978423005,0.2334261667682635,-0.02714286972251303,0.0025914693251252174,0.0010898361215367913,0.0
46,5,0.0,0.0,0.0,0.00040480116149410605,-0.0008945044246502221,0.0018981634639203548,-0.015196816995739937,-0.22563841938972473,-0.006038906052708626,-0.004928429611027241,0.003899807808920741,-0.003608949715271592,0.0,0.0,0.0,0.0008164288010448217,-0.0001343586773145944,-0.0,0.0,0.0,0.0,0.004514298867434263,0.06758981943130493,-0.0005371814477257431,1495.0,1495.0,1495.0,1495.0,0.0,0.0,0.0,0.0,0.0,0.0,0.0,0.0,1495.0,1495.0,1495.0,1495.0,1.6326043605804443,-0.010216819462110139,0.2328980762504165,-0.026664390213938922,0.0005285650258883834,0.002470630221068859,0.0
54,8,0.0,0.0,0.0,0.00040480116149410605,-0.0008945044246502221,0.0018981634639203548,-0.01518249697983265,-0.22563835978507996,-0.006028273142874241,0.005491985008120537,-0.005853773094713688,0.00187668576836586,0.0,0.0,0.0,0.0011063474230468273,0.0003851301735267043,-0.0,0.0,0.0,0.0,0.004514298867434263,0.06758981943130493,-0.0005371814477257431,1495.0,1495.0,1495.0,1495.0,0.0,0.0,0.0,0.0,0.0,0.0,0.0,0.0,1495.0,1495.0,1495.0,1495.0,1.6357383728027344,-0.010216819462110139,0.2328980762504165,-0.026664390213938922,-0.0015180043410509825,0.003354391548782587,0.0
61,7,-2.32900333685393e-06,-6.120161287981318e-06,1.9135370621370384e-06,-0.00011755992454709485,0.0003766175650525838,0.0005296409362927079,-0.01518249697983265,-0.22563835978507996,-0.006028273142874241,0.005491985008120537,-0.005853773094713688,0.00187668576836586,0.0,0.0,0.0,0.0011063474230468273,0.0003851301735267043,-0.0,0.0,0.0,0.0,0.004514298867434263,0.06758981943130493,-0.0005371814477257431,1495.0,1495.0,1495.0,1495.0,0.0,0.0,0.0,0.0,0.0,0.0,0.0,0.0,1495.0,1495.0,1495.0,1495.0,1.6357383728027344,-0.010637233306956057,0.2336178899556883,-0.02694373986378202,-0.0015180043410509825,0.003354391548782587,0.0
67,5,6.448017302318476e-06,-7.627260856679641e-06,-3.550777137206751e-06,0.0008297432214021683,-0.0006678161444142461,0.0014484267449006438,-0.015182278119027615,-0.22562530636787415,-0.006048551294952631,-0.00499327527359128,0.0003021571028511971,-0.0070775835774838924,0.0,0.0,0.0,0.0008117060060612857,0.0007980104419402778,-0.0,0.0,0.0,0.0,0.004591138102114201,0.06765221804380417,-0.0007558626821264625,1495.0,1495.0,1495.0,1495.0,0.0,0.0,0.0,0.0,0.0,0.0,0.0,0.0,1495.0,1495.0,1495.0,1495.0,1.6365894079208374,-0.010365429169296466,0.23348879839193953,-0.027002768180275052,-0.003147023729979992,0.0024623339995741844,0.0
73,6,-7.688805453653913e-06,-2.2719541448168457e-05,4.323835310060531e-05,-0.001364521449431777,0.0015439472626894712,-0.005035324953496456,-0.015182278119027615,-0.22562530636787415,-0.006048551294952631,-0.00499327527359128,0.0003021571028511971,-0.0070775835774838924,0.0,0.0,0.0,0.0008117060060612857,0.0007980104419402778,-0.0,0.0,0.0,0.0,0.004591138102114201,0.06765221804380417,-0.0007558626821264625,1495.0,1495.0,1495.0,1495.0,0.0,0.0,0.0,0.0,0.0,0.0,0.0,0.0,1495.0,1495.0,1495.0,1495.0,1.6365894079208374,-0.010764333022121752,0.23343370726078347,-0.027143791821362735,-0.003147023729979992,0.0024623339995741844,0.0
78,5,1.0089168426929973e-05,-5.082159987068735e-06,2.7750618755817413e-05,0.0015875482931733131,-0.0014989068731665611,-0.00015560189785901457,-0.015182278119027615,-0.22562530636787415,-0.006048551294952631,-0.00499327527359128,0.0003021571028511971,-0.0070775835774838924,0.0,0.0,0.0,0.0018309353617951274,0.0015131584368646145,-0.0,0.0,0.0,0.0,0.004591138102114201,0.06765221804380417,-0.0007558626821264625,1495.0,1495.0,1495.0,1495.0,0.0,0.0,0.0,0.0,0.0,0.0,0.0,0.0,1495.0,1495.0,1495.0,1495.0,1.647996425628662,-0.009407097754249201,0.23328341866040372,-0.02709689284018519,-0.006008854601532221,0.005592904519289732,0.0
83,5,2.736512578849215e-05,-1.754101504047867e-05,2.6344749130657874e-05,0.002708134241402149,0.0008954999502748251,0.00010646357986843213,-0.015198582783341408,-0.22562135756015778,-0.006039693485945463,-0.003495694138109684,-0.0029206653125584126,0.0030692496802657843,0.0,0.0,0.0,0.0018309353617951274,0.0015131584368646145,-0.0,0.0,0.0,0.0,0.004574539605528116,0.06750938296318054,-0.0005674801068380475,1495.0,1495.0,1495.0,1495.0,0.0,0.0,0.0,0.0,0.0,0.0,0.0,0.0,1495.0,1495.0,1495.0,1495.0,1.647996425628662,-0.009926808107957265,0.23282387472150307,-0.027088522246945728,-0.006008854601532221,0.005592904519289732,0.0
88,5,-1.7760516129783355e-05,-1.065527703758562e-05,5.80592995902407e-06,-0.004331823438405991,-0.00046808860497549176,0.0025072437711060047,-0.015198582783341408,-0.22562135756015778,-0.006039693485945463,-0.003495694138109684,-0.0029206653125584126,0.0030692496802657843,0.0,0.0,0.0,0.0018309353617951274,0.0015131584368646145,-0.0,0.0,0.0,0.0,0.004574539605528116,0.06750938296318054,-0.0005674801068380475,1495.0,1495.0,1495.0,1495.0,0.0,0.0,0.0,0.0,0.0,0.0,0.0,0.0,1495.0,1495.0,1495.0,1495.0,1.647996425628662,-0.010442625375406207,0.23388492162659028,-0.026904394256067273,-0.006008854601532221,0.005592904519289732,0.0
93,5,4.176848506176611e-06,-3.140554781566607e-06,1.2081597560609225e-05,0.0008997544064186513,-0.0010890021221712232,0.00024981735623441637,-0.015203264541924,-0.22562938928604126,-0.006059130188077688,0.0028871893882751465,-0.0062704309821128845,-0.004042260814458132,0.0,0.0,0.0,0.0005480542895384133,-0.0040606539696455,-0.0,0.0,0.0,0.0,0.004725676029920578,0.06727617233991623,-0.0007137740612961352,1495.0,1495.0,1495.0,1495.0,0.0,0.0,0.0,0.0,0.0,0.0,0.0,0.0,1495.0,1495.0,1495.0,1495.0,1.6701644659042358,-0.01069573577589751,0.23294043296082032,-0.02639732822881475,0.016342025250196457,0.0016966464463621378,-0.0
98,5,1.1893607734236866e-05,3.885083970089909e-06,-1.1061829354730435e-05,0.001285912818275392,-0.0012786774896085262,0.0028771383222192526,-0.015203264541924,-0.22562938928604126,-0.006059130188077688,0.0028871893882751465,-0.0062704309821128845,-0.004042260814458132,0.0,0.0,0.0,0.0005480542895384133,-0.0040606539696455,-0.0,0.0,0.0,0.0,0.004725676029920578,0.06727617233991623,-0.0007137740612961352,1495.0,1495.0,1495.0,1495.0,0.0,0.0,0.0,0.0,0.0,0.0,0.0,0.0,1495.0,1495.0,1495.0,1495.0,1.6701644659042358,-0.011275990117219265,0.23290065702887586,-0.026456820895107706,0.016342025250196457,0.0016966464463621378,-0.0
103,5,-3.3407684441044694e-06,6.881934496050235e-06,9.757955922395922e-06,-0.001313759945333004,-0.0008710930706001818,-0.0013475188752636313,-0.015164176933467388,-0.22564086318016052,-0.006106949411332607,0.0009649338317103684,-0.0032811348792165518,-6.561693589901552e-05,0.0,0.0,0.0,0.0015802070265635848,0.001233535585924983,-0.0,0.0,0.0,0.0,0.004750149790197611,0.06721393764019012,-0.0006292312755249441,1495.0,1495.0,1495.0,1495.0,0.0,0.0,0.0,0.0,0.0,0.0,0.0,0.0,1495.0,1495.0,1495.0,1495.0,1.644352674484253,-0.011113538247741887,0.23317642134895541,-0.02637317257512931,-0.0048876251094043255,0.004816340282559395,0.0
108,5,5.810483798995847e-06,-1.4776858279219596e-06,1.900827555800788e-06,0.0005726462695747614,0.0006547172088176012,0.00040384777821600437,-0.015164176933467388,-0.22564086318016052,-0.006106949411332607,0.0009649338317103684,-0.0032811348792165518,-6.561693589901552e-05,0.0,0.0,0.0,-0.0008130061323754489,0.0005533017683774233,-0.0,0.0,0.0,0.0,0.004750149790197611,0.06721393764019012,-0.0006292312755249441,1495.0,1495.0,1495.0,1495.0,0.0,0.0,0.0,0.0,0.0,0.0,0.0,0.0,1495.0,1495.0,1495.0,1495.0,1.6346731185913086,-0.010532786099088106,0.23369840875567005,-0.026812567261982535,-0.0021794389467686415,-0.0024633901193737984,-0.0
113,5,-7.1024887802195735e-06,-1.83637639565859e-05,-1.479519710301247e-06,-0.0013204981805756688,0.002288216259330511,0.0005671808030456305,-0.015164176933467388,-0.22564086318016052,-0.006106949411332607,0.0009649338317103684,-0.0032811348792165518,-6.561693589901552e-05,0.0,0.0,0.0,-0.0008130061323754489,0.0005533017683774233,-0.0,0.0,0.0,0.0,0.004750149790197611,0.06721393764019012,-0.0006292312755249441,1495.0,1495.0,1495.0,1495.0,0.0,0.0,0.0,0.0,0.0,0.0,0.0,0.0,1495.0,1495.0,1495.0,1495.0,1.6346731185913086,-0.009978093985760139,0.23399765871332345,-0.027460291950717898,-0.0021794389467686415,-0.0024633901193737984,-0.0
118,5,8.544896445528138e-06,-1.1338727745169308e-05,-2.278273768752115e-06,0.0013494869926944375,7.228217145893723e-05,0.0003227228007744998,-0.015169862657785416,-0.22562500834465027,-0.006090600974857807,-3.099649620708078e-05,-0.0030398634262382984,0.00024267729895655066,0.0,0.0,0.0,-0.0008130061323754489,0.0005533017683774233,-0.0,0.0,0.0,0.0,0.004676923155784607,0.06748290359973907,-0.0005402598180808127,17240.0,6966.0,7346.0,18046.0,0.6808456778526306,0.09560303390026093,0.10780900716781616,0.7491191029548645,0.0,0.0,0.0,0.0,1495.0,1495.0,1495.0,1495.0,1.6346731185913086,-0.010758348255104244,0.23327165531540045,-0.026839272318314015,-0.0021794389467686415,-0.0024633901193737984,-0.0
123,5,1.5235686987580266e-05,8.27786061563529e-06,-1.570137101225555e-05,0.0013426896184682846,-0.002325077774003148,0.0017398608615621924,-0.015169862657785416,-0.22562500834465027,-0.006090600974857807,-3.099649620708078e-05,-0.0030398634262382984,0.00024267729895655066,0.0,0.0,0.0,-0.00010974519682349637,0.00129277806263417,-0.0,0.0,0.0,0.0,0.004676923155784607,0.06748290359973907,-0.0005402598180808127,17240.0,6966.0,7346.0,18046.0,0.6808456778526306,0.09560303390026093,0.10780900716781616,0.7491191029548645,0.0,0.0,0.0,0.0,1495.0,1495.0,1495.0,1495.0,1.6396316289901733,-0.009666177854705853,0.23337664568382474,-0.02697635491624873,-0.00510766077786684,-0.0003335341752972454,0.0
128,5,1.2561436960822903e-05,-1.0325079529138748e-05,1.7634834875934757e-05,0.00021616584854200482,0.0013023216743022203,-0.0033044004812836647,-0.015190058387815952,-0.2255782186985016,-0.0060984850861132145,0.0008713600691407919,-0.009573334828019142,0.0008254541899077594,0.0,0.0,0.0,-0.0016259256517514586,0.0002227298537036404,-0.0,0.0,0.0,0.0,0.0046587148681283,0.06742444634437561,-0.0005602111341431737,17225.0,7007.0,7370.0,18037.0,0.6795626878738403,0.09688609838485718,0.10859319567680359,0.7483348250389099,0.0,0.0,0.0,0.0,17216.0,7034.0,7288.0,18067.0,1.6393611431121826,-0.010428105124878913,0.23308707991954628,-0.02674705042776996,-0.0008798413909971714,-0.0049406434409320354,0.0
133,5,9.796884114621207e-06,4.623222594091203e-06,2.1808156816405244e-05,-0.0002452800399623811,-0.0012728675501421094,-0.0018225588137283921,-0.015190058387815952,-0.2255782186985016,-0.0060984850861132145,0.0008713600691407919,-0.009573334828019142,0.0008254541899077594,0.0,0.0,0.0,-0.0016259256517514586,0.0002227298537036404,-0.0,0.0,0.0,0.0,0.0046587148681283,0.06742444634437561,-0.0005602111341431737,17225.0,7007.0,7370.0,18037.0,0.6795626878738403,0.09688609838485718,0.10859319567680359,0.7483348250389099,0.0,0.0,0.0,0.0,17216.0,7034.0,7288.0,18067.0,1.6393611431121826,-0.01023948840883489,0.23347333707575052,-0.026768180235704354,-0.0008798413909971714,-0.0049406434409320354,0.0
139,5,-2.5254296360799344e-06,-1.0501034921617247e-05,3.482800821075216e-05,-0.0015767896547913551,0.0013057638425379992,-0.0022914058063179255,-0.015189256519079208,-0.22554562985897064,-0.006091129966080189,-0.0010505637619644403,-0.004981883801519871,0.00048793910536915064,0.0,0.0,0.0,-0.0016259256517514586,0.0002227298537036404,-0.0,0.0,0.0,0.0,0.004861094057559967,0.0679621547460556,-0.00054841028759256,17279.0,6859.0,7346.0,18084.0,0.6840845942497253,0.09227775037288666,0.10781843960285187,0.7524085640907288,0.0,0.0,0.0,0.0,17243.0,6928.0,7339.0,18087.0,1.6393611431121826,-0.010549770082680812,0.23292233497593914,-0.02688854448936017,-0.0008798413909971714,-0.0049406434409320354,0.0
144,5,-1.7811255020205863e-05,-2.5623357942095026e-05,-8.518506547261495e-06,-0.002465014811605215,0.0023369842674583197,0.00428501982241869,-0.015189256519079208,-0.22554562985897064,-0.006091129966080189,-0.0010505637619644403,-0.004981883801519871,0.00048793910536915064,0.0,0.0,0.0,-0.0016232500784099102,-0.0014936634106561542,-0.0,0.0,0.0,0.0,0.004861094057559967,0.0679621547460556,-0.00054841028759256,17279.0,6859.0,7346.0,18084.0,0.6840845942497253,0.09227775037288666,0.10781843960285187,0.7524085640907288,0.0,0.0,0.0,0.0,17243.0,6928.0,7339.0,18087.0,1.6466871500015259,-0.011434506247394904,0.23409645019149347,-0.026942727325835854,0.005926728248596191,-0.004954556003212929,0.0
149,5,-9.100304851017427e-06,-2.164260695280973e-05,-4.6879884507688985e-07,5.9308080381015316e-05,0.00045710368431173265,0.0007480428903363645,-0.015197030268609524,-0.22551988065242767,-0.006077238358557224,0.0011007430730387568,-0.00015765563875902444,-0.0026634829118847847,0.0,0.0,0.0,-0.0016232500784099102,-0.0014936634106561542,-0.0,0.0,0.0,0.0,0.00480254553258419,0.06809315830469131,-0.0007148482836782932,17267.0,7007.0,7290.0,18195.0,0.683051586151123,0.0968770682811737,0.1059592068195343,0.7621086239814758,0.0,0.0,0.0,0.0,17288.0,6842.0,7358.0,18077.0,1.6466871500015259,-0.010568052733958236,0.23359518169670299,-0.027176888389608148,0.005926728248596191,-0.004954556003212929,0.0
154,5,-1.5162935596890748e-05,-2.451561340421904e-05,3.2586885936325416e-05,-0.000703792495187372,0.0005276021547615528,-0.00366746517829597,-0.015197030268609524,-0.22551988065242767,-0.006077238358557224,0.0011007430730387568,-0.00015765563875902444,-0.0026634829118847847,0.0,0.0,0.0,-0.0006065559573471546,4.3884523620363325e-05,-0.0,0.0,0.0,0.0,0.00480254553258419,0.06809315830469131,-0.0007148482836782932,17267.0,7007.0,7290.0,18195.0,0.683051586151123,0.0968770682811737,0.1059592068195343,0.7621086239814758,0.0,0.0,0.0,0.0,17288.0,6842.0,7358.0,18077.0,1.6307451725006104,-0.011071901401420217,0.23279962423703676,-0.02712643590443839,-0.00017244448827113956,-0.0018334347987547517,0.0
159,5,2.274476074148879e-08,-7.82087863626657e-06,-1.1416230336180888e-05,0.0015407647006213665,-0.001792327268049121,0.0038133880589157343,-0.015210645273327827,-0.2254801243543625,-0.0060740322805941105,-0.000930114125367254,-0.00884188897907734,0.0062058111652731895,0.0,0.0,0.0,-0.0006065559573471546,4.3884523620363325e-05,-0.0,0.0,0.0,0.0,0.005145235452800989,0.06814659386873245,-0.0005272035486996174,17319.0,7312.0,7828.0,18076.0,0.6873951554298401,0.10667634010314941,0.12435522675514221,0.7517377734184265,0.0,0.0,0.0,0.0,17281.0,6967.0,7362.0,18169.0,1.6307451725006104,-0.009973582484700818,0.23372198864018712,-0.027218620041689012,-0.00017244448827113956,-0.0018334347987547517,0.0
164,5,2.478392889315728e-05,3.7637288187397644e-05,-5.100776252220385e-05,0.003587647806853056,-0.006171911023557186,0.006276339292526245,-0.015210645273327827,-0.2254801243543625,-0.0060740322805941105,-0.000930114125367254,-0.00884188897907734,0.0062058111652731895,0.0,0.0,0.0,0.002183908596634865,0.0014535635709762573,-0.0,0.0,0.0,0.0,0.005145235452800989,0.06814659386873245,-0.0005272035486996174,17319.0,7312.0,7828.0,18076.0,0.6873951554298401,0.10667634010314941,0.12435522675514221,0.7517377734184265,0.0,0.0,0.0,0.0,17281.0,6967.0,7362.0,18169.0,1.6496775150299072,-0.00705678572346822,0.23507842802349033,-0.026598127197552165,-0.005778083577752113,0.006677923258394003,0.0
169,5,-6.790879706386477e-05,0.0001588671002537012,6.480349111370742e-05,-0.009688067249953747,-0.017016341909766197,-0.011386815458536148,-0.015202874317765236,-0.22544696927070618,-0.006067350041121244,0.0010585840791463852,-0.000962368561886251,0.0024225253146141768,0.0,0.0,0.0,0.002183908596634865,0.0014535635709762573,-0.0,0.0,0.0,0.0,0.004727469291538,0.06668547540903091,-0.0006158872856758535,17302.0,7364.0,7720.0,18117.0,0.6859158873558044,0.10840491950511932,0.12055505067110062,0.7552886009216309,0.0,0.0,0.0,0.0,17290.0,7386.0,7774.0,18098.0,1.6496775150299072,0.0005754408532633492,0.23972547598851066,-0.02561253075360061,-0.005778083577752113,0.006677923258394003,0.0
174,5,-0.00015566832735203207,0.0001363957126159221,1.4786587598791812e-05,-0.013447456993162632,0.00018707032722886652,0.003814962925389409,-0.015202874317765236,-0.22544696927070618,-0.006067350041121244,0.0010585840791463852,-0.000962368561886251,0.0024225253146141768,0.0,0.0,0.0,0.01914246194064617,-0.00835597887635231,-0.0,0.0,0.0,0.0,0.004727469291538,0.06668547540903091,-0.0006158872856758535,17302.0,7364.0,7720.0,18117.0,0.6859158873558044,0.10840491950511932,0.12055505067110062,0.7552886009216309,0.0,0.0,0.0,0.0,17290.0,7386.0,7774.0,18098.0,1.8232555389404297,0.0028641230804464647,0.24641699035310205,-0.027816906115701468,0.03670389577746391,0.06468531489372253,0.0
179,5,-0.00013792217941954732,0.00012064981274306774,4.153735426370986e-05,-0.003249446162953973,0.0019643367268145084,-0.0016841070028021932,-0.015214243903756142,-0.22542989253997803,-0.006067218258976936,-0.0005969730555079877,-0.0017174978274852037,-0.0006558935856446624,0.0,0.0,0.0,0.01914246194064617,-0.00835597887635231,-0.0,0.0,0.0,0.0,0.0050565870478749275,0.06825300306081772,-0.0006164417718537152,17278.0,6934.0,7318.0,18159.0,0.6839314103126526,0.09459514915943146,0.10689790546894073,0.7589282393455505,0.0,0.0,0.0,0.0,17286.0,6954.0,7196.0,18078.0,1.8232555389404297,0.0005842938143316045,0.24404504282586426,-0.026801325469681045,0.03670389577746391,0.06468531489372253,0.0
184,5,-6.012108497088775e-05,0.0001443575310986489,7.266872853506356e-05,0.008036353625357151,-0.0020591916982084513,-0.004409407265484333,-0.015214243903756142,-0.22542989253997803,-0.006067218258976936,-0.0005969730555079877,-0.0017174978274852037,-0.0006558935856446624,0.0,0.0,0.0,-0.002171378815546632,-0.0032261048909276724,-0.0,0.0,0.0,0.0,0.0050565870478749275,0.06825300306081772,-0.0006164417718537152,17278.0,6934.0,7318.0,18159.0,0.6839314103126526,0.09459514915943146,0.10689790546894073,0.7589282393455505,0.0,0.0,0.0,0.0,17286.0,6954.0,7196.0,18078.0,1.665178656578064,0.001241051715629789,0.23976657782872376,-0.025543233913612965,0.01294462475925684,-0.006701999343931675,0.0
190,5,-0.00011249069939367473,8.929725299822167e-05,0.00011014880874427035,-0.0030698124319314957,0.0057835569605231285,-0.006261372473090887,-0.015219049528241158,-0.22542084753513336,-0.006067893002182245,0.0001621172996237874,-0.00761791318655014,0.00042245324584655464,0.0,0.0,0.0,-0.002171378815546632,-0.0032261048909276724,-0.0,0.0,0.0,0.0,0.004565247800201178,0.06840928643941879,-0.0006432218942791224,17297.0,6949.0,7206.0,18123.0,0.685565710067749,0.09505228698253632,0.10321205854415894,0.7558016180992126,0.0,0.0,0.0,0.0,17286.0,6981.0,7215.0,18119.0,1.665178656578064,-0.001018158596514764,0.23992281288289427,-0.027531237037680983,0.01294462475925684,-0.006701999343931675,0.0
195,5,-0.0001592400367371738,0.00012088004586985335,-2.2222659481485607e-06,-0.006837845779955387,-0.0014765119412913918,0.010979979299008846,-0.015219049528241158,-0.22542084753513336,-0.006067893002182245,0.0001621172996237874,-0.00761791318655014,0.00042245324584655464,0.0,0.0,0.0,-0.006760084070265293,-0.0029762571211904287,-0.0,0.0,0.0,0.0,0.004565247800201178,0.06840928643941879,-0.0006432218942791224,17297.0,6949.0,7206.0,18123.0,0.685565710067749,0.09505228698253632,0.10321205854415894,0.7558016180992126,0.0,0.0,0.0,0.0,17286.0,6981.0,7215.0,18119.0,1.691622257232666,0.0014804610403354888,0.24579944692905045,-0.02756142134231986,0.012131518684327602,-0.02119620144367218,0.0
200,5,-4.0852075471775606e-05,0.00016722574946470559,1.565024649607949e-05,0.011471417732536793,-0.00615208875387907,0.0022472902201116085,-0.015226488932967186,-0.22543929517269135,-0.006058709230273962,-0.00190201704390347,-3.082759212702513e-05,0.0009150114492513239,0.0,0.0,0.0,-0.006760084070265293,-0.0029762571211904287,-0.0,0.0,0.0,0.0,0.004153530113399029,0.06825803220272064,-0.0005163782043382525,17332.0,6962.0,7232.0,18072.0,0.6884708404541016,0.09547539800405502,0.1040748581290245,0.7513400316238403,0.0,0.0,0.0,0.0,17306.0,7052.0,7201.0,18076.0,1.691622257232666,0.0019203923939861058,0.24025323652798838,-0.02587980151392478,0.012131518684327602,-0.02119620144367218,0.0
205,5,-4.6685767301823944e-05,0.00011815753532573581,5.292864079819992e-05,0.0038885239046067,0.0034273492638021708,-0.003574491012841463,-0.015226488932967186,-0.22543929517269135,-0.006058709230273962,-0.00190201704390347,-3.082759212702513e-05,0.0009150114492513239,0.0,0.0,0.0,0.007366822101175785,0.010107663460075855,-0.0,0.0,0.0,0.0,0.004153530113399029,0.06825803220272064,-0.0005163782043382525,17332.0,6962.0,7232.0,18072.0,0.6884708404541016,0.09547539800405502,0.1040748581290245,0.7513400316238403,0.0,0.0,0.0,0.0,17306.0,7052.0,7201.0,18076.0,1.7570281028747559,0.0011222348908377566,0.24082644998833283,-0.026600533017092743,-0.04279196262359619,0.02399166114628315,-0.0
210,5,-1.4299973372544628e-05,0.0001479204511269927,1.321792933595134e-05,0.005441704764962196,-0.002200609538704157,0.003335488960146904,-0.015226488932967186,-0.22543929517269135,-0.006058709230273962,-0.00190201704390347,-3.082759212702513e-05,0.0009150114492513239,0.0,0.0,0.0,0.007366822101175785,0.010107663460075855,-0.0,0.0,0.0,0.0,0.004153530113399029,0.06825803220272064,-0.0005163782043382525,17332.0,6962.0,7232.0,18072.0,0.6884708404541016,0.09547539800405502,0.1040748581290245,0.7513400316238403,0.0,0.0,0.0,0.0,17306.0,7052.0,7201.0,18076.0,1.7570281028747559,0.0023093925779485882,0.2404136071360961,-0.026118935052815866,-0.04279196262359619,0.02399166114628315,-0.0
215,5,-7.355646084761247e-05,8.233513653976843e-05,4.4499702198663726e-05,-0.004934096708893776,0.006989993155002594,-0.0024196170270442963,-0.015151205472648144,-0.22551284730434418,-0.00629426958039403,0.014935622923076153,0.022987158969044685,-0.05589103326201439,0.0,0.0,0.0,0.0029019678477197886,0.005003866273909807,-0.0,0.0,0.0,0.0,0.003933375235646963,0.06817880272865295,-0.001976539846509695,16885.0,8196.0,5871.0,18542.0,0.6517584323883057,0.13774485886096954,0.06444293260574341,0.7927408814430237,0.0,0.0,0.0,0.0,17369.0,7028.0,7258.0,18087.0,1.68581223487854,-0.0014516596376418199,0.24110442164536092,-0.026935676622143082,-0.0203265268355608,0.009067952632904053,-0.0
220,5,-1.511252048658207e-05,-5.639738083118573e-05,0.00016241137927863747,0.005039634183049202,0.019443899393081665,-0.015117248520255089,-0.015151205472648144,-0.22551284730434418,-0.00629426958039403,0.014935622923076153,0.022987158969044685,-0.05589103326201439,0.0,0.0,0.0,0.0029019678477197886,0.005003866273909807,-0.0,0.0,0.0,0.0,0.003933375235646963,0.06817880272865295,-0.001976539846509695,16885.0,8196.0,5871.0,18542.0,0.6517584323883057,0.13774485886096954,0.06444293260574341,0.7927408814430237,0.0,0.0,0.0,0.0,17369.0,7028.0,7258.0,18087.0,1.68581223487854,-0.012137031547645718,0.23193555983764208,-0.02854534764516073,-0.0203265268355608,0.009067952632904053,-0.0
225,5,-2.249287899758201e-05,9.194475569529459e-05,0.00015775671636220068,0.0011302108177915215,-0.01002349704504013,-0.005488338880240917,-0.014992499724030495,-0.2256542295217514,-0.0057119345292449,0.005802382715046406,0.021485619246959686,-0.02988496609032154,0.0,0.0,0.0,-0.021631499752402306,0.004275869578123093,-0.0,0.0,0.0,0.0,0.004687302280217409,0.0699329599738121,-0.001488362904638052,17584.0,6014.0,7874.0,17790.0,0.7095617651939392,0.06815911084413528,0.125982865691185,0.727041482925415,0.0,0.0,0.0,0.0,16355.0,9021.0,2889.0,19072.0,1.8264729976654053,0.0004940010205071653,0.23696884461617249,-0.027718825217244652,-0.018814239650964737,-0.07322289794683456,0.0
230,5,-2.9253917091409676e-05,0.00014290028775576502,0.00013481774658430368,-0.00035924030817113817,-0.010124062187969685,0.0005573396338149905,-0.014992499724030495,-0.2256542295217514,-0.0057119345292449,0.005802382715046406,0.021485619246959686,-0.02988496609032154,0.0,0.0,0.0,-0.021631499752402306,0.004275869578123093,-0.0,0.0,0.0,0.0,0.004687302280217409,0.0699329599738121,-0.001488362904638052,17584.0,6014.0,7874.0,17790.0,0.7095617651939392,0.06815911084413528,0.125982865691185,0.727041482925415,0.0,0.0,0.0,0.0,16355.0,9021.0,2889.0,19072.0,1.8264729976654053,0.0021211172972027993,0.2377739033998209,-0.02601648735028822,-0.018814239650964737,-0.07322289794683456,0.0
235,5,-6.438114360207692e-05,0.0001376331056235358,0.00022838579025119543,-0.00435896310955286,-0.003417563857510686,-0.011005228385329247,-0.014958804473280907,-0.22602735459804535,-0.006508882623165846,0.038638778030872345,0.01376133132725954,0.06264436990022659,0.0,0.0,0.0,0.012086470611393452,-0.00036213171551935375,-0.0,0.0,0.0,0.0,0.009922914206981659,0.06800374388694763,-0.002256054664030671,16606.0,9643.0,6966.0,19718.0,0.6293589472770691,0.19705262780189514,0.09560149163007736,0.9012424349784851,0.0,0.0,0.0,0.0,18361.0,2444.0,9533.0,17169.0,1.7299084663391113,0.0025444867120102198,0.236139423509677,-0.026993290338754732,0.0015094191767275333,0.03875359147787094,-0.0
240,5,-0.0002235808060504496,9.09312948351726e-05,0.0005717471358366311,-0.020847544074058533,0.004237192217260599,-0.045605454593896866,-0.014958804473280907,-0.22602735459804535,-0.006508882623165846,0.038638778030872345,0.01376133132725954,0.06264436990022659,0.0,0.0,0.0,0.012086470611393452,-0.00036213171551935375,-0.0,0.0,0.0,0.0,0.009922914206981659,0.06800374388694763,-0.002256054664030671,16606.0,9643.0,6966.0,19718.0,0.6293589472770691,0.19705262780189514,0.09560149163007736,0.9012424349784851,0.0,0.0,0.0,0.0,18361.0,2444.0,9533.0,17169.0,1.7299084663391113,-0.0028300166095946476,0.23036380004987447,-0.02753607853709709,0.0015094191767275333,0.03875359147787094,-0.0
245,5,-0.0002263692585984245,0.00015007365436758846,0.0005354941240511835,-0.008673632517457008,-0.005402206443250179,-0.013891816139221191,-0.014552973210811615,-0.22672829031944275,-0.006378124468028545,0.024101441726088524,0.016231626272201538,0.10728975385427475,0.0,0.0,0.0,-0.00451158732175827,-0.01791198179125786,-0.0,0.0,0.0,0.0,0.0032562646083533764,0.06814619153738022,0.0020080776885151863,18276.0,4545.0,9203.0,17270.0,0.7692208290100098,0.03476899862289429,0.17791150510311127,0.6832773685455322,0.0,0.0,0.0,0.0,16069.0,10508.0,5565.0,20137.0,1.8399585485458374,9.50667667134111e-06,0.22634405641801514,-0.025700548714976783,0.0794101357460022,-0.01538662239909172,0.0
250,5,-0.00036721196374855936,4.10278225899674e-05,0.0007674785447306931,-0.02037057653069496,0.010924617759883404,-0.03339485824108124,-0.014552973210811615,-0.22672829031944275,-0.006378124468028545,0.024101441726088524,0.016231626272201538,0.10728975385427475,0.0,0.0,0.0,-0.00451158732175827,-0.01791198179125786,-0.0,0.0,0.0,0.0,0.0032562646083533764,0.06814619153738022,0.0020080776885151863,18276.0,4545.0,9203.0,17270.0,0.7692208290100098,0.03476899862289429,0.17791150510311127,0.6832773685455322,0.0,0.0,0.0,0.0,16069.0,10508.0,5565.0,20137.0,1.8399585485458374,-0.0056691335487253965,0.21871691880034033,-0.02749070594548008,0.0794101357460022,-0.01538662239909172,0.0
255,5,-0.0006064118351787329,7.620493124704808e-05,0.0012062526075169444,-0.036852218210697174,0.00014859448128845543,-0.06601083278656006,-0.014284903183579445,-0.2271426022052765,-0.006967280060052872,0.028782080858945847,0.02599933184683323,-0.024547524750232697,0.0,0.0,0.0,-0.011821812950074673,-0.017504651099443436,-0.0,0.0,0.0,0.0,0.0017635406693443656,0.06923483312129974,-0.003874438814818859,17001.0,8975.0,5284.0,18754.0,0.6612161993980408,0.16836997866630554,0.05021042376756668,0.811825692653656,0.0,0.0,0.0,0.0,17669.0,6635.0,7853.0,17913.0,1.8592334985733032,5.559315719147528e-05,0.21097037622057496,-0.02840404814586436,0.07841276377439499,-0.040738794952631,0.0
260,5,-0.0007043000077828765,0.00010483073856448755,0.0013497285544872284,-0.02648746594786644,-0.0033756596967577934,-0.043621450662612915,-0.014284903183579445,-0.2271426022052765,-0.006967280060052872,0.028782080858945847,0.02599933184683323,-0.024547524750232697,0.0,0.0,0.0,-0.011821812950074673,-0.017504651099443436,-0.0,0.0,0.0,0.0,0.0017635406693443656,0.06923483312129974,-0.003874438814818859,17001.0,8975.0,5284.0,18754.0,0.6612161993980408,0.16836997866630554,0.05021042376756668,0.811825692653656,0.0,0.0,0.0,0.0,17669.0,6635.0,7853.0,17913.0,1.8592334985733032,0.0015536172818390217,0.20054412428880483,-0.027063863504860456,0.07841276377439499,-0.040738794952631,0.0
266,5,-0.0009159083710983396,-0.0001978925138246268,0.00172381941229105,-0.03598799183964729,0.034976527094841,-0.06233947351574898,-0.014004649594426155,-0.2269439995288849,-0.006730274762958288,0.024403782561421394,-0.03990962728857994,-0.08646081387996674,0.0,0.0,0.0,0.0037606076803058386,-0.022554045543074608,-0.0,0.0,0.0,0.0,0.0062065706588327885,0.07051621377468109,-0.0014072320191189647,17217.0,8425.0,6786.0,19081.0,0.6788963675498962,0.14643818140029907,0.0900641679763794,0.8416294455528259,0.0,0.0,0.0,0.0,18030.0,6487.0,8373.0,17686.0,1.8992189168930054,-0.017876609515848494,0.1787371224561259,-0.029950686614200174,0.1032075509428978,0.013238529674708843,0.0
271,5,-0.001238019671291113,-0.0002897766826208681,0.0021698575001209974,-0.053048547357320786,0.02501671016216278,-0.07846037298440933,-0.014004649594426155,-0.2269439995288849,-0.006730274762958288,0.024403782561421394,-0.03990962728857994,-0.08646081387996674,0.0,0.0,0.0,0.0037606076803058386,-0.022554045543074608,-0.0,0.0,0.0,0.0,0.0062065706588327885,0.07051621377468109,-0.0014072320191189647,17217.0,8425.0,6786.0,19081.0,0.6788963675498962,0.14643818140029907,0.0900641679763794,0.8416294455528259,0.0,0.0,0.0,0.0,18030.0,6487.0,8373.0,17686.0,1.8992189168930054,-0.020644017139540977,0.16526354370738294,-0.03139353219828375,0.1032075509428978,0.013238529674708843,0.0
276,5,-0.0014875640626996756,-0.00029018547502346337,0.002473063301295042,-0.05116474628448486,0.010055739432573318,-0.06776882708072662,-0.014709239825606346,-0.22525325417518616,-0.006630625110119581,-0.0499567836523056,-0.24779032170772552,0.11855597048997879,0.0,0.0,0.0,-0.02342330664396286,-0.03887196257710457,-0.0,0.0,0.0,0.0,0.0064262584783136845,0.06440868228673935,0.0015911618247628212,17922.0,5345.0,9988.0,17267.0,0.7383922338485718,0.05161946266889572,0.21276113390922546,0.6830393671989441,0.0,0.0,0.0,0.0,16772.0,9205.0,5782.0,19432.0,2.1977736949920654,-0.021366302004030415,0.15145476279968906,-0.03124140788388818,0.20575140416622162,-0.09540421515703201,0.0
281,5,-0.0017957165837287903,-0.00031792474328540266,0.002850946504622698,-0.05744420364499092,0.0073510101065039635,-0.07245352119207382,-0.014709239825606346,-0.22525325417518616,-0.006630625110119581,-0.0499567836523056,-0.24779032170772552,0.11855597048997879,0.0,0.0,0.0,-0.02342330664396286,-0.03887196257710457,-0.0,0.0,0.0,0.0,0.0064262584783136845,0.06440868228673935,0.0015911618247628212,17922.0,5345.0,9988.0,17267.0,0.7383922338485718,0.05161946266889572,0.21276113390922546,0.6830393671989441,0.0,0.0,0.0,0.0,16772.0,9205.0,5782.0,19432.0,2.1977736949920654,-0.019996921205440926,0.1372643119748881,-0.031373200988497774,0.20575140416622162,-0.09540421515703201,0.0
286,5,-0.002060050843283534,-0.00038692078669555485,0.003200354753062129,-0.054697781801223755,0.011219927109777927,-0.07091040164232254,-0.014566337689757347,-0.22146637737751007,-0.0071113319136202335,0.05242755636572838,-0.752917468547821,-0.0585942380130291,0.0,0.0,0.0,-0.007193516939878464,-0.04254414141178131,-0.0,0.0,0.0,0.0,-0.0025986735709011555,0.050364188849925995,-0.0032269263174384832,16442.0,12054.0,8646.0,17891.0,0.6164246797561646,0.31922993063926697,0.15509435534477234,0.7357239723205566,0.0,0.0,0.0,0.0,16842.0,11526.0,10811.0,16684.0,2.1985108852386475,-0.020567245134968583,0.12128483709751448,-0.03216757947121206,0.22530873119831085,-0.029313765466213226,0.0
291,5,-0.002330829855054617,-0.00040519770118407905,0.003507622517645359,-0.05437260493636131,0.006681201048195362,-0.06523628532886505,-0.014566337689757347,-0.22146637737751007,-0.0071113319136202335,0.05242755636572838,-0.752917468547821,-0.0585942380130291,0.0,0.0,0.0,-0.007193516939878464,-0.04254414141178131,-0.0,0.0,0.0,0.0,-0.0025986735709011555,0.050364188849925995,-0.0032269263174384832,16442.0,12054.0,8646.0,17891.0,0.6164246797561646,0.31922993063926697,0.15509435534477234,0.7357239723205566,0.0,0.0,0.0,0.0,16842.0,11526.0,10811.0,16684.0,2.1985108852386475,-0.017154679365423944,0.1092164702275711,-0.03244396722647258,0.22530873119831085,-0.029313765466213226,0.0
296,5,-0.002537114080041647,-0.0004421127669047564,0.0036998719442635775,-0.046503160148859024,0.007102287374436855,-0.04916444420814514,-0.013650923036038876,-0.20788274705410004,-0.0066281333565711975,0.09401164948940277,-1.4524744749069214,-0.034019261598587036,0.0,0.0,0.0,-0.006757962517440319,-0.04130888357758522,-0.0,0.0,0.0,0.0,0.006735785398632288,0.025599045678973198,0.0002527646138332784,14815.0,11920.0,12384.0,16039.0,0.49493664503097534,0.31166258454322815,0.338246613740921,0.585062563419342,0.0,0.0,0.0,0.0,16842.0,11526.0,10811.0,16684.0,2.1781117916107178,-0.016795016705659197,0.09778002265803513,-0.03265662330065524,0.21674151718616486,-0.027283400297164917,0.0
301,5,-0.0026902914978563786,-0.00048706665984354913,0.003824282204732299,-0.03698253259062767,0.008235384710133076,-0.034595001488924026,-0.013650923036038876,-0.20788274705410004,-0.0066281333565711975,0.09401164948940277,-1.4524744749069214,-0.034019261598587036,0.0,0.0,0.0,-0.006757962517440319,-0.04130888357758522,-0.0,0.0,0.0,0.0,0.006735785398632288,0.025599045678973198,0.0002527646138332784,14815.0,11920.0,12384.0,16039.0,0.49493664503097534,0.31166258454322815,0.338246613740921,0.585062563419342,0.0,0.0,0.0,0.0,16842.0,11526.0,10811.0,16684.0,2.1781117916107178,-0.017226628828105432,0.08782101947113886,-0.03315896013988007,0.21674151718616486,-0.027283400297164917,0.0
306,5,-0.0027719063218683004,-0.0005370097933337092,0.003965573851019144,-0.024586809799075127,0.009287326596677303,-0.030793003737926483,-0.012326506897807121,-0.1926257610321045,-0.006717708893120289,0.2027377337217331,-2.3094959259033203,0.03633890673518181,0.0,0.0,0.0,-0.008913515135645866,-0.031366556882858276,-0.0,0.0,0.0,0.0,-0.0026938922237604856,-0.03483596444129944,-0.002264239126816392,13335.0,15248.0,15080.0,13464.0,0.39598557353019714,0.5259501934051514,0.5138100385665894,0.40421274304389954,0.0,0.0,0.0,0.0,13111.0,15495.0,15959.0,12328.0,2.031519889831543,-0.018353017821536775,0.08047240664814324,-0.03314497069566033,0.15351518988609314,-0.03356357291340828,0.0
311,5,-0.002782355295494199,-0.0005778746563009918,0.004128250293433666,-0.011088588275015354,0.008618716150522232,-0.03183840215206146,-0.012326506897807121,-0.1926257610321045,-0.006717708893120289,0.2027377337217331,-2.3094959259033203,0.03633890673518181,0.0,0.0,0.0,-0.008913515135645866,-0.031366556882858276,-0.0,0.0,0.0,0.0,-0.0026938922237604856,-0.03483596444129944,-0.002264239126816392,13335.0,15248.0,15080.0,13464.0,0.39598557353019714,0.5259501934051514,0.5138100385665894,0.40421274304389954,0.0,0.0,0.0,0.0,13111.0,15495.0,15959.0,12328.0,2.031519889831543,-0.022335809266864164,0.07304518715649463,-0.03247011228009505,0.15351518988609314,-0.03356357291340828,0.0
316,5,-0.002758096205070615,-0.0005935616791248322,0.004145733546465635,-0.0015243589878082275,0.0053299302235245705,-0.014833344146609306,-0.007694614585489035,-0.13695785403251648,-0.006042823661118746,0.283008873462677,-3.1248931884765625,0.033334553241729736,0.0,0.0,0.0,-0.010616139508783817,-0.013095423579216003,-0.0,0.0,0.0,0.0,-0.0005264786304906011,-0.058089178055524826,0.0006981320329941809,10279.0,17799.0,18040.0,9627.0,0.22645865380764008,0.7278019785881042,0.7486152052879333,0.1963430792093277,0.0,0.0,0.0,0.0,10639.0,17672.0,16435.0,11384.0,1.8042593002319336,-0.02093131123269366,0.073940720019485,-0.032103270648263044,0.05692899599671364,-0.03550253063440323,0.0
321,5,-0.002659746678546071,-0.0006410587811842561,0.0041258083656430244,0.01119220070540905,0.007831625640392303,-0.0035423249937593937,-0.007694614585489035,-0.13695785403251648,-0.006042823661118746,0.283008873462677,-3.1248931884765625,0.033334553241729736,0.0,0.0,0.0,-0.010616139508783817,-0.013095423579216003,-0.0,0.0,0.0,0.0,-0.0005264786304906011,-0.058089178055524826,0.0006981320329941809,10279.0,17799.0,18040.0,9627.0,0.22645865380764008,0.7278019785881042,0.7486152052879333,0.1963430792093277,0.0,0.0,0.0,0.0,10639.0,17672.0,16435.0,11384.0,1.8042593002319336,-0.020784893507722765,0.07490402826214347,-0.03249314188093998,0.05692899599671364,-0.03550253063440323,0.0
327,5,-0.002563675632700324,-0.0006801758427172899,0.004081640858203173,0.01600540801882744,0.007826698012650013,0.0038832174614071846,-0.0045047723688185215,-0.10122071206569672,-0.00612025847658515,0.25993818044662476,-2.8200812339782715,-0.018091851845383644,0.0,0.0,0.0,-0.010616139508783817,-0.013095423579216003,-0.0,0.0,0.0,0.0,-0.00033643958158791065,-0.05869138613343239,-0.0017785767558962107,11095.0,19758.0,18179.0,11051.0,0.2671741545200348,0.9049981236457825,0.7607195973396301,0.26488175988197327,0.0,0.0,0.0,0.0,9527.0,18172.0,17946.0,9857.0,1.8042593002319336,-0.019709477094536135,0.07761612539340718,-0.03248651175990151,0.05692899599671364,-0.03550253063440323,0.0
332,5,-0.0024153750855475664,-0.0006838474073447287,0.004035367164760828,0.024198243394494057,0.0035712653771042824,0.0071060857735574245,-0.0045047723688185215,-0.10122071206569672,-0.00612025847658515,0.25993818044662476,-2.8200812339782715,-0.018091851845383644,0.0,0.0,0.0,-0.010050139389932156,0.010714040137827396,-0.0,0.0,0.0,0.0,-0.00033643958158791065,-0.05869138613343239,-0.0017785767558962107,11095.0,19758.0,18179.0,11051.0,0.2671741545200348,0.9049981236457825,0.7607195973396301,0.26488175988197327,0.0,0.0,0.0,0.0,9527.0,18172.0,17946.0,9857.0,1.7767562866210938,-0.017823429224826534,0.08318622474175594,-0.03214100071238848,-0.045867256820201874,-0.03309750184416771,-0.0
337,5,-0.0022584886755794287,-0.0007212363998405635,0.003947762306779623,0.02850567176938057,0.005915183108299971,0.013355047442018986,-0.0030048033222556114,-0.08157197386026382,-0.005778672639280558,0.13918152451515198,-2.0310792922973633,-0.02116120047867298,0.0,0.0,0.0,-0.010050139389932156,0.010714040137827396,-0.0,0.0,0.0,0.0,-0.008054540492594242,-0.05251872166991234,-0.0003451551601756364,11981.0,18739.0,18055.0,12121.0,0.31512004137039185,0.8104949593544006,0.749877393245697,0.32301849126815796,0.0,0.0,0.0,0.0,11967.0,18695.0,17379.0,13164.0,1.7767562866210938,-0.017379275310367245,0.0886839952319635,-0.03137127380040881,-0.045867256820201874,-0.03309750184416771,-0.0
342,5,-0.002091533038765192,-0.000726283818949014,0.0038595476653426886,0.03143691644072533,0.002971763489767909,0.015927767381072044,-0.0030048033222556114,-0.08157197386026382,-0.005778672639280558,0.13918152451515198,-2.0310792922973633,-0.02116120047867298,0.0,0.0,0.0,-0.007491543423384428,0.020801790058612823,-0.0,0.0,0.0,0.0,-0.008054540492594242,-0.05251872166991234,-0.0003451551601756364,11981.0,18739.0,18055.0,12121.0,0.31512004137039185,0.8104949593544006,0.749877393245697,0.32301849126815796,0.0,0.0,0.0,0.0,11967.0,18695.0,17379.0,13164.0,1.8837648630142212,-0.01746712679752666,0.092883008663558,-0.03080649909519641,-0.0944138690829277,-0.026157677173614502,-0.0
347,5,-0.0019749770872294903,-0.0007626126171089709,0.0038788358215242624,0.026561487466096878,0.005548160057514906,0.004056532401591539,-0.0030048033222556114,-0.08157197386026382,-0.005778672639280558,0.13918152451515198,-2.0310792922973633,-0.02116120047867298,0.0,0.0,0.0,-0.007491543423384428,0.020801790058612823,-0.0,0.0,0.0,0.0,-0.008054540492594242,-0.05251872166991234,-0.0003451551601756364,11981.0,18739.0,18055.0,12121.0,0.31512004137039185,0.8104949593544006,0.749877393245697,0.32301849126815796,0.0,0.0,0.0,0.0,11967.0,18695.0,17379.0,13164.0,1.8837648630142212,-0.017037428401050693,0.0975185369834979,-0.030581875582213893,-0.0944138690829277,-0.026157677173614502,-0.0
352,5,-0.0018606380326673388,-0.0008790140273049474,0.003921841271221638,0.024345288053154945,0.016187436878681183,-0.0035380313638597727,-0.0022070345003157854,-0.06407223641872406,-0.005777815822511911,0.026971910148859024,-0.9130858182907104,0.058414723724126816,0.0,0.0,0.0,-0.007220413535833359,0.019693102687597275,-0.0,0.0,0.0,0.0,-0.0003521093458402902,0.005409594159573317,-0.0011471457546576858,14448.0,16829.0,16886.0,13863.0,0.4694056510925293,0.6472067832946777,0.6518598794937134,0.43003857135772705,0.0,0.0,0.0,0.0,15268.0,15883.0,16582.0,14164.0,1.8688626289367676,-0.022026644435224084,0.09719687109813781,-0.031465700236363095,-0.08867558091878891,-0.0250115804374218,-0.0
357,5,-0.0017682716716080904,-0.0008850466110743582,0.0038700303994119167,0.020822081714868546,0.007198882754892111,0.004802082199603319,-0.0022070345003157854,-0.06407223641872406,-0.005777815822511911,0.026971910148859024,-0.9130858182907104,0.058414723724126816,0.0,0.0,0.0,-0.007220413535833359,0.019693102687597275,-0.0,0.0,0.0,0.0,-0.0003521093458402902,0.005409594159573317,-0.0011471457546576858,14448.0,16829.0,16886.0,13863.0,0.4694056510925293,0.6472067832946777,0.6518598794937134,0.43003857135772705,0.0,0.0,0.0,0.0,15268.0,15883.0,16582.0,14164.0,1.8688626289367676,-0.017627410174161473,0.0994642424298456,-0.030436007979536963,-0.08867558091878891,-0.0250115804374218,-0.0
362,5,-0.0017233272083103657,-0.00091915437951684,0.0038706993218511343,0.013722158037126064,0.006972489412873983,0.0018405484734103084,-0.0025617447681725025,-0.06135605648159981,-0.005660919472575188,-0.13255906105041504,0.12945173680782318,-0.03308996558189392,0.0,0.0,0.0,-0.009420369751751423,0.015522819012403488,-0.0,0.0,0.0,0.0,-0.0003521093458402902,0.005409594159573317,-0.0011471457546576858,15540.0,15451.0,14517.0,16433.0,0.54740309715271,0.5408605337142944,0.47413551807403564,0.6157126426696777,0.0,0.0,0.0,0.0,15805.0,14098.0,13262.0,16579.0,1.8257023096084595,-0.01690779672487731,0.09746366801242644,-0.030178345683163965,-0.06828349828720093,-0.0318782739341259,-0.0
367,5,-0.0018228729022666812,-0.0009636555332690477,0.004100517835468054,-0.006456618197262287,0.008129135705530643,-0.02684198133647442,-0.0025617447681725025,-0.06135605648159981,-0.005660919472575188,-0.13255906105041504,0.12945173680782318,-0.03308996558189392,0.0,0.0,0.0,-0.009420369751751423,0.015522819012403488,-0.0,0.0,0.0,0.0,-0.0003521093458402902,0.005409594159573317,-0.0011471457546576858,15540.0,15451.0,14517.0,16433.0,0.54740309715271,0.5408605337142944,0.47413551807403564,0.6157126426696777,0.0,0.0,0.0,0.0,15805.0,14098.0,13262.0,16579.0,1.8257023096084595,-0.016897398360587266,0.09375986972848119,-0.030874423677301584,-0.06828349828720093,-0.0318782739341259,-0.0
372,5,-0.0018067869823426008,-0.0010273321531713009,0.004060119856148958,-0.0006523322663269937,0.010892840102314949,-0.005889070685952902,-0.004023343324661255,-0.06768004596233368,-0.005426039453595877,-0.1167236715555191,0.8347429633140564,0.04859267920255661,0.0,0.0,0.0,-0.010984674096107483,-0.008099759928882122,-0.0,0.0,0.0,0.0,0.00018355538486503065,0.04676756262779236,-0.0011143316514790058,16657.0,11096.0,10083.0,17307.0,0.6334691047668457,0.26722708344459534,0.21719813346862793,0.6863649487495422,0.0,0.0,0.0,0.0,16931.0,10732.0,10701.0,16902.0,1.7584614753723145,-0.01710876727676024,0.08945646616821505,-0.031557319522864516,0.034318313002586365,-0.0358024463057518,0.0
377,5,-0.0018389722099527717,-0.0010038765612989664,0.004093275871127844,-0.004123153164982796,0.0015424687881022692,-0.006334354635328054,-0.004023343324661255,-0.06768004596233368,-0.005426039453595877,-0.1167236715555191,0.8347429633140564,0.04859267920255661,0.0,0.0,0.0,-0.010984674096107483,-0.008099759928882122,-0.0,0.0,0.0,0.0,0.00018355538486503065,0.04676756262779236,-0.0011143316514790058,16657.0,11096.0,10083.0,17307.0,0.6334691047668457,0.26722708344459534,0.21719813346862793,0.6863649487495422,0.0,0.0,0.0,0.0,16931.0,10732.0,10701.0,16902.0,1.7584614753723145,-0.01717971529015157,0.08169252934597657,-0.030552875552628013,0.034318313002586365,-0.0358024463057518,0.0
382,5,-0.0019480838673189282,-0.0010169293964281678,0.004196136724203825,-0.014742672443389893,0.002183326054364443,-0.01487702876329422,-0.006504893768578768,-0.08210905641317368,-0.005549678113311529,-0.11080200970172882,0.33988213539123535,0.00641371076926589,0.0,0.0,0.0,-0.003591956337913871,-0.006259997840970755,-0.0,0.0,0.0,0.0,0.00043255736818537116,0.04274950921535492,-0.0004937919438816607,16448.0,11105.0,10798.0,16742.0,0.6168968081474304,0.26766374707221985,0.25194963812828064,0.6402460932731628,0.0,0.0,0.0,0.0,16959.0,10315.0,9407.0,17520.0,1.7013107538223267,-0.017524750297801112,0.07436228774698798,-0.030139194414631608,0.025662802159786224,-0.011327173560857773,0.0
387,5,-0.0020684152841567993,-0.0010039532789960504,0.0043542226776480675,-0.020336829125881195,-0.0006838027038611472,-0.02492114156484604,-0.006504893768578768,-0.08210905641317368,-0.005549678113311529,-0.11080200970172882,0.33988213539123535,0.00641371076926589,0.0,0.0,0.0,-0.003591956337913871,-0.006259997840970755,-0.0,0.0,0.0,0.0,0.00043255736818537116,0.04274950921535492,-0.0004937919438816607,16448.0,11105.0,10798.0,16742.0,0.6168968081474304,0.26766374707221985,0.25194963812828064,0.6402460932731628,0.0,0.0,0.0,0.0,16959.0,10315.0,9407.0,17520.0,1.7013107538223267,-0.01750151151105157,0.06647462643238311,-0.030188106007542313,0.025662802159786224,-0.011327173560857773,0.0
392,5,-0.002191774779930711,-0.0010003161150962114,0.004527783952653408,-0.022937869653105736,-0.0007099839276634157,-0.030795779079198837,-0.007163589354604483,-0.08194080740213394,-0.005812087096273899,-0.04866554215550423,-0.42898234724998474,-0.03510362654924393,0.0,0.0,0.0,-0.0008661866886541247,-0.01960047520697117,-0.0,0.0,0.0,0.0,0.000947608845308423,0.024727821350097656,-0.0018063226016238332,15239.0,13548.0,12288.0,16440.0,0.5252936482429504,0.40955349802970886,0.3326462209224701,0.6162714958190918,0.0,0.0,0.0,0.0,14965.0,13910.0,13163.0,15707.0,1.8576921224594116,-0.016868879793669887,0.05768431082658173,-0.03029743268207962,0.08773326128721237,-0.0029825910460203886,0.0
398,5,-0.0023092394694685936,-0.0010148512665182352,0.004683515056967735,-0.023270918056368828,0.0014602306764572859,-0.031006060540676117,-0.007163589354604483,-0.08194080740213394,-0.005812087096273899,-0.04866554215550423,-0.42898234724998474,-0.03510362654924393,0.0,0.0,0.0,-0.0008661866886541247,-0.01960047520697117,-0.0,0.0,0.0,0.0,0.000947608845308423,0.024727821350097656,-0.0018063226016238332,15239.0,13548.0,12288.0,16440.0,0.5252936482429504,0.40955349802970886,0.3326462209224701,0.6162714958190918,0.0,0.0,0.0,0.0,14965.0,13910.0,13163.0,15707.0,1.8576921224594116,-0.017347042736743812,0.04947688178810376,-0.029793701797501244,0.08773326128721237,-0.0029825910460203886,0.0
403,5,-0.0024227178655564785,-0.0010103193344548345,0.0047959228977561,-0.02292577363550663,4.0266542782774195e-05,-0.025891343131661415,-0.007623409386724234,-0.07246989011764526,-0.005678968038409948,-0.04633478447794914,-1.131785273551941,0.00879074539989233,0.0,0.0,0.0,-0.003163478570058942,-0.021967096254229546,-0.0,0.0,0.0,0.0,0.0007996121421456337,3.345268123666756e-05,-2.7559481168282218e-05,14180.0,14557.0,14502.0,14423.0,0.45115146040916443,0.47691765427589417,0.47313693165779114,0.46765658259391785,0.0,0.0,0.0,0.0,13524.0,15155.0,14879.0,14046.0,1.8906487226486206,-0.016113092454795877,0.042957092470177476,-0.030508220323776213,0.10006871074438095,-0.011086206883192062,0.0
408,5,-0.0025118589401245117,-0.001059821923263371,0.004989811219274998,-0.01986723020672798,0.005956411827355623,-0.03362317010760307,-0.007623409386724234,-0.07246989011764526,-0.005678968038409948,-0.04633478447794914,-1.131785273551941,0.00879074539989233,0.0,0.0,0.0,-0.003163478570058942,-0.021967096254229546,-0.0,0.0,0.0,0.0,0.0007996121421456337,3.345268123666756e-05,-2.7559481168282218e-05,14180.0,14557.0,14502.0,14423.0,0.45115146040916443,0.47691765427589417,0.47313693165779114,0.46765658259391785,0.0,0.0,0.0,0.0,13524.0,15155.0,14879.0,14046.0,1.8906487226486206,-0.020211474969636812,0.03678461067123733,-0.03178082615594602,0.10006871074438095,-0.011086206883192062,0.0
413,5,-0.002494132611900568,-0.000985653605312109,0.005006738007068634,-0.005819728132337332,-0.006517633330076933,-0.015480449423193932,-0.008029097691178322,-0.061128996312618256,-0.00562314921990037,-0.0527050606906414,-1.627176284790039,0.0070139337331056595,0.0,0.0,0.0,-0.003163478570058942,-0.021967096254229546,-0.0,0.0,0.0,0.0,-0.001501572667621076,-0.037970948964357376,6.251937884371728e-05,11208.0,16491.0,16263.0,11010.0,0.27304261922836304,0.6202768683433533,0.6023840308189392,0.26275795698165894,0.0,0.0,0.0,0.0,12248.0,16016.0,16000.0,12242.0,1.734136700630188,-0.015202767607687285,0.0329806189397879,-0.03112916729759298,0.035652391612529755,0.01898792013525963,0.0
418,5,-0.002456750487908721,-0.000989655964076519,0.005017562303692102,0.0021579544991254807,-0.002126766135916114,-0.0074910968542099,-0.008029097691178322,-0.061128996312618256,-0.00562314921990037,-0.0527050606906414,-1.627176284790039,0.0070139337331056595,0.0,0.0,0.0,0.0059073143638670444,-0.008532303385436535,-0.0,0.0,0.0,0.0,-0.001501572667621076,-0.037970948964357376,6.251937884371728e-05,11208.0,16491.0,16263.0,11010.0,0.27304261922836304,0.6202768683433533,0.6023840308189392,0.26275795698165894,0.0,0.0,0.0,0.0,12248.0,16016.0,16000.0,12242.0,1.734136700630188,-0.015626118453081945,0.03097470415494113,-0.03091455887784179,0.035652391612529755,0.01898792013525963,0.0
423,5,-0.0024428903125226498,-0.0010287866462022066,0.005025811959058046,0.002526399912312627,0.003844975493848324,-0.003986406605690718,-0.007069404236972332,-0.02893947996199131,-0.005300559569150209,0.06671340763568878,-1.3788740634918213,-0.03478782996535301,0.0,0.0,0.0,0.0059073143638670444,-0.008532303385436535,-0.0,0.0,0.0,0.0,0.0006569311372004449,-0.03567134216427803,-0.0015560438623651862,10278.0,16481.0,15517.0,11885.0,0.22640517354011536,0.6195040941238403,0.5456845164299011,0.30971696972846985,0.0,0.0,0.0,0.0,11164.0,16572.0,16167.0,11075.0,1.734136700630188,-0.020268252441917968,0.028502693375212905,-0.03189394667618254,0.004081128165125847,-0.020112695172429085,0.0
428,5,-0.002414308488368988,-0.0009865874890238047,0.005059052258729935,0.004440378397703171,-0.0035259148571640253,-0.005583380348980427,-0.007069404236972332,-0.02893947996199131,-0.005300559569150209,0.06671340763568878,-1.3788740634918213,-0.03478782996535301,0.0,0.0,0.0,-0.006454387214034796,-0.00100745412055403,-0.0,0.0,0.0,0.0,0.0006569311372004449,-0.03567134216427803,-0.0015560438623651862,10278.0,16481.0,15517.0,11885.0,0.22640517354011536,0.6195040941238403,0.5456845164299011,0.30971696972846985,0.0,0.0,0.0,0.0,11164.0,16572.0,16167.0,11075.0,1.6811721324920654,-0.01350092839377892,0.030987687161363398,-0.03128827651743673,0.004081128165125847,-0.020112695172429085,0.0
433,5,-0.0023298384621739388,-0.0009924846235662699,0.0049677882343530655,0.011912545189261436,-0.0007027058163657784,0.008718340657651424,-0.005990471690893173,-0.01561079639941454,-0.00551075441762805,0.08692663162946701,-0.8255288004875183,-0.04088890179991722,0.0,0.0,0.0,-0.006454387214034796,-0.00100745412055403,-0.0,0.0,0.0,0.0,0.0006574979634024203,-0.02713927999138832,-0.0011676145950332284,11939.0,16367.0,15569.0,13157.0,0.31275439262390137,0.6105148792266846,0.5495842099189758,0.38483864068984985,0.0,0.0,0.0,0.0,11925.0,16391.0,14975.0,13818.0,1.7114601135253906,-0.01254720525923467,0.032281416690930445,-0.03119125246656328,-0.03173054754734039,-0.0028627028223127127,-0.0
438,5,-0.0022648407611995935,-0.001014374545775354,0.004937625024467707,0.012564762495458126,0.0023457095958292484,0.007106907665729523,-0.005990471690893173,-0.01561079639941454,-0.00551075441762805,0.08692663162946701,-0.8255288004875183,-0.04088890179991722,0.0,0.0,0.0,-0.0009024040773510933,0.007694197818636894,-0.0,0.0,0.0,0.0,0.0006574979634024203,-0.02713927999138832,-0.0011676145950332284,11939.0,16367.0,15569.0,13157.0,0.31275439262390137,0.6105148792266846,0.5495842099189758,0.38483864068984985,0.0,0.0,0.0,0.0,11925.0,16391.0,14975.0,13818.0,1.7114601135253906,-0.010293901061249427,0.035608772520787285,-0.03195547356141286,-0.03173054754734039,-0.0028627028223127127,-0.0
443,5,-0.002166197169572115,-0.0010234410874545574,0.0048994882963597775,0.016863133758306503,0.0020262699108570814,0.007419133093208075,-0.005295460112392902,-0.011786158196628094,-0.0059486436657607555,0.09982413053512573,-0.14440062642097473,-0.020155027508735657,0.0,0.0,0.0,-0.0040515270084142685,0.012021958827972412,-0.0,0.0,0.0,0.0,0.0017555294325575233,0.012221028096973896,-0.0015732879983261228,13423.0,15565.0,14467.0,14444.0,0.40156447887420654,0.5492629408836365,0.47067874670028687,0.4691425561904907,0.0,0.0,0.0,0.0,13841.0,15175.0,14161.0,14765.0,1.7670649290084839,-0.008179996251230927,0.03834562389821249,-0.03205406763997135,-0.051187701523303986,-0.01327020488679409,-0.0
448,5,-0.002072688424959779,-0.001047502621077001,0.004893465433269739,0.017966290935873985,0.003697891952469945,0.0036904297303408384,-0.005295460112392902,-0.011786158196628094,-0.0059486436657607555,0.09982413053512573,-0.14440062642097473,-0.020155027508735657,0.0,0.0,0.0,-0.0040515270084142685,0.012021958827972412,-0.0,0.0,0.0,0.0,0.0017555294325575233,0.012221028096973896,-0.0015732879983261228,13423.0,15565.0,14467.0,14444.0,0.40156447887420654,0.5492629408836365,0.47067874670028687,0.4691425561904907,0.0,0.0,0.0,0.0,13841.0,15175.0,14161.0,14765.0,1.7670649290084839,-0.006999492018644126,0.04125419849160235,-0.03263965111251754,-0.051187701523303986,-0.01327020488679409,-0.0
453,5,-0.0019956035539507866,-0.0010660267435014248,0.0048876358196139336,0.016436705365777016,0.00370204309001565,0.002175722736865282,-0.004230021964758635,-0.013985895551741123,-0.006299455650150776,0.09198027104139328,0.4110332429409027,-0.0370807982981205,0.0,0.0,0.0,-0.0040515270084142685,0.012021958827972412,-0.0,0.0,0.0,0.0,0.001152097131125629,0.022193357348442078,-0.0007530621951445937,15233.0,12362.0,11346.0,15426.0,0.5248810052871704,0.33696743845939636,0.28034713864326477,0.5389765501022339,0.0,0.0,0.0,0.0,14352.0,13197.0,12173.0,15682.0,1.7670649290084839,-0.005736161299474225,0.04288195344161229,-0.03240241628776389,-0.051187701523303986,-0.01327020488679409,-0.0
459,5,-0.0019424270140007138,-0.0010762445162981749,0.004891508724540472,0.012955870479345322,0.0027069561183452606,0.0004055279423482716,-0.004230021964758635,-0.013985895551741123,-0.006299455650150776,0.09198027104139328,0.4110332429409027,-0.0370807982981205,0.0,0.0,0.0,-0.006030447315424681,0.011840916238725185,-0.0,0.0,0.0,0.0,0.001152097131125629,0.022193357348442078,-0.0007530621951445937,15233.0,12362.0,11346.0,15426.0,0.5248810052871704,0.33696743845939636,0.28034713864326477,0.5389765501022339,0.0,0.0,0.0,0.0,14352.0,13197.0,12173.0,15682.0,1.770692229270935,-0.005158042117478596,0.044729051232222754,-0.032534654356231874,-0.05051987245678902,-0.019792305305600166,-0.0
464,5,-0.0019299194682389498,-0.0010962351225316525,0.004920660983771086,0.0066832490265369415,0.0034816493280231953,-0.003336076159030199,-0.003361869603395462,-0.018403181806206703,-0.006433394737541676,0.12536601722240448,0.6162667274475098,-0.0037652309983968735,0.0,0.0,0.0,-0.006030447315424681,0.011840916238725185,-0.0,0.0,0.0,0.0,-0.002385487547144294,0.022284256294369698,-0.001719316584058106,15233.0,12362.0,11346.0,15426.0,0.5248810052871704,0.33696743845939636,0.28034713864326477,0.5389765501022339,0.0,0.0,0.0,0.0,15202.0,12437.0,11086.0,15582.0,1.770692229270935,-0.005051957817675012,0.044716153411002046,-0.03252707232869503,-0.05051987245678902,-0.019792305305600166,-0.0
469,5,-0.0019448414677754045,-0.001094721257686615,0.004947642330080271,0.0008826614357531071,0.0012110004900023341,-0.004572151228785515,-0.003361869603395462,-0.018403181806206703,-0.006433394737541676,0.12536601722240448,0.6162667274475098,-0.0037652309983968735,0.0,0.0,0.0,-0.006108125206083059,0.0035109526943415403,-0.0,0.0,0.0,0.0,-0.002385487547144294,0.022284256294369698,-0.001719316584058106,15233.0,12362.0,11346.0,15426.0,0.5248810052871704,0.33696743845939636,0.28034713864326477,0.5389765501022339,0.0,0.0,0.0,0.0,15202.0,12437.0,11086.0,15582.0,1.690189242362976,-0.004134326518432248,0.043843414864472574,-0.03300687072337471,-0.014298919588327408,-0.019135812297463417,0.0
474,5,-0.001985904760658741,-0.001124164555221796,0.004990770015865564,-0.004574526101350784,0.004017599392682314,-0.007004177197813988,-0.003361869603395462,-0.018403181806206703,-0.006433394737541676,0.12536601722240448,0.6162667274475098,-0.0037652309983968735,0.0,0.0,0.0,-0.006108125206083059,0.0035109526943415403,-0.0,0.0,0.0,0.0,-0.002385487547144294,0.022284256294369698,-0.001719316584058106,14881.0,12765.0,11305.0,15878.0,0.4996255040168762,0.3608519434928894,0.27816981077194214,0.5728128552436829,0.0,0.0,0.0,0.0,14763.0,12905.0,11507.0,15734.0,1.690189242362976,-0.004732678321531832,0.04130074183357118,-0.03319043492691345,-0.014298919588327408,-0.019135812297463417,0.0
