timestamp,dt,pos_x,pos_y,pos_z,vel_x,vel_y,vel_z,roll,pitch,yaw,agv_x,agv_y,agv_z,x_ref,y_ref,z_ref,roll_ref,pitch_ref,yaw_ref,x_vel_ref,y_vel_ref,z_vel_ref,x_torque,y_torque,z_torque,w0,w1,w2,w3,u0,u1,u2,u3,m0req,m1req,m2req,m3req,thrust0,thrust1,thrust2,thrust3,thrust_ref,roll_vicon,pitch_vicon,yaw_vicon,acc_x,acc_y,acc_z,roll_received,pitch_received,yaw_received
5,5,0.0,0.0,0.0,0.00011194861144758761,0.0006934618577361107,4.133418406127021e-05,-0.006413436960428953,-0.018166175112128258,-0.005302182398736477,0.0,0.0,0.0,0.0,0.0,0.0,-0.0008591851219534874,0.00010669390758266672,-0.0,0.0,0.0,0.0,0.0061394027434289455,0.005410395096987486,-0.0005791951552964747,1495.0,1495.0,1495.0,1495.0,0.0,0.0,0.0,0.0,0.0,0.0,0.0,0.0,0.0,0.0,0.0,0.0,1.6328964233398438,0.045049037874325765,0.015786365677138717,-0.0540182658013049,-0.00041980730020441115,-0.002600481966510415,0.0,0.0,0.0,0.0
31,26,0.0,0.0,0.0,0.00020340480841696262,0.0004014490114059299,-0.0006069284863770008,-0.006413436960428953,-0.018166175112128258,-0.005302182398736477,0.0,0.0,0.0,0.0,0.0,0.0,-0.0008591851219534874,0.00010669390758266672,-0.0,0.0,0.0,0.0,0.0061394027434289455,0.005410395096987486,-0.0005791951552964747,1495.0,1495.0,1495.0,1495.0,0.0,0.0,0.0,0.0,0.0,0.0,0.0,0.0,0.0,0.0,0.0,0.0,1.6328964233398438,0.04448507188808638,0.01577430912247118,-0.05368056522196814,-0.00041980730020441115,-0.002600481966510415,0.0,0.0,0.0,0.0
36,5,0.0,0.0,0.0,-0.00027046597097069025,-1.579100171511527e-05,0.0017095182556658983,-0.006437190808355808,-0.018174730241298676,-0.005304030608385801,0.0,0.0,0.0,0.0,0.0,0.0,-0.0004981708480045199,0.00019416269788052887,-0.0,0.0,0.0,0.0,0.006176983471959829,0.005568800959736109,-0.00044128435547463596,1495.0,1495.0,1495.0,1495.0,0.0,0.0,0.0,0.0,0.0,0.0,0.0,0.0,0.0,0.0,0.0,0.0,1.6303273439407349,0.046425580051213985,0.015181237236118012,-0.05398240527706645,-0.0007627680315636098,-0.00150543381460011,0.0,-0.0,-0.0,0.0
42,6,0.0,0.0,0.0,0.00013557517377194017,0.0003220154903829098,-0.0035872713197022676,-0.006437190808355808,-0.018174730241298676,-0.005304030608385801,0.0,0.0,0.0,0.0,0.0,0.0,-0.0004981708480045199,0.00019416269788052887,-0.0,0.0,0.0,0.0,0.006176983471959829,0.005568800959736109,-0.00044128435547463596,1495.0,1495.0,1495.0,1495.0,0.0,0.0,0.0,0.0,0.0,0.0,0.0,0.0,0.0,0.0,0.0,0.0,1.6303273439407349,0.04674756550958106,0.015526375808000894,-0.0538029728389285,-0.0007627680315636098,-0.00150543381460011,0.0,-0.0,-0.0,0.0
50,8,2.2206355424714275e-05,4.353031727077905e-06,-1.4479038327408489e-05,0.0027189927641302347,-0.0003935576241929084,0.00030257608159445226,-0.006437190808355808,-0.018174730241298676,-0.005304030608385801,0.0,0.0,0.0,0.0,0.0,0.0,0.0004892062279395759,0.0025889889802783728,-0.0,0.0,0.0,0.0,0.005350696854293346,0.005531955510377884,-0.0005747921532019973,13337.0,12982.0,13280.0,14460.0,0.3961152136325836,0.37404510378837585,0.3925139009952545,0.47022220492362976,0.0,0.0,0.0,0.0,0.0,0.0,0.0,0.0,1.6539877653121948,0.04531090743283584,0.01571669318452019,-0.05364597483609627,-0.010318435728549957,0.0014997980324551463,0.0,-0.0008591851219534874,0.00010669390758266672,0.0
60,11,-9.129628892878827e-07,1.0350338925491087e-05,-1.767183857737109e-05,-0.0019997856579720974,-8.742638601688668e-05,-0.0004193193162791431,-0.006443922873586416,-0.01818385347723961,-0.005310889333486557,0.0,0.0,0.0,0.0,0.0,0.0,0.0001261237484868616,-0.0018918601563200355,-0.0,0.0,0.0,0.0,0.005478783044964075,0.0054658506996929646,-0.0005500928964465857,13360.0,12930.0,13323.0,14445.0,0.39759430289268494,0.37085965275764465,0.3952377140522003,0.46920475363731384,0.0,0.0,0.0,0.0,0.0,0.0,0.0,0.0,1.646116018295288,0.04489932978874443,0.015750243520432503,-0.053907676279261685,0.0075041428208351135,0.0003848272608593106,0.0,-0.0008591851219534874,0.00010669390758266672,0.0
69,9,-1.012238317343872e-05,4.725014150608331e-06,-4.195724159217207e-06,-0.0019050446571782231,0.0006400684942491353,-0.0017848615534603596,-0.006443922873586416,-0.01818385347723961,-0.005310889333486557,0.0,0.0,0.0,0.0,0.0,0.0,0.0001261237484868616,-0.0018918601563200355,-0.0,0.0,0.0,0.0,0.005478783044964075,0.0054658506996929646,-0.0005500928964465857,13360.0,12930.0,13323.0,14445.0,0.39759430289268494,0.37085965275764465,0.3952377140522003,0.46920475363731384,0.0,0.0,0.0,0.0,0.0,0.0,0.0,0.0,1.646116018295288,0.044465959476271376,0.015864252813397355,-0.053704008406566486,0.0075041428208351135,0.0003848272608593106,0.0,-0.0008591851219534874,0.00010669390758266672,0.0
74,5,-1.0090387831951375e-06,7.493639259337215e-06,-2.6364319637650624e-05,0.0003315834328532219,-7.620765245519578e-05,0.0019462867639958858,-0.006443922873586416,-0.01818385347723961,-0.005310889333486557,0.0,0.0,0.0,0.0,0.0,0.0,0.0001261237484868616,-0.0018918601563200355,-0.0,0.0,0.0,0.0,0.005478783044964075,0.0054658506996929646,-0.0005500928964465857,13360.0,12930.0,13323.0,14445.0,0.39759430289268494,0.37085965275764465,0.3952377140522003,0.46920475363731384,0.0,0.0,0.0,0.0,0.0,0.0,0.0,0.0,1.646116018295288,0.0445342890138551,0.015508397147775395,-0.05365885227935515,0.0075041428208351135,0.0003848272608593106,0.0,-0.0008591851219534874,0.00010669390758266672,0.0
79,5,-2.1378373276093043e-06,1.4679891137348022e-05,-2.1148096493561752e-05,-2.8224494599271566e-06,-0.0008928333409130573,0.0001525680418126285,-0.006435899995267391,-0.018226679414510727,-0.005283815320581198,0.0,0.0,0.0,0.0,0.0,0.0,0.00010830633254954591,0.00031533651053905487,-0.0,0.0,0.0,0.0,0.005970487836748362,0.00562927545979619,-0.0004734585527330637,13311.0,12894.0,13312.0,14480.0,0.39451104402542114,0.3686293363571167,0.3945438265800476,0.4716184139251709,0.0,0.0,0.0,0.0,0.0,0.0,0.0,0.0,1.6292216777801514,0.04463435330057991,0.01585552245747051,-0.05349905199153173,-0.001237959135323763,0.00032707140780985355,0.0,-0.00039985059993341565,0.00012949643132742494,0.0
84,5,-4.007685220130952e-06,4.004898073617369e-06,-2.386452615610324e-05,-0.00022551075380761176,0.0009238658822141588,0.00038699875585734844,-0.006431225687265396,-0.018282851204276085,-0.00530561339110136,0.0,0.0,0.0,0.0,0.0,0.0,0.00010830633254954591,0.00031533651053905487,-0.0,0.0,0.0,0.0,0.006737673655152321,0.006488204002380371,-0.0005825620610266924,13386.0,12906.0,13388.0,14688.0,0.3992181420326233,0.36935633420944214,0.3993866443634033,0.4860266447067261,0.0,0.0,0.0,0.0,0.0,0.0,0.0,0.0,1.6292216777801514,0.04516901429306718,0.015343281778378862,-0.0537774752610433,-0.001237959135323763,0.00032707140780985355,0.0,0.0004892062279395759,0.0025889889802783728,0.0
90,5,8.530693776265252e-06,7.062328677420737e-06,-2.3469870939152315e-05,0.0014144012238830328,2.6546831577434205e-06,0.0001074408064596355,-0.006431225687265396,-0.018282851204276085,-0.00530561339110136,0.0,0.0,0.0,0.0,0.0,0.0,9.539789061818738e-06,0.0013538511702790856,-0.0,0.0,0.0,0.0,0.006441470235586166,0.004950563423335552,-0.0004146936989855021,13319.0,12962.0,13487.0,14496.0,0.3949703276157379,0.3728196322917938,0.40566977858543396,0.4726562798023224,0.0,0.0,0.0,0.0,0.0,0.0,0.0,0.0,1.6402615308761597,0.04484094513713931,0.015944781234754467,-0.05346271433161056,-0.0053510102443397045,2.900416984630283e-05,0.0,0.0001261237484868616,-0.0018918601563200355,0.0
102,12,8.96779056347441e-06,2.3862560283305356e-06,7.150765668484382e-06,-0.0004893535515293479,-0.0005024678539484739,-0.002484333235770464,-0.006414311937987804,-0.018250761553645134,-0.005278395488858223,0.0,0.0,0.0,0.0,0.0,0.0,9.539789061818738e-06,0.0013538511702790856,-0.0,0.0,0.0,0.0,0.006441470235586166,0.004950563423335552,-0.0004146936989855021,13319.0,12962.0,13487.0,14496.0,0.3949703276157379,0.3728196322917938,0.40566977858543396,0.4726562798023224,0.0,0.0,0.0,0.0,0.0,0.0,0.0,0.0,1.6402615308761597,0.04598212829095112,0.01524892805581578,-0.053614061545725254,-0.0053510102443397045,2.900416984630283e-05,0.0,0.0001261237484868616,-0.0018918601563200355,0.0
109,7,1.898495975183323e-05,-4.729034571937518e-06,-1.733190038066823e-05,0.0010063190711662173,0.0006528477533720434,0.0019441867480054498,-0.006414311937987804,-0.018250761553645134,-0.005278395488858223,0.0,0.0,0.0,0.0,0.0,0.0,-0.0008147573680616915,0.000982444267719984,-0.0,0.0,0.0,0.0,0.006441470235586166,0.004950563423335552,-0.0004146936989855021,13319.0,12962.0,13487.0,14496.0,0.3949703276157379,0.3728196322917938,0.40566977858543396,0.4726562798023224,0.0,0.0,0.0,0.0,0.0,0.0,0.0,0.0,1.6382273435592651,0.04465619515856145,0.01535516366155231,-0.0539017881920774,-0.003878232091665268,-0.0024740640074014664,0.0,0.0001261237484868616,-0.0018918601563200355,0.0
114,5,7.443059075740166e-06,8.707312190381344e-06,-5.6800322454364505e-06,-0.0009825006127357483,-0.0013512225123122334,-0.0006205496028997004,-0.006414311937987804,-0.018250761553645134,-0.005278395488858223,0.0,0.0,0.0,0.0,0.0,0.0,-0.0008147573680616915,0.000982444267719984,-0.0,0.0,0.0,0.0,0.006441470235586166,0.004950563423335552,-0.0004146936989855021,13319.0,12962.0,13487.0,14496.0,0.3949703276157379,0.3728196322917938,0.40566977858543396,0.4726562798023224,0.0,0.0,0.0,0.0,0.0,0.0,0.0,0.0,1.6382273435592651,0.045005452538013246,0.016073036831157062,-0.053772402560030436,-0.003878232091665268,-0.0024740640074014664,0.0,0.0001261237484868616,-0.0018918601563200355,0.0
119,5,1.2455598152882885e-05,3.61529532710847e-06,-3.4965676604770124e-05,0.00020850445434916764,7.055302558001131e-05,0.003266057465225458,-0.006406913977116346,-0.018227914348244667,-0.005320567172020674,0.0,0.0,0.0,0.0,0.0,0.0,-0.0008147573680616915,0.000982444267719984,-0.0,0.0,0.0,0.0,0.005685047712177038,0.00537917809560895,-0.0005290343542583287,13368.0,12930.0,13360.0,14441.0,0.3981022238731384,0.37082988023757935,0.3975672125816345,0.4688815474510193,0.0,0.0,0.0,0.0,0.0,0.0,0.0,0.0,1.6382273435592651,0.04375965282640283,0.015519599976058309,-0.053993024258489966,-0.003878232091665268,-0.0024740640074014664,0.0,-0.0011356155155226588,-0.00022017820447217673,0.0
124,5,-1.2766437976097222e-05,-3.461866299403482e-06,-1.955683001142461e-05,-0.002943242434412241,0.000877480604685843,-0.0005426385905593634,-0.006406913977116346,-0.018227914348244667,-0.005320567172020674,0.0,0.0,0.0,0.0,0.0,0.0,-8.101885032374412e-05,0.0002167582424590364,-0.0,0.0,0.0,0.0,0.005685047712177038,0.00537917809560895,-0.0005290343542583287,13368.0,12930.0,13360.0,14441.0,0.3981022238731384,0.37082988023757935,0.3975672125816345,0.4688815474510193,0.0,0.0,0.0,0.0,0.0,0.0,0.0,0.0,1.6284600496292114,0.04468864034109996,0.016049352410199374,-0.0536854054419956,-0.0008505593286827207,-0.0002445522986818105,0.0,-0.0011356155155226588,-0.00022017820447217673,0.0
129,5,1.2266845317299158e-07,1.5146325495152269e-05,-4.303252717363648e-05,0.0003693957405630499,-0.0018819908145815134,0.0026000281795859337,-0.006415816023945808,-0.018218116834759712,-0.005315528716892004,0.0,0.0,0.0,0.0,0.0,0.0,-8.101885032374412e-05,0.0002167582424590364,-0.0,0.0,0.0,0.0,0.006509983912110329,0.006041587330400944,-0.0005682527553290129,13368.0,12930.0,13360.0,14441.0,0.3981022238731384,0.37082988023757935,0.3975672125816345,0.4688815474510193,0.0,0.0,0.0,0.0,0.0,0.0,0.0,0.0,1.6284600496292114,0.045453176989809614,0.01572731274418929,-0.053900036100986384,-0.0008505593286827207,-0.0002445522986818105,0.0,9.539789061818738e-06,0.0013538511702790856,0.0
134,5,1.1929012543987483e-05,2.1027535694884136e-05,-6.937171565368772e-05,0.001564519596286118,-0.001458541490137577,0.004200713708996773,-0.006415816023945808,-0.018218116834759712,-0.005315528716892004,0.0,0.0,0.0,0.0,0.0,0.0,0.0018286757403984666,0.0014941453700885177,-0.0,0.0,0.0,0.0,0.006509983912110329,0.006041587330400944,-0.0005682527553290129,13309.0,12895.0,13349.0,14607.0,0.3943628668785095,0.3686895966529846,0.3968575596809387,0.4803515076637268,0.0,0.0,0.0,0.0,0.0,0.0,0.0,0.0,1.6478325128555298,0.04453381485029631,0.015127929752516131,-0.05389274089756159,-0.005932761821895838,0.005585446022450924,0.0,9.539789061818738e-06,0.0013538511702790856,0.0
143,8,9.78849311650265e-06,1.617308043933008e-05,-4.677702600019984e-05,0.00023220365983434021,-0.0012519900919869542,-0.0017332782736048102,-0.006415816023945808,-0.018218116834759712,-0.005315528716892004,0.0,0.0,0.0,0.0,0.0,0.0,0.0018286757403984666,0.0014941453700885177,-0.0,0.0,0.0,0.0,0.006509983912110329,0.006041587330400944,-0.0005682527553290129,13309.0,12895.0,13349.0,14607.0,0.3943628668785095,0.3686895966529846,0.3968575596809387,0.4803515076637268,0.0,0.0,0.0,0.0,0.0,0.0,0.0,0.0,1.6478325128555298,0.044944154658062126,0.01522078802569683,-0.05396691353364268,-0.005932761821895838,0.005585446022450924,0.0,9.539789061818738e-06,0.0013538511702790856,0.0
148,5,1.186082954518497e-05,4.131018613406923e-06,-2.9110295145073906e-05,0.0003415617684368044,0.0009442513110116124,-0.0028133189771324396,-0.0064317225478589535,-0.018248915672302246,-0.00532396649941802,0.0,0.0,0.0,0.0,0.0,0.0,-0.0011601268779486418,0.00034152864827774465,-0.0,0.0,0.0,0.0,0.006040898617357016,0.005796806886792183,-0.0005239713937044144,13382.0,12890.0,13353.0,14510.0,0.3989601731300354,0.36841464042663574,0.39716702699661255,0.47368550300598145,0.0,0.0,0.0,0.0,0.0,0.0,0.0,0.0,1.635968565940857,0.04503003295640866,0.014889901671175976,-0.0542576476672249,-0.0013463366776704788,-0.003517943201586604,0.0,-0.0008147573680616915,0.000982444267719984,0.0
153,5,-2.0052513718837872e-05,1.3274818229547236e-05,8.663347216497641e-06,-0.0036929764319211245,-0.0007195553625933826,-0.005658164620399475,-0.0064317225478589535,-0.018248915672302246,-0.00532396649941802,0.0,0.0,0.0,0.0,0.0,0.0,-0.0011601268779486418,0.00034152864827774465,-0.0,0.0,0.0,0.0,0.006040898617357016,0.005796806886792183,-0.0005239713937044144,13382.0,12890.0,13353.0,14510.0,0.3989601731300354,0.36841464042663574,0.39716702699661255,0.47368550300598145,0.0,0.0,0.0,0.0,0.0,0.0,0.0,0.0,1.635968565940857,0.045661747949763624,0.01536072743345284,-0.053697516558342095,-0.0013463366776704788,-0.003517943201586604,0.0,-0.0008147573680616915,0.000982444267719984,0.0
158,5,6.564941577380523e-05,0.00015060158330015838,-0.0002860001986846328,0.008807040750980377,-0.01676703430712223,0.03309635818004608,-0.0064317225478589535,-0.018248915672302246,-0.00532396649941802,0.0,0.0,0.0,0.0,0.0,0.0,-0.0011601268779486418,0.00034152864827774465,-0.0,0.0,0.0,0.0,0.006040898617357016,0.005796806886792183,-0.0005239713937044144,13382.0,12890.0,13353.0,14510.0,0.3989601731300354,0.36841464042663574,0.39716702699661255,0.47368550300598145,0.0,0.0,0.0,0.0,0.0,0.0,0.0,0.0,1.635968565940857,0.049152094221550036,0.001794399885835006,-0.060927311306814634,-0.0013463366776704788,-0.003517943201586604,0.0,-0.0008147573680616915,0.000982444267719984,0.0
163,5,-7.91928541730158e-05,-0.0004005689697805792,0.0003582815988920629,-0.013858255930244923,0.05943365395069122,-0.06407526880502701,-0.006436350755393505,-0.018257269635796547,-0.005308318883180618,0.0,0.0,0.0,0.0,0.0,0.0,0.018918339163064957,0.007627591025084257,-0.0,0.0,0.0,0.0,0.007936382666230202,0.005694209598004818,-0.0005355205503292382,13279.0,12868.0,13461.0,14630.0,0.3924608528614044,0.36704501509666443,0.40397366881370544,0.48198965191841125,0.0,0.0,0.0,0.0,0.0,0.0,0.0,0.0,1.8169058561325073,0.029924284456995603,0.03455711942970581,-0.050029728390272504,-0.03338795155286789,0.06370549649000168,0.0,0.002341310726478696,0.00034957873867824674,0.0
168,5,-9.598750693839975e-06,-0.0003730149182956666,0.0005621047457680106,0.0028079901821911335,0.02046697400510311,-0.05008888617157936,-0.006436350755393505,-0.018257269635796547,-0.005308318883180618,0.0,0.0,0.0,0.0,0.0,0.0,0.018918339163064957,0.007627591025084257,-0.0,0.0,0.0,0.0,0.007936382666230202,0.005694209598004818,-0.0005355205503292382,13279.0,12868.0,13461.0,14630.0,0.3924608528614044,0.36704501509666443,0.40397366881370544,0.48198965191841125,0.0,0.0,0.0,0.0,0.0,0.0,0.0,0.0,1.8169058561325073,0.03503686954251387,0.044665412159299964,-0.05142014353683099,-0.03338795155286789,0.06370549649000168,0.0,0.002341310726478696,0.00034957873867824674,0.0
173,5,-1.6978714484139346e-05,-0.00017034696065820754,0.00020679192675743252,0.0002376003540121019,-0.016133366152644157,0.022601982578635216,-0.006501189898699522,-0.018210401758551598,-0.005281181074678898,0.0,0.0,0.0,0.0,0.0,0.0,-0.023152587935328484,0.0023682131431996822,-0.0,0.0,0.0,0.0,0.005186604801565409,0.00552778597921133,0.0002756686299107969,13132.0,12829.0,13502.0,14791.0,0.3832930028438568,0.364697128534317,0.40661028027534485,0.4932321012020111,0.0,0.0,0.0,0.0,0.0,0.0,0.0,0.0,1.8365654945373535,0.030098369174563627,0.027420930328421852,-0.05398915817410819,-0.010477611795067787,-0.07880323380231857,0.0,-0.0011601268779486418,0.00034152864827774465,0.0
178,5,6.237176421564072e-05,-0.0006825950695201755,0.0009758739033713937,0.009617097675800323,0.05501643195748329,-0.0832490473985672,-0.006501189898699522,-0.018210401758551598,-0.005281181074678898,0.0,0.0,0.0,0.0,0.0,0.0,-0.023152587935328484,0.0023682131431996822,-0.0,0.0,0.0,0.0,0.005186604801565409,0.00552778597921133,0.0002756686299107969,13132.0,12829.0,13502.0,14791.0,0.3832930028438568,0.364697128534317,0.40661028027534485,0.4932321012020111,0.0,0.0,0.0,0.0,0.0,0.0,0.0,0.0,1.8365654945373535,0.034562389454650344,0.062155628104101635,-0.0345967821913176,-0.010477611795067787,-0.07880323380231857,0.0,-0.0011601268779486418,0.00034152864827774465,0.0
183,5,-6.454429967561737e-05,-0.00037858131690882146,0.00034751580096781254,-0.011383088305592537,-0.014475081115961075,0.0421033576130867,-0.00634409673511982,-0.018181728199124336,-0.00500359944999218,0.0,0.0,0.0,0.0,0.0,0.0,0.015595616772770882,-0.009892988950014114,-0.0,0.0,0.0,0.0,0.02169209159910679,0.008119973354041576,-0.002333102049306035,12535.0,12860.0,14471.0,16643.0,0.347079873085022,0.3665529489517212,0.4709838926792145,0.6322891116142273,0.0,0.0,0.0,0.0,0.0,0.0,0.0,0.0,1.8057681322097778,0.028347523078701205,0.03449612993633058,-0.049742686776010916,0.043040916323661804,0.05219646915793419,-0.0,0.018918339163064957,0.007627591025084257,0.0
189,5,8.221612370107323e-05,-0.0008126012980937958,0.0011618175776675344,0.013058015145361423,0.04629236459732056,-0.08087486773729324,-0.00634409673511982,-0.018181728199124336,-0.00500359944999218,0.0,0.0,0.0,0.0,0.0,0.0,0.015595616772770882,-0.009892988950014114,-0.0,0.0,0.0,0.0,0.02169209159910679,0.008119973354041576,-0.002333102049306035,12535.0,12860.0,14471.0,16643.0,0.347079873085022,0.3665529489517212,0.4709838926792145,0.6322891116142273,0.0,0.0,0.0,0.0,0.0,0.0,0.0,0.0,1.8057681322097778,0.03512634557891645,0.0730064099312911,-0.03153762207578952,0.043040916323661804,0.05219646915793419,-0.0,0.018918339163064957,0.007627591025084257,0.0
194,5,-8.356192847713828e-05,-0.0002697487361729145,0.0003404676099307835,-0.014670159667730331,-0.04662536084651947,0.06621204316616058,-0.006554668769240379,-0.018215250223875046,-0.005053878296166658,0.0,0.0,0.0,0.0,0.0,0.0,0.015595616772770882,-0.009892988950014114,-0.0,0.0,0.0,0.0,-0.011715001426637173,0.006391725968569517,0.00116899108979851,14694.0,15499.0,12001.0,14738.0,0.4864588677883148,0.5443671941757202,0.3162258565425873,0.4895136058330536,0.0,0.0,0.0,0.0,0.0,0.0,0.0,0.0,1.8057681322097778,0.027965160633862823,0.033135857471755084,-0.05093258237978363,0.043040916323661804,0.05219646915793419,-0.0,-0.023152587935328484,0.0023682131431996822,0.0
199,5,-2.8029402528773062e-05,-0.0003826765459962189,0.00025744049344211817,0.00079583894694224,-0.005098806694149971,0.036448072642087936,-0.006554668769240379,-0.018215250223875046,-0.005053878296166658,0.0,0.0,0.0,0.0,0.0,0.0,0.04472054913640022,-0.011012280359864235,-0.0,0.0,0.0,0.0,-0.011715001426637173,0.006391725968569517,0.00116899108979851,14694.0,15499.0,12001.0,14738.0,0.4864588677883148,0.5443671941757202,0.3162258565425873,0.4895136058330536,0.0,0.0,0.0,0.0,0.0,0.0,0.0,0.0,2.0926201343536377,0.02602477027568313,0.03409684049374851,-0.050746611860219566,0.055472321808338165,0.17335765063762665,-0.0,-0.023152587935328484,0.0023682131431996822,0.0
204,5,-6.859291170258075e-05,-0.0004671410715673119,0.0004515112959779799,-0.004549285396933556,0.00809621810913086,-0.008709268644452095,-0.006439817603677511,-0.018077950924634933,-0.005558408331125975,0.0,0.0,0.0,0.0,0.0,0.0,0.04472054913640022,-0.011012280359864235,-0.0,0.0,0.0,0.0,-0.011715001426637173,0.006391725968569517,0.00116899108979851,14694.0,15499.0,12001.0,14738.0,0.4864588677883148,0.5443671941757202,0.3162258565425873,0.4895136058330536,0.0,0.0,0.0,0.0,0.0,0.0,0.0,0.0,2.0926201343536377,0.024936175432366352,0.03772900150131881,-0.050092495769194376,0.055472321808338165,0.17335765063762665,-0.0,-0.023152587935328484,0.0023682131431996822,0.0
209,5,-6.196805770741776e-05,-0.00038624429726041853,0.0004127798310946673,-0.0010247319005429745,-0.006469124462455511,0.0011640697484835982,-0.006439817603677511,-0.018077950924634933,-0.005558408331125975,0.0,0.0,0.0,0.0,0.0,0.0,-0.01029584277421236,-0.004193092230707407,-0.0,0.0,0.0,0.0,-0.011715001426637173,0.006391725968569517,0.00116899108979851,14694.0,15499.0,12001.0,14738.0,0.4864588677883148,0.5443671941757202,0.3162258565425873,0.4895136058330536,0.0,0.0,0.0,0.0,0.0,0.0,0.0,0.0,1.7258719205856323,0.02904957992572093,0.03441576095765527,-0.04930768442343518,0.017436953261494637,-0.03293556347489357,0.0,-0.023152587935328484,0.0023682131431996822,0.0
214,5,-7.70017140894197e-06,-0.00017322570784017444,0.0002647482615429908,0.006102253682911396,-0.028149880468845367,0.018229415640234947,-0.007637648843228817,-0.016944197937846184,-0.004796442575752735,0.0,0.0,0.0,0.0,0.0,0.0,-0.01029584277421236,-0.004193092230707407,-0.0,0.0,0.0,0.0,0.0450955294072628,0.0011088729370385408,-0.0027917155530303717,14253.0,10265.0,17162.0,14156.0,0.4561106562614441,0.2257983684539795,0.6743538975715637,0.4495052397251129,0.0,0.0,0.0,0.0,0.0,0.0,0.0,0.0,1.7258719205856323,0.030606003193141402,0.02504187658097008,-0.05435408474026599,0.017436953261494637,-0.03293556347489357,0.0,0.04472054913640022,-0.011012280359864235,0.0
219,5,0.0001290614891331643,-6.21936414972879e-05,0.0007086395635269582,0.018852300941944122,-0.02458379976451397,-0.04597518965601921,-0.007637648843228817,-0.016944197937846184,-0.004796442575752735,0.0,0.0,0.0,0.0,0.0,0.0,0.029597561806440353,0.00497236754745245,-0.0,0.0,0.0,0.0,0.0450955294072628,0.0011088729370385408,-0.0027917155530303717,14253.0,10265.0,17162.0,14156.0,0.4561106562614441,0.2257983684539795,0.6743538975715637,0.4495052397251129,0.0,0.0,0.0,0.0,0.0,0.0,0.0,0.0,1.9071983098983765,8.946672398382087e-05,0.04960028553077262,-0.059993468818180865,-0.0228412002325058,0.10460323840379715,-0.0,0.04472054913640022,-0.011012280359864235,0.0
224,5,4.218434332869947e-05,-0.0003404947929084301,0.0003071788523811847,-0.0028843374457210302,0.023562615737318993,0.02978520840406418,-0.00798941869288683,-0.016762282699346542,-0.004917354788631201,0.0,0.0,0.0,0.0,0.0,0.0,0.029597561806440353,0.00497236754745245,-0.0,0.0,0.0,0.0,0.04271705076098442,-0.0005846989224664867,-0.0004848396638408303,11860.0,12482.0,17317.0,18092.0,0.308326780796051,0.3439905643463135,0.6872009634971619,0.7531017661094666,0.0,0.0,0.0,0.0,0.0,0.0,0.0,0.0,1.9071983098983765,0.029012172154152045,0.027941192084079292,-0.05519675946739908,-0.0228412002325058,0.10460323840379715,-0.0,0.04472054913640022,-0.011012280359864235,0.0
229,5,2.664649218786508e-05,-0.00044958104263059795,0.0003552409471012652,-0.0030182767659425735,0.022515397518873215,0.006146633997559547,-0.00798941869288683,-0.016762282699346542,-0.004917354788631201,0.0,0.0,0.0,0.0,0.0,0.0,-0.026097945868968964,-0.0023549061734229326,-0.0,0.0,0.0,0.0,0.04271705076098442,-0.0005846989224664867,-0.0004848396638408303,11860.0,12482.0,17317.0,18092.0,0.308326780796051,0.3439905643463135,0.6872009634971619,0.7531017661094666,0.0,0.0,0.0,0.0,0.0,0.0,0.0,0.0,1.865833044052124,0.028677233910873363,0.029265673063607302,-0.05404995424387264,0.010584003292024136,-0.09023979306221008,-0.0,0.04472054913640022,-0.011012280359864235,0.0
234,5,6.164668593555689e-05,-0.000215647101867944,0.0003178920887876302,0.0029927126597613096,-0.019065912812948227,0.006940517108887434,-0.007541576866060495,-0.01575753651559353,-0.004652121104300022,0.0,0.0,0.0,0.0,0.0,0.0,-0.026097945868968964,-0.0023549061734229326,-0.0,0.0,0.0,0.0,-0.006110978778451681,0.0019927106332033873,-0.00031200682860799134,13942.0,15033.0,12431.0,14002.0,0.4352371394634247,0.5104316473007202,0.34096285700798035,0.4392402470111847,0.0,0.0,0.0,0.0,0.0,0.0,0.0,0.0,1.865833044052124,0.034198702050461174,0.021770046058294492,-0.057435447358098905,0.010584003292024136,-0.09023979306221008,-0.0,-0.01029584277421236,-0.004193092230707407,0.0
239,5,-5.926137964706868e-05,-0.0005163399036973715,0.0008677829755470157,-0.013311883434653282,0.02845677174627781,-0.06321070343255997,-0.007541576866060495,-0.01575753651559353,-0.004652121104300022,0.0,0.0,0.0,0.0,0.0,0.0,0.020897965878248215,0.002644017804414034,-0.0,0.0,0.0,0.0,-0.006110978778451681,0.0019927106332033873,-0.00031200682860799134,13942.0,15033.0,12431.0,14002.0,0.4352371394634247,0.5104316473007202,0.34096285700798035,0.4392402470111847,0.0,0.0,0.0,0.0,0.0,0.0,0.0,0.0,1.8151782751083374,0.023079597611259235,0.04007122242496341,-0.05027671846275799,-0.011562192812561989,0.07030308991670609,-0.0,-0.01029584277421236,-0.004193092230707407,0.0
244,5,-1.247739783138968e-05,-0.0004701191501226276,0.0007261866703629494,0.00028932467103004456,0.0058362167328596115,-0.008292725309729576,-0.005760455038398504,-0.01491906214505434,-0.004917453043162823,0.0,0.0,0.0,0.0,0.0,0.0,0.020897965878248215,0.002644017804414034,-0.0,0.0,0.0,0.0,0.01733359508216381,0.004513608291745186,-0.0012091519311070442,13693.0,13623.0,14992.0,15794.0,0.4189022481441498,0.4143652021884918,0.5075121521949768,0.5664187073707581,0.0,0.0,0.0,0.0,0.0,0.0,0.0,0.0,1.8151782751083374,0.033218296410117684,0.03011292993427313,-0.0538971480333098,-0.011562192812561989,0.07030308991670609,-0.0,0.029597561806440353,0.00497236754745245,0.0
250,5,-5.319257979863323e-05,-0.0005008841399103403,0.0009893147507682443,-0.002321526873856783,0.0051043895073235035,-0.022875618189573288,-0.005760455038398504,-0.01491906214505434,-0.004917453043162823,0.0,0.0,0.0,0.0,0.0,0.0,-0.007806770503520966,0.0002494141517672688,-0.0,0.0,0.0,0.0,0.01733359508216381,0.004513608291745186,-0.0012091519311070442,13693.0,13623.0,14992.0,15794.0,0.4189022481441498,0.4143652021884918,0.5075121521949768,0.5664187073707581,0.0,0.0,0.0,0.0,0.0,0.0,0.0,0.0,1.6918412446975708,0.037036838499774016,0.026239037977423794,-0.05265223981692374,-0.0010167621076107025,-0.024481134489178658,0.0,0.029597561806440353,0.00497236754745245,0.0
255,5,-5.319257979863323e-05,-0.0005008841399103403,0.0009893147507682443,-0.002321526873856783,0.0051043895073235035,-0.022875618189573288,0.002714018803089857,-0.01178718637675047,-0.004825308918952942,0.0,0.0,0.0,0.0,0.0,0.0,-0.007806770503520966,0.0002494141517672688,-0.0,0.0,0.0,0.0,-0.03899892792105675,-0.0010468005202710629,0.0008206001948565245,16551.0,16854.0,11680.0,11585.0,0.6249741315841675,0.6492928266525269,0.2983957529067993,0.29317033290863037,0.0,0.0,0.0,0.0,0.0,0.0,0.0,0.0,1.6918412446975708,0.037036838499774016,0.026239037977423794,-0.05265223981692374,-0.0010167621076107025,-0.024481134489178658,0.0,-0.026097945868968964,-0.0023549061734229326,0.0
260,5,1.2911337762488984e-05,-0.0002015782374655828,0.0014593172818422318,0.004529156722128391,-0.014616827480494976,-0.048884790390729904,0.002714018803089857,-0.01178718637675047,-0.004825308918952942,0.0,0.0,0.0,0.0,0.0,0.0,-0.0069951945915818214,-0.002210099482908845,-0.0,0.0,0.0,0.0,-0.03899892792105675,-0.0010468005202710629,0.0008206001948565245,16551.0,16854.0,11680.0,11585.0,0.6249741315841675,0.6492928266525269,0.2983957529067993,0.29317033290863037,0.0,0.0,0.0,0.0,0.0,0.0,0.0,0.0,1.6896460056304932,0.03841318582656908,0.027990489281256355,-0.05740430102524861,0.008998051285743713,-0.0219077430665493,0.0,-0.026097945868968964,-0.0023549061734229326,0.0
265,5,-4.7259465645765886e-05,-0.0002620774903334677,0.0014743683859705925,-0.005408833734691143,0.0014131806092336774,-0.021360041573643684,0.008496595546603203,-0.008247734978795052,-0.005019779317080975,0.0,0.0,0.0,0.0,0.0,0.0,-0.0069951945915818214,-0.002210099482908845,-0.0,0.0,0.0,0.0,-0.007140510715544224,-0.0014005701523274183,-0.00067477225093171,14374.0,14855.0,13844.0,13775.0,0.46433883905410767,0.49775588512420654,0.4287823438644409,0.4243012070655823,0.0,0.0,0.0,0.0,0.0,0.0,0.0,0.0,1.6896460056304932,0.0369871951999644,0.02188968800497833,-0.055123089419717566,0.008998051285743713,-0.0219077430665493,0.0,0.020897965878248215,0.002644017804414034,0.0
270,5,-4.166829603491351e-05,-0.0003155760932713747,0.001662222552113235,-0.0014925929717719555,0.006985102780163288,-0.031086524948477745,0.008496595546603203,-0.008247734978795052,-0.005019779317080975,0.0,0.0,0.0,0.0,0.0,0.0,-0.00216336315497756,-0.005062242038547993,-0.0,0.0,0.0,0.0,-0.007140510715544224,-0.0014005701523274183,-0.00067477225093171,14374.0,14855.0,13844.0,13775.0,0.46433883905410767,0.49775588512420654,0.4287823438644409,0.4243012070655823,0.0,0.0,0.0,0.0,0.0,0.0,0.0,0.0,1.6841145753860474,0.0409344414700179,0.02543275803063976,-0.05420629423661747,0.020542984828352928,-0.006753190420567989,0.0,0.020897965878248215,0.002644017804414034,0.0
275,5,-8.835949847707525e-05,-0.00028270037728361785,0.001641938230022788,-0.006199982017278671,-0.0011510452022776008,-0.010000488720834255,0.010990441776812077,-0.005639264825731516,-0.005110921338200569,0.0,0.0,0.0,0.0,0.0,0.0,-0.00216336315497756,-0.005062242038547993,-0.0,0.0,0.0,0.0,-0.02857837826013565,-0.004814120940864086,-0.0009396309033036232,14854.0,16041.0,11712.0,11867.0,0.4977245628833771,0.5852420926094055,0.30013495683670044,0.3087395429611206,0.0,0.0,0.0,0.0,0.0,0.0,0.0,0.0,1.6841145753860474,0.04105685880403129,0.01728486497307221,-0.05370522324029072,0.020542984828352928,-0.006753190420567989,0.0,-0.007806770503520966,0.0002494141517672688,0.0
280,5,-0.00011709175305441022,-0.00030684861121699214,0.0017805719980970025,-0.00592786306515336,0.0024373712949454784,-0.020636240020394325,0.010990441776812077,-0.005639264825731516,-0.005110921338200569,0.0,0.0,0.0,0.0,0.0,0.0,0.0008772223955020308,-0.005828064400702715,-0.0,0.0,0.0,0.0,-0.02857837826013565,-0.004814120940864086,-0.0009396309033036232,14854.0,16041.0,11712.0,11867.0,0.4977245628833771,0.5852420926094055,0.30013495683670044,0.3087395429611206,0.0,0.0,0.0,0.0,0.0,0.0,0.0,0.0,1.6901944875717163,0.037629977428415375,0.021190900109843817,-0.05258933165306528,0.023736150935292244,0.0027482411824166775,0.0,-0.007806770503520966,0.0002494141517672688,0.0
285,5,-0.00017206824850291014,-0.0002934978692792356,0.0017658143769949675,-0.008968325331807137,-0.0006271413876675069,-0.006483589764684439,0.015213372185826302,-0.0021766251884400845,-0.005490833427757025,0.0,0.0,0.0,0.0,0.0,0.0,0.00022700696717947721,-0.008349389769136906,-0.0,0.0,0.0,0.0,-0.02006489224731922,-0.007822519168257713,0.00017167032638099045,15087.0,16546.0,11142.0,11361.0,0.5143085718154907,0.6245852708816528,0.26959338784217834,0.28115877509117126,0.0,0.0,0.0,0.0,0.0,0.0,0.0,0.0,1.7187145948410034,0.03877112931558925,0.015137879405840894,-0.052772155433586584,0.034578438848257065,0.0007231885101646185,0.0,-0.00216336315497756,-0.005062242038547993,0.0
290,5,-0.00022245898435357958,-0.00033061826252378523,0.0019073827425017953,-0.009634217247366905,0.004203593358397484,-0.019581634551286697,0.015213372185826302,-0.0021766251884400845,-0.005490833427757025,0.0,0.0,0.0,0.0,0.0,0.0,0.00022700696717947721,-0.008349389769136906,-0.0,0.0,0.0,0.0,-0.02006489224731922,-0.007822519168257713,0.00017167032638099045,15087.0,16546.0,11142.0,11361.0,0.5143085718154907,0.6245852708816528,0.26959338784217834,0.28115877509117126,0.0,0.0,0.0,0.0,0.0,0.0,0.0,0.0,1.7187145948410034,0.035439943825989445,0.019964551642230408,-0.05166479817349233,0.034578438848257065,0.0007231885101646185,0.0,-0.00216336315497756,-0.005062242038547993,0.0
295,5,-0.0002298951440025121,-0.0003186353715136647,0.0017695979913696647,-0.0047460258938372135,0.0002434905181871727,0.00870151724666357,0.015226876363158226,0.00024490428040735424,-0.005410472396761179,0.0,0.0,0.0,0.0,0.0,0.0,-0.0008621256565675139,-0.004715525079518557,-0.0,0.0,0.0,0.0,-0.02006489224731922,-0.007822519168257713,0.00017167032638099045,14297.0,15106.0,13292.0,11997.0,0.4590529501438141,0.5157129764556885,0.39332273602485657,0.3160259425640106,0.0,0.0,0.0,0.0,0.0,0.0,0.0,0.0,1.677746295928955,0.04022161871651149,0.011072518657781935,-0.05247411706000476,0.019063668325543404,-0.0026810525450855494,-0.0,-0.00216336315497756,-0.005062242038547993,0.0
301,5,-0.00022828445071354508,-0.0003426313924137503,0.0017973522190004587,-0.001705128001049161,0.0029769183602184057,0.0001500997313996777,0.015226876363158226,0.00024490428040735424,-0.005410472396761179,0.0,0.0,0.0,0.0,0.0,0.0,-0.0008621256565675139,-0.004715525079518557,-0.0,0.0,0.0,0.0,-0.02006489224731922,-0.007822519168257713,0.00017167032638099045,14297.0,15106.0,13292.0,11997.0,0.4590529501438141,0.5157129764556885,0.39332273602485657,0.3160259425640106,0.0,0.0,0.0,0.0,0.0,0.0,0.0,0.0,1.677746295928955,0.037967335152376915,0.013939618778885277,-0.05142813872393445,0.019063668325543404,-0.0026810525450855494,-0.0,-0.00216336315497756,-0.005062242038547993,0.0
306,5,-0.00027808145387098193,-0.0004174260830041021,0.0017665993655100465,-0.006657692138105631,0.010166129097342491,0.0037503759376704693,0.015226876363158226,0.00024490428040735424,-0.005410472396761179,0.0,0.0,0.0,0.0,0.0,0.0,-0.0008621256565675139,-0.004715525079518557,-0.0,0.0,0.0,0.0,-0.02006489224731922,-0.007822519168257713,0.00017167032638099045,14297.0,15106.0,13292.0,11997.0,0.4590529501438141,0.5157129764556885,0.39332273602485657,0.3160259425640106,0.0,0.0,0.0,0.0,0.0,0.0,0.0,0.0,1.677746295928955,0.052859425161645254,0.008615576865139906,-0.051732760770159696,0.019063668325543404,-0.0026810525450855494,-0.0,-0.00216336315497756,-0.005062242038547993,0.0
311,5,-0.0002545881434343755,-0.0004104581312276423,0.0018014037050306797,0.00015612113929819316,0.0032302967738360167,-0.0026763721834868193,0.015891093760728836,0.0014397840714082122,-0.005490971729159355,0.0,0.0,0.0,0.0,0.0,0.0,-0.01242953259497881,-0.0062658763490617275,-0.0,0.0,0.0,0.0,-0.004765037447214127,-0.0010184249840676785,-0.000537620042450726,14553.0,15368.0,12528.0,12279.0,0.4766584634780884,0.534709095954895,0.3466847240924835,0.3321421444416046,0.0,0.0,0.0,0.0,0.0,0.0,0.0,0.0,1.7551835775375366,0.03643316471842978,0.015666369313855077,-0.05046512710000539,0.02649841457605362,-0.040435757488012314,-0.0,0.00022700696717947721,-0.008349389769136906,0.0
316,5,-0.0002545881434343755,-0.0004104581312276423,0.0018014037050306797,0.00015612113929819316,0.0032302967738360167,-0.0026763721834868193,0.015891093760728836,0.0014397840714082122,-0.005490971729159355,0.0,0.0,0.0,0.0,0.0,0.0,-0.01242953259497881,-0.0062658763490617275,-0.0,0.0,0.0,0.0,-0.004765037447214127,-0.0010184249840676785,-0.000537620042450726,14553.0,15368.0,12528.0,12279.0,0.4766584634780884,0.534709095954895,0.3466847240924835,0.3321421444416046,0.0,0.0,0.0,0.0,0.0,0.0,0.0,0.0,1.7551835775375366,0.03643316471842978,0.015666369313855077,-0.05046512710000539,0.02649841457605362,-0.040435757488012314,-0.0,0.00022700696717947721,-0.008349389769136906,0.0
321,5,-0.0003256523050367832,-0.0004932457813993096,0.0019385262858122587,-0.01925956830382347,-0.0015715131303295493,-0.008161185309290886,0.013914328999817371,0.0005108843906782568,-0.0053978958167135715,0.0,0.0,0.0,0.0,0.0,0.0,-0.004663293715566397,-0.00020399245840962976,-0.0,0.0,0.0,0.0,-0.025593526661396027,0.0006228525307960808,-0.001030285726301372,13652.0,13923.0,13743.0,14107.0,0.41626134514808655,0.4339909255504608,0.422198623418808,0.44626370072364807,0.0,0.0,0.0,0.0,0.0,0.0,0.0,0.0,1.6647429466247559,0.036374177679206844,0.01756668764620269,-0.05065219353930673,0.0008182923193089664,-0.014389499090611935,0.0,-0.0008621256565675139,-0.004715525079518557,0.0
326,5,-0.0003195391327608377,-0.0005753091536462307,0.0019689828623086214,-0.006970247719436884,0.009218995459377766,-0.006919278763234615,0.013914328999817371,0.0005108843906782568,-0.0053978958167135715,0.0,0.0,0.0,0.0,0.0,0.0,-0.004663293715566397,-0.00020399245840962976,-0.0,0.0,0.0,0.0,-0.025593526661396027,0.0006228525307960808,-0.001030285726301372,13652.0,13923.0,13743.0,14107.0,0.41626134514808655,0.4339909255504608,0.422198623418808,0.44626370072364807,0.0,0.0,0.0,0.0,0.0,0.0,0.0,0.0,1.6647429466247559,0.032528812991925476,0.018794796928577547,-0.05008803340119153,0.0008182923193089664,-0.014389499090611935,0.0,-0.0008621256565675139,-0.004715525079518557,0.0
331,5,0.001260402612388134,-0.0029090200550854206,0.008338934741914272,-0.006970247719436884,0.009218995459377766,-0.006919278763234615,0.014915627427399158,-0.0001342205359833315,-0.005375346168875694,0.0,0.0,0.0,0.0,0.0,0.0,-0.011630152352154255,-0.006611276883631945,-0.0,0.0,0.0,0.0,-0.020033234730362892,-0.0006838788976892829,0.0001954700710484758,15478.0,15019.0,13005.0,12198.0,0.5428381562232971,0.5094408392906189,0.37543126940727234,0.3274732530117035,0.0,0.0,0.0,0.0,0.0,0.0,0.0,0.0,1.7514899969100952,0.09381335392825307,0.32352225006399626,0.001921887088899436,0.02790052443742752,-0.0377558134496212,0.0,-0.01242953259497881,-0.0062658763490617275,0.0
336,5,0.0010448230896145105,-0.0029655522666871548,0.007834130898118019,-0.028657639399170876,0.010471475310623646,0.05780875310301781,0.014915627427399158,-0.0001342205359833315,-0.005375346168875694,0.0,0.0,0.0,0.0,0.0,0.0,-0.011630152352154255,-0.006611276883631945,-0.0,0.0,0.0,0.0,-0.020033234730362892,-0.0006838788976892829,0.0001954700710484758,15478.0,15019.0,13005.0,12198.0,0.5428381562232971,0.5094408392906189,0.37543126940727234,0.3274732530117035,0.0,0.0,0.0,0.0,0.0,0.0,0.0,0.0,1.7514899969100952,0.07923635194983741,0.3008384303338488,0.016504399280981432,0.02790052443742752,-0.0377558134496212,0.0,-0.01242953259497881,-0.0062658763490617275,0.0
341,5,0.0010049494449049234,-0.003085629316046834,0.007816997356712818,-0.01624789834022522,0.018597831949591637,0.025179611518979073,0.013987046666443348,-0.0005033194902352989,-0.0051900893449783325,0.0,0.0,0.0,0.0,0.0,0.0,-0.015551252290606499,-0.021884599700570107,-0.0,0.0,0.0,0.0,-0.014954399317502975,-0.001627048826776445,-0.0015318957157433033,14436.0,15268.0,12916.0,13167.0,0.46855074167251587,0.5274530649185181,0.3699955940246582,0.3854905962944031,0.0,0.0,0.0,0.0,0.0,0.0,0.0,0.0,1.9293256998062134,0.07659235760069048,0.2980780319745162,0.018008867443885405,0.10172059386968613,-0.055609330534935,-0.0,-0.011630152352154255,-0.006611276883631945,0.0
346,5,0.0009392081992700696,-0.003266621381044388,0.007319222670048475,-0.014388106763362885,0.02915816754102707,0.06980472803115845,0.013987046666443348,-0.0005033194902352989,-0.0051900893449783325,0.0,0.0,0.0,0.0,0.0,0.0,-0.015551252290606499,-0.021884599700570107,-0.0,0.0,0.0,0.0,-0.014954399317502975,-0.001627048826776445,-0.0015318957157433033,14436.0,15268.0,12916.0,13167.0,0.46855074167251587,0.5274530649185181,0.3699955940246582,0.3854905962944031,0.0,0.0,0.0,0.0,0.0,0.0,0.0,0.0,1.9293256998062134,0.09856275571752135,0.2753285886637592,0.011489080441191915,0.10172059386968613,-0.055609330534935,-0.0,-0.011630152352154255,-0.006611276883631945,0.0
351,5,0.0007280684076249599,-0.0031402232125401497,0.006629506591707468,-0.031092019751667976,-0.003504497930407524,0.11068783700466156,0.010970819741487503,-0.0005243238992989063,-0.00537359481677413,0.0,0.0,0.0,0.0,0.0,0.0,-0.034698326140642166,-0.010227725841104984,-0.0,0.0,0.0,0.0,-0.005180979147553444,-0.007781731430441141,-0.0011337291216477752,13867.0,16003.0,14334.0,14239.0,0.4303112030029297,0.5822794437408447,0.4616059362888336,0.4551291763782501,0.0,0.0,0.0,0.0,0.0,0.0,0.0,0.0,1.9808250665664673,0.09184999138783673,0.2372272261589984,0.008131903206701116,0.0487874411046505,-0.12735173106193542,-0.0,-0.015551252290606499,-0.021884599700570107,0.0
356,5,0.0008405963890254498,-0.0029968831222504377,0.007339723873883486,0.001066553988493979,-0.01860262081027031,-0.04095091298222542,0.010970819741487503,-0.0005243238992989063,-0.00537359481677413,0.0,0.0,0.0,0.0,0.0,0.0,-0.034698326140642166,-0.010227725841104984,-0.0,0.0,0.0,0.0,-0.005180979147553444,-0.007781731430441141,-0.0011337291216477752,13867.0,16003.0,14334.0,14239.0,0.4303112030029297,0.5822794437408447,0.4616059362888336,0.4551291763782501,0.0,0.0,0.0,0.0,0.0,0.0,0.0,0.0,1.9808250665664673,0.08479974711600838,0.26867541924886545,0.003245134210715999,0.0487874411046505,-0.12735173106193542,-0.0,-0.015551252290606499,-0.021884599700570107,0.0
361,5,0.0007612402550876141,-0.003597264876589179,0.00714206974953413,-0.009096117690205574,0.06460477411746979,0.0073381164111196995,0.007748147938400507,0.0002689530374482274,-0.005558703560382128,0.0,0.0,0.0,0.0,0.0,0.0,0.016225246712565422,0.002023376990109682,-0.0,0.0,0.0,0.0,-0.008177803829312325,-0.008759518153965473,0.00012419406266417354,15891.0,16826.0,13144.0,13014.0,0.5737972259521484,0.6470128297805786,0.38404420018196106,0.37597087025642395,0.0,0.0,0.0,0.0,0.0,0.0,0.0,0.0,1.769883155822754,0.0912977532800766,0.26333503497028987,0.023319242053945834,-0.008628113195300102,0.053224287927150726,0.0,-0.015551252290606499,-0.021884599700570107,0.0
366,5,0.0010071593569591641,-0.0036235901061445475,0.007468114607036114,0.025871846824884415,0.02900093048810959,-0.03619012236595154,0.007748147938400507,0.0002689530374482274,-0.005558703560382128,0.0,0.0,0.0,0.0,0.0,0.0,0.016225246712565422,0.002023376990109682,-0.0,0.0,0.0,0.0,-0.008177803829312325,-0.008759518153965473,0.00012419406266417354,15891.0,16826.0,13144.0,13014.0,0.5737972259521484,0.6470128297805786,0.38404420018196106,0.37597087025642395,0.0,0.0,0.0,0.0,0.0,0.0,0.0,0.0,1.769883155822754,0.09613746474476177,0.2809145385052622,0.020330076929174743,-0.008628113195300102,0.053224287927150726,0.0,-0.015551252290606499,-0.021884599700570107,0.0
371,5,-0.00013226416194811463,-0.0017727301456034184,0.0021677056793123484,0.025871846824884415,0.02900093048810959,-0.03619012236595154,0.005939084570854902,0.0009804710280150175,-0.005717354826629162,0.0,0.0,0.0,0.0,0.0,0.0,-0.03389168903231621,0.020775292068719864,-0.0,0.0,0.0,0.0,-0.031021062284708023,-0.003922309260815382,-0.0009893737733364105,13137.0,13493.0,14583.0,14908.0,0.38357457518577576,0.4060637056827545,0.4787079393863678,0.5015369057655334,0.0,0.0,0.0,0.0,0.0,0.0,0.0,0.0,2.0501790046691895,0.041954827045525556,0.027717007979495206,-0.03644238775650946,-0.10256758332252502,-0.1287485957145691,0.0,-0.034698326140642166,-0.010227725841104984,0.0
377,6,-0.0001807539665605873,-0.0019119095522910357,0.0008571044309064746,0.004529962781816721,0.028301900252699852,0.1427961140871048,0.005939084570854902,0.0009804710280150175,-0.005717354826629162,0.0,0.0,0.0,0.0,0.0,0.0,-0.03389168903231621,0.020775292068719864,-0.0,0.0,0.0,0.0,-0.031021062284708023,-0.003922309260815382,-0.0009893737733364105,13137.0,13493.0,14583.0,14908.0,0.38357457518577576,0.4060637056827545,0.4787079393863678,0.5015369057655334,0.0,0.0,0.0,0.0,0.0,0.0,0.0,0.0,2.0501790046691895,0.04031859159562356,-0.03174972952307135,-0.030495303436793474,-0.10256758332252502,-0.1287485957145691,0.0,-0.034698326140642166,-0.010227725841104984,0.0
382,5,0.0012470923829823732,-0.0034893390256911516,0.008970430120825768,0.004529962781816721,0.028301900252699852,0.1427961140871048,0.004267850425094366,0.00223976350389421,-0.0058632418513298035,0.0,0.0,0.0,0.0,0.0,0.0,-0.03256357088685036,0.003434735117480159,-0.0,0.0,0.0,0.0,0.013191205449402332,-0.002124166814610362,-0.0008342129876837134,16331.0,17112.0,11949.0,14295.0,0.6076663732528687,0.6702581644058228,0.31331777572631836,0.4589366316795349,0.0,0.0,0.0,0.0,0.0,0.0,0.0,0.0,1.9343851804733276,0.08107727376898788,0.34392559103086184,0.006070578377629618,-0.01600136235356331,-0.11671968549489975,-0.0,0.016225246712565422,0.002023376990109682,0.0
388,6,-0.00021162086341064423,-0.00228301458992064,0.0011319502955302596,0.004529962781816721,0.028301900252699852,0.1427961140871048,0.004267850425094366,0.00223976350389421,-0.0058632418513298035,0.0,0.0,0.0,0.0,0.0,0.0,-0.03256357088685036,0.003434735117480159,-0.0,0.0,0.0,0.0,0.013191205449402332,-0.002124166814610362,-0.0008342129876837134,16331.0,17112.0,11949.0,14295.0,0.6076663732528687,0.6702581644058228,0.31331777572631836,0.4589366316795349,0.0,0.0,0.0,0.0,0.0,0.0,0.0,0.0,1.9343851804733276,0.03993915109496379,-0.017121589656038674,-0.021856263618961515,-0.01600136235356331,-0.11671968549489975,-0.0,0.016225246712565422,0.002023376990109682,0.0
393,5,-0.00015091971727088094,-0.0021128207445144653,0.0012057643616572022,0.009096122346818447,-0.009102494455873966,0.04826076328754425,0.004639687016606331,0.004382534418255091,-0.005157736595720053,0.0,0.0,0.0,0.0,0.0,0.0,-0.03304915130138397,0.003389327321201563,-0.0,0.0,0.0,0.0,-0.034527964890003204,-0.0002650347596500069,0.003467762377113104,17202.0,16012.0,13972.0,10486.0,0.6776445508003235,0.5830318331718445,0.4372153878211975,0.23649340867996216,0.0,0.0,0.0,0.0,0.0,0.0,0.0,0.0,1.9394428730010986,0.03301072240291638,-0.013376595131672457,-0.03641340636307369,-0.015830853953957558,-0.11876875162124634,-0.0,-0.03389168903231621,0.020775292068719864,0.0
398,5,-0.00020640336151700467,-0.002099763834849,0.0014933821512386203,-0.0030195889994502068,-0.0052078175358474255,-0.015209825709462166,0.004639687016606331,0.004382534418255091,-0.005157736595720053,0.0,0.0,0.0,0.0,0.0,0.0,-0.03304915130138397,0.003389327321201563,-0.0,0.0,0.0,0.0,-0.034527964890003204,-0.0002650347596500069,0.003467762377113104,17202.0,16012.0,13972.0,10486.0,0.6776445508003235,0.5830318331718445,0.4372153878211975,0.23649340867996216,0.0,0.0,0.0,0.0,0.0,0.0,0.0,0.0,1.9394428730010986,0.04133554394994902,-0.009797390456919736,-0.03259595002457962,-0.015830853953957558,-0.11876875162124634,-0.0,-0.03389168903231621,0.020775292068719864,0.0
403,5,-0.00024298447533510625,-0.002025104593485594,0.0017418524948880076,-0.005597568582743406,-0.011042241007089615,-0.03590037673711777,0.003829346038401127,0.006998838856816292,-0.005548862274736166,0.0,0.0,0.0,0.0,0.0,0.0,0.0025566350668668747,-0.003102496499195695,-0.0,0.0,0.0,0.0,-0.027388032525777817,-0.0038778777234256268,-0.003053990425541997,15513.0,16883.0,12754.0,13034.0,0.5454089641571045,0.6515634059906006,0.36018306016921997,0.3772296905517578,0.0,0.0,0.0,0.0,0.0,0.0,0.0,0.0,1.6656270027160645,0.03739532991776589,-0.0029749800410994657,-0.03448334778053282,0.012451992370188236,0.007893219590187073,0.0,-0.03256357088685036,0.003434735117480159,0.0
409,5,-0.0003001033910550177,-0.002263112459331751,0.0022447369992733,-0.009093297645449638,0.02414405345916748,-0.07470628619194031,0.003829346038401127,0.006998838856816292,-0.005548862274736166,0.0,0.0,0.0,0.0,0.0,0.0,0.0025566350668668747,-0.003102496499195695,-0.0,0.0,0.0,0.0,-0.027388032525777817,-0.0038778777234256268,-0.003053990425541997,15513.0,16883.0,12754.0,13034.0,0.5454089641571045,0.6515634059906006,0.36018306016921997,0.3772296905517578,0.0,0.0,0.0,0.0,0.0,0.0,0.0,0.0,1.6656270027160645,0.04216913077710408,0.015343744496391263,-0.027798030610506428,0.012451992370188236,0.007893219590187073,0.0,-0.03256357088685036,0.003434735117480159,0.0
414,5,-0.00023113966744858772,-0.0020373151637613773,0.002137868432328105,0.004638328216969967,-0.01743806153535843,-0.017058292403817177,0.003829346038401127,0.006998838856816292,-0.005548862274736166,0.0,0.0,0.0,0.0,0.0,0.0,-0.02908860705792904,-0.007760394364595413,-0.0,0.0,0.0,0.0,-0.027388032525777817,-0.0038778777234256268,-0.003053990425541997,15513.0,16883.0,12754.0,13034.0,0.5454089641571045,0.6515634059906006,0.36018306016921997,0.3772296905517578,0.0,0.0,0.0,0.0,0.0,0.0,0.0,0.0,1.9123408794403076,0.028568265269095006,0.01222931462053328,-0.03935987669523788,0.0357448011636734,-0.10308263450860977,0.0,-0.03256357088685036,0.003434735117480159,0.0
419,5,-0.0003566675877664238,-0.0019886032678186893,0.0019906398374587297,-0.013208020478487015,-0.012820661999285221,0.010844111442565918,0.005089700222015381,0.009486660361289978,-0.00591927720233798,0.0,0.0,0.0,0.0,0.0,0.0,-0.02908860705792904,-0.007760394364595413,-0.0,0.0,0.0,0.0,-0.03895411640405655,-0.007526731118559837,-0.0015743238618597388,12808.0,15650.0,12826.0,13113.0,0.3634202480316162,0.555596649646759,0.3645063042640686,0.3821038007736206,0.0,0.0,0.0,0.0,0.0,0.0,0.0,0.0,1.9123408794403076,0.040797852299075704,-0.004229268110214589,-0.03786074575767354,0.0357448011636734,-0.10308263450860977,0.0,-0.03304915130138397,0.003389327321201563,0.0
424,5,-0.0003809635527431965,-0.001914897351525724,0.0021875249221920967,-0.008198724128305912,-0.013972966000437737,-0.019288573414087296,0.005089700222015381,0.009486660361289978,-0.00591927720233798,0.0,0.0,0.0,0.0,0.0,0.0,0.011134220287203789,-0.011906709522008896,-0.0,0.0,0.0,0.0,-0.03895411640405655,-0.007526731118559837,-0.0015743238618597388,12808.0,15650.0,12826.0,13113.0,0.3634202480316162,0.555596649646759,0.3645063042640686,0.3821038007736206,0.0,0.0,0.0,0.0,0.0,0.0,0.0,0.0,1.7947094440460205,0.03806005914612633,0.004115674173999433,-0.04291968707322624,0.051487360149621964,0.037037886679172516,-0.0,-0.03304915130138397,0.003389327321201563,0.0
429,5,-0.0003524191852193326,-0.001781381550244987,0.0021569891832768917,0.00014583696611225605,-0.021611085161566734,-0.004051125142723322,0.005029755644500256,0.01242100726813078,-0.005558629985898733,0.0,0.0,0.0,0.0,0.0,0.0,0.011134220287203789,-0.011906709522008896,-0.0,0.0,0.0,0.0,-0.005087440833449364,-0.010738225653767586,0.0020306590013206005,13572.0,14088.0,14619.0,12214.0,0.4111146330833435,0.4449455142021179,0.4812160134315491,0.32835084199905396,0.0,0.0,0.0,0.0,0.0,0.0,0.0,0.0,1.7947094440460205,0.02486570266201058,0.008473084221920722,-0.05084593354951108,0.051487360149621964,0.037037886679172516,-0.0,0.0025566350668668747,-0.003102496499195695,0.0
434,5,-0.0004860149056185037,-0.0017405712278559804,0.002092585666105151,-0.015973152592778206,-0.01354167703539133,0.006107978988438845,0.005029755644500256,0.01242100726813078,-0.005558629985898733,0.0,0.0,0.0,0.0,0.0,0.0,0.02114839293062687,-0.0003175105666741729,-0.0,0.0,0.0,0.0,-0.005087440833449364,-0.010738225653767586,0.0020306590013206005,13572.0,14088.0,14619.0,12214.0,0.4111146330833435,0.4449455142021179,0.4812160134315491,0.32835084199905396,0.0,0.0,0.0,0.0,0.0,0.0,0.0,0.0,1.8149265050888062,0.032863029923961284,0.00014124338116465565,-0.05001569432218235,0.0013882637722417712,0.07113546133041382,0.0,0.0025566350668668747,-0.003102496499195695,0.0
439,5,-0.0005410065059550107,-0.0017433668253943324,0.0020471264142543077,-0.012988255359232426,-0.005081196315586567,0.00789828784763813,0.0038943763356655836,0.012182180769741535,-0.0056548044085502625,0.0,0.0,0.0,0.0,0.0,0.0,0.02114839293062687,-0.0003175105666741729,-0.0,0.0,0.0,0.0,-0.0246894471347332,-0.006365569308400154,-0.0012265664990991354,15463.0,16578.0,13037.0,12852.0,0.5417347550392151,0.6271507143974304,0.37738320231437683,0.3660722076892853,0.0,0.0,0.0,0.0,0.0,0.0,0.0,0.0,1.8149265050888062,0.03150225211510472,0.0005362526694726972,-0.052066121820665896,0.0013882637722417712,0.07113546133041382,0.0,-0.02908860705792904,-0.007760394364595413,0.0
444,5,-0.0005340193747542799,-0.001805959502235055,0.0022280337288975716,-0.004356844816356897,0.005478643346577883,-0.01854955404996872,0.0038943763356655836,0.012182180769741535,-0.0056548044085502625,0.0,0.0,0.0,0.0,0.0,0.0,0.0028565912507474422,-0.012144118547439575,-0.0,0.0,0.0,0.0,-0.0246894471347332,-0.006365569308400154,-0.0012265664990991354,15463.0,16578.0,13037.0,12852.0,0.5417347550392151,0.6271507143974304,0.37738320231437683,0.3660722076892853,0.0,0.0,0.0,0.0,0.0,0.0,0.0,0.0,1.7661151885986328,0.020051176514413117,0.016900875175163574,-0.05204052194834862,0.05168023332953453,0.009351355955004692,-0.0,-0.02908860705792904,-0.007760394364595413,0.0
449,5,-0.000534909195266664,-0.001756050973199308,0.002114933915436268,-0.001849513966590166,-0.003797568380832672,0.00615214416757226,-0.0004162318946328014,0.009013702161610126,-0.005655849352478981,0.0,0.0,0.0,0.0,0.0,0.0,0.0028565912507474422,-0.012144118547439575,-0.0,0.0,0.0,0.0,0.019681617617607117,-0.003142993664368987,2.3742899429635145e-05,12069.0,12837.0,15488.0,15787.0,0.32009315490722656,0.3651881217956543,0.5435347557067871,0.5658934116363525,0.0,0.0,0.0,0.0,0.0,0.0,0.0,0.0,1.7661151885986328,0.02619604711273298,0.012450758715534244,-0.05437424563151953,0.05168023332953453,0.009351355955004692,-0.0,0.011134220287203789,-0.011906709522008896,0.0
454,5,-0.0006377271492965519,-0.0017343566287308931,0.0022196548525243998,-0.013077964074909687,-0.004122350364923477,-0.010105647146701813,-0.0004162318946328014,0.009013702161610126,-0.005655849352478981,0.0,0.0,0.0,0.0,0.0,0.0,0.001454391167499125,-0.002476886846125126,-0.0,0.0,0.0,0.0,0.019681617617607117,-0.003142993664368987,2.3742899429635145e-05,12069.0,12837.0,15488.0,15787.0,0.32009315490722656,0.3651881217956543,0.5435347557067871,0.5658934116363525,0.0,0.0,0.0,0.0,0.0,0.0,0.0,0.0,1.6551015377044678,0.027981049815580618,0.015659991191426182,-0.054133949509923965,0.009878290817141533,0.004461841657757759,-0.0,0.011134220287203789,-0.011906709522008896,0.0
459,5,-0.0006924212211742997,-0.0017228212673217058,0.002191712614148855,-0.01179447304457426,-0.0030331772286444902,-0.000689200300257653,-0.0016270680353045464,0.006007585674524307,-0.005464399233460426,0.0,0.0,0.0,0.0,0.0,0.0,0.001454391167499125,-0.002476886846125126,-0.0,0.0,0.0,0.0,0.02364971488714218,0.005395632237195969,-0.00022060255287215114,13297.0,12021.0,15482.0,15719.0,0.3936314284801483,0.3173767626285553,0.5431082844734192,0.5608100295066833,0.0,0.0,0.0,0.0,0.0,0.0,0.0,0.0,1.6551015377044678,0.028447428765156366,0.014779479635680512,-0.05486724482392828,0.009878290817141533,0.004461841657757759,-0.0,0.02114839293062687,-0.0003175105666741729,0.0
464,5,-0.0006940368330106139,-0.0017712570261210203,0.0021041042637079954,-0.004911661148071289,0.004599013831466436,0.010237330570816994,-0.0016270680353045464,0.006007585674524307,-0.005464399233460426,0.0,0.0,0.0,0.0,0.0,0.0,0.0005449415766634047,-0.011364081874489784,-0.0,0.0,0.0,0.0,0.02364971488714218,0.005395632237195969,-0.00022060255287215114,13297.0,12021.0,15482.0,15719.0,0.3936314284801483,0.3173767626285553,0.5431082844734192,0.5608100295066833,0.0,0.0,0.0,0.0,0.0,0.0,0.0,0.0,1.7544130086898804,0.028308091667076766,0.012838426696146083,-0.054777320178642,0.04804062843322754,0.0017721084877848625,0.0,0.02114839293062687,-0.0003175105666741729,0.0
470,5,-0.000735730049200356,-0.0018045032629743218,0.002051539020612836,-0.006967851892113686,0.005829162895679474,0.010402772575616837,5.643242911901325e-05,0.003812019946053624,-0.005758334416896105,0.0,0.0,0.0,0.0,0.0,0.0,0.0005449415766634047,-0.011364081874489784,-0.0,0.0,0.0,0.0,-0.01560154464095831,0.0011234937701374292,-0.0017217404674738646,13596.0,15085.0,13005.0,14367.0,0.41268062591552734,0.5141739845275879,0.37543487548828125,0.46382570266723633,0.0,0.0,0.0,0.0,0.0,0.0,0.0,0.0,1.7544130086898804,0.03119509425081864,0.01140459739468166,-0.05441320715862505,0.03018157184123993,-0.031917233020067215,-0.0,0.001454391167499125,-0.002476886846125126,0.0
475,5,-0.0008060595137067139,-0.0018778233788907528,0.002026516245678067,-0.008013312704861164,0.004489750601351261,0.005712095648050308,5.643242911901325e-05,0.003812019946053624,-0.005758334416896105,0.0,0.0,0.0,0.0,0.0,0.0,-0.009876555763185024,-0.0071844058111310005,-0.0,0.0,0.0,0.0,-0.01560154464095831,0.0011234937701374292,-0.0017217404674738646,13596.0,15085.0,13005.0,14367.0,0.41268062591552734,0.5141739845275879,0.37543487548828125,0.46382570266723633,0.0,0.0,0.0,0.0,0.0,0.0,0.0,0.0,1.743508219718933,0.03494547173141735,0.011027996100365133,-0.05430243381017261,0.03018157184123993,-0.031917233020067215,-0.0,0.001454391167499125,-0.002476886846125126,0.0
480,5,-0.0008871846366673708,-0.002042517764493823,0.0022369367070496082,-0.012940343469381332,0.0215592198073864,-0.02296559140086174,0.00332542578689754,0.0027017854154109955,-0.00640827976167202,0.0,0.0,0.0,0.0,0.0,0.0,-0.009876555763185024,-0.0071844058111310005,-0.0,0.0,0.0,0.0,-0.018047407269477844,-0.005710921715945005,-0.0017283897614106536,14185.0,15663.0,13047.0,12888.0,0.4514999985694885,0.556566059589386,0.37805670499801636,0.3682902455329895,0.0,0.0,0.0,0.0,0.0,0.0,0.0,0.0,1.743508219718933,0.03377222768325441,0.020845240640188896,-0.05194142007609577,0.03018157184123993,-0.031917233020067215,-0.0,0.0005449415766634047,-0.011364081874489784,0.0
485,5,-0.0008457349031232297,-0.002083896193653345,0.002021069871261716,-0.00020217031124047935,0.013589123263955116,0.016717780381441116,0.00332542578689754,0.0027017854154109955,-0.00640827976167202,0.0,0.0,0.0,0.0,0.0,0.0,-0.026110710576176643,-0.011635156348347664,-0.0,0.0,0.0,0.0,-0.018047407269477844,-0.005710921715945005,-0.0017283897614106536,14185.0,15663.0,13047.0,12888.0,0.4514999985694885,0.556566059589386,0.37805670499801636,0.3682902455329895,0.0,0.0,0.0,0.0,0.0,0.0,0.0,0.0,1.9058691263198853,0.025663668410908818,0.0186756793210062,-0.05411942285234531,0.053414519876241684,-0.09222117811441422,0.0,0.0005449415766634047,-0.011364081874489784,0.0
490,5,-0.0008581162546761334,-0.002277454361319542,0.001957467058673501,-0.001566627761349082,0.028662603348493576,0.01431943941861391,0.006221969611942768,0.0037197426427155733,-0.006708925124257803,0.0,0.0,0.0,0.0,0.0,0.0,-0.026110710576176643,-0.011635156348347664,-0.0,0.0,0.0,0.0,-0.022222135215997696,-0.00793444737792015,-0.0015958111034706235,14185.0,15663.0,13047.0,12888.0,0.4514999985694885,0.556566059589386,0.37805670499801636,0.3682902455329895,0.0,0.0,0.0,0.0,0.0,0.0,0.0,0.0,1.9058691263198853,0.026906611162344135,0.012201651751863607,-0.055966909657314455,0.053414519876241684,-0.09222117811441422,0.0,-0.009876555763185024,-0.0071844058111310005,0.0
495,5,-0.0008581162546761334,-0.002277454361319542,0.001957467058673501,-0.001566627761349082,0.028662603348493576,0.01431943941861391,0.006221969611942768,0.0037197426427155733,-0.006708925124257803,0.0,0.0,0.0,0.0,0.0,0.0,-0.03340119123458862,-0.00226839492097497,-0.0,0.0,0.0,0.0,-0.022222135215997696,-0.00793444737792015,-0.0015958111034706235,14185.0,15663.0,13047.0,12888.0,0.4514999985694885,0.556566059589386,0.37805670499801636,0.3682902455329895,0.0,0.0,0.0,0.0,0.0,0.0,0.0,0.0,1.9414780139923096,0.026906611162344135,0.012201651751863607,-0.055966909657314455,0.010606213472783566,-0.12015898525714874,-0.0,-0.009876555763185024,-0.0071844058111310005,0.0
500,5,-0.0009605567320249975,-0.0024623919744044542,0.0019906407687813044,-0.004782462492585182,0.021259114146232605,0.011690941639244556,0.006885284557938576,0.00568796182051301,-0.006995094940066338,0.0,0.0,0.0,0.0,0.0,0.0,-0.03340119123458862,-0.00226839492097497,-0.0,0.0,0.0,0.0,-0.027761319652199745,-0.00933783408254385,-0.002606474794447422,13978.0,16406.0,12375.0,12660.0,0.43766480684280396,0.6135809421539307,0.33771127462387085,0.3545512557029724,0.0,0.0,0.0,0.0,0.0,0.0,0.0,0.0,1.9414780139923096,0.030916568897176713,0.007387930362850986,-0.055955812455546886,0.010606213472783566,-0.12015898525714874,-0.0,-0.026110710576176643,-0.011635156348347664,0.0
