timestamp,dt,pos_x,pos_y,pos_z,vel_x,vel_y,vel_z,roll,pitch,yaw,agv_x,agv_y,agv_z,x_ref,y_ref,z_ref,roll_ref,pitch_ref,yaw_ref,x_vel_ref,y_vel_ref,z_vel_ref,x_torque,y_torque,z_torque,w0,w1,w2,w3,u0,u1,u2,u3,m0req,m1req,m2req,m3req,thrust0,thrust1,thrust2,thrust3,thrust_ref,roll_vicon,pitch_vicon,yaw_vicon,acc_x,acc_y,acc_z
5,5,0.0,0.0,0.0,0.0012947755167260766,-0.0017186946934089065,-0.00039086173637770116,-0.013381211087107658,-0.013147630728781223,0.0025317517574876547,-0.0015431275824084878,0.00047203616122715175,0.0005107413162477314,0.0,0.0,0.0,0.0021104018669575453,0.0012229763669893146,-0.0,0.0,0.0,0.0,0.0015483296010643244,0.0014315644511952996,0.00012917233107145876,1495.0,1495.0,1495.0,1495.0,0.0,0.0,0.0,0.0,0.0,0.0,0.0,0.0,1495.0,1495.0,1495.0,1495.0,1.647619366645813,0.004588377882454044,0.040231329809624024,-0.0809731888249789,-0.0048554083332419395,0.006445105187594891,0.0
33,28,0.0,0.0,0.0,-0.0027197531890124083,0.002602302236482501,0.0009302838006988168,-0.013381211087107658,-0.013147630728781223,0.0025317517574876547,-0.0015431275824084878,0.00047203616122715175,0.0005107413162477314,0.0,0.0,0.0,0.0021104018669575453,0.0012229763669893146,-0.0,0.0,0.0,0.0,0.0015483296010643244,0.0014315644511952996,0.00012917233107145876,1495.0,1495.0,1495.0,1495.0,0.0,0.0,0.0,0.0,0.0,0.0,0.0,0.0,1495.0,1495.0,1495.0,1495.0,1.647619366645813,0.0033394024353407582,0.040960616656006865,-0.08120639811166579,-0.0048554083332419395,0.006445105187594891,0.0
38,5,0.0,0.0,0.0,0.0002226279175374657,-0.0014142172876745462,0.0006631919532082975,-0.013381211087107658,-0.013147630728781223,0.0025317517574876547,-0.0015431275824084878,0.00047203616122715175,0.0005107413162477314,0.0,0.0,0.0,-0.0031640578527003527,-0.0025437483564019203,-0.0,0.0,0.0,0.0,0.0015483296010643244,0.0014315644511952996,0.00012917233107145876,1495.0,1495.0,1495.0,1495.0,0.0,0.0,0.0,0.0,0.0,0.0,0.0,0.0,1495.0,1495.0,1495.0,1495.0,1.6639388799667358,0.004031821589848598,0.040342034932605436,-0.08149154142116452,0.010199074633419514,-0.009758633561432362,0.0
43,5,0.0,0.0,0.0,-0.00028436322463676333,-0.0003103776543866843,-0.0028986490797251463,-0.013371586799621582,-0.013121102005243301,0.002518043154850602,-0.0029148580506443977,-0.0012786737643182278,-0.004932113457471132,0.0,0.0,0.0,-0.0031640578527003527,-0.0025437483564019203,-0.0,0.0,0.0,0.0,0.0015486294869333506,0.0014341521309688687,0.00014952880155760795,1495.0,1495.0,1495.0,1495.0,0.0,0.0,0.0,0.0,0.0,0.0,0.0,0.0,1495.0,1495.0,1495.0,1495.0,1.6639388799667358,0.0036281441141391333,0.04001161660471864,-0.08115548937419716,0.010199074633419514,-0.009758633561432362,0.0
48,5,0.0,0.0,0.0,0.0021563486661762,-0.002632158575579524,0.0016810205997899175,-0.013371586799621582,-0.013121102005243301,0.002518043154850602,-0.0029148580506443977,-0.0012786737643182278,-0.004932113457471132,0.0,0.0,0.0,0.00038522749673575163,-0.000271491939201951,-0.0,0.0,0.0,0.0,0.0015486294869333506,0.0014341521309688687,0.00014952880155760795,1495.0,1495.0,1495.0,1495.0,0.0,0.0,0.0,0.0,0.0,0.0,0.0,0.0,1495.0,1495.0,1495.0,1495.0,1.6300312280654907,0.0038140131943681034,0.040849402867731685,-0.08115076800038128,0.0010663621360436082,0.0011639161966741085,0.0
53,5,1.6559353070988436e-06,-1.0529238352319226e-05,-5.159529791853856e-06,0.0010612517362460494,0.0002106452448060736,0.001291551860049367,-0.013382643461227417,-0.013121155090630054,0.002466614358127117,-0.0001014801164274104,0.005836803000420332,-0.005538697820156813,0.0,0.0,0.0,0.00038522749673575163,-0.000271491939201951,-0.0,0.0,0.0,0.0,0.00102147925645113,0.001061274902895093,0.00035546437720768154,1495.0,1495.0,1495.0,1495.0,0.0,0.0,0.0,0.0,0.0,0.0,0.0,0.0,1495.0,1495.0,1495.0,1495.0,1.6300312280654907,0.003799364254951087,0.04061228750828122,-0.08107885623771197,0.0010663621360436082,0.0011639161966741085,0.0
59,5,1.6559353070988436e-06,-1.0529238352319226e-05,-5.159529791853856e-06,0.0010612517362460494,0.0002106452448060736,0.001291551860049367,-0.013382643461227417,-0.013121155090630054,0.002466614358127117,-0.0001014801164274104,0.005836803000420332,-0.005538697820156813,0.0,0.0,0.0,-0.00027946062618866563,0.0010113292373716831,-0.0,0.0,0.0,0.0,0.00102147925645113,0.001061274902895093,0.00035546437720768154,1495.0,1495.0,1495.0,1495.0,0.0,0.0,0.0,0.0,0.0,0.0,0.0,0.0,1495.0,1495.0,1495.0,1495.0,1.6368117332458496,0.003799364254951087,0.04061228750828122,-0.08107885623771197,-0.003988807555288076,-0.0008478673407807946,0.0
64,5,2.1660016500391066e-06,1.78764628344652e-06,-9.758936357684433e-06,-0.001507698092609644,-0.0003025283804163337,0.0006359899416565895,-0.01338112074881792,-0.013165940530598164,0.0024651808198541403,0.003421060275286436,-0.0035660581197589636,0.0022929913830012083,0.0,0.0,0.0,-0.00027946062618866563,0.0010113292373716831,-0.0,0.0,0.0,0.0,0.0010221140692010522,0.0010595092317089438,0.0002494798682164401,13780.0,13376.0,13767.0,13663.0,0.4245980381965637,0.3985711336135864,0.42376065254211426,0.41700905561447144,0.0,0.0,0.0,0.0,13757.0,13400.0,13744.0,13686.0,1.6368117332458496,0.0034610962687373773,0.04048953183413931,-0.08076974624065479,-0.003988807555288076,-0.0008478673407807946,0.0
69,5,-2.3532379600510467e-06,-4.969274414179381e-06,-3.3266387617914006e-06,-0.0011453879997134209,0.0006898191059008241,-0.000517479726113379,-0.01338112074881792,-0.013165940530598164,0.0024651808198541403,0.003421060275286436,-0.0035660581197589636,0.0022929913830012083,0.0,0.0,0.0,0.0003761152329389006,-0.001426503760740161,-0.0,0.0,0.0,0.0,0.0010221140692010522,0.0010595092317089438,0.0002494798682164401,13780.0,13376.0,13767.0,13663.0,0.4245980381965637,0.3985711336135864,0.42376065254211426,0.41700905561447144,0.0,0.0,0.0,0.0,13757.0,13400.0,13744.0,13686.0,1.6413604021072388,0.003922343901148717,0.040932787406653084,-0.08092162238392903,0.005641941446810961,0.0011442828690633178,0.0
74,5,-6.592342288058717e-06,-3.5445133107714355e-05,2.455092362652067e-05,-0.0009668476996012032,0.003933030646294355,-0.0035522994585335255,-0.01338112074881792,-0.013165940530598164,0.0024651808198541403,0.003421060275286436,-0.0035660581197589636,0.0022929913830012083,0.0,0.0,0.0,0.0003761152329389006,-0.001426503760740161,-0.0,0.0,0.0,0.0,0.0010221140692010522,0.0010595092317089438,0.0002494798682164401,13780.0,13376.0,13767.0,13663.0,0.4245980381965637,0.3985711336135864,0.42376065254211426,0.41700905561447144,0.0,0.0,0.0,0.0,13757.0,13400.0,13744.0,13686.0,1.6413604021072388,0.004171124518235175,0.04010263326346775,-0.08127051908855178,0.005641941446810961,0.0011442828690633178,0.0
79,5,-4.428186457516858e-06,-2.8016656870022416e-05,1.0832354746526107e-05,-0.00012704040273092687,0.0006817952962592244,0.00022530854039359838,-0.013366254977881908,-0.013131160289049149,0.00244090030901134,0.0007786934729665518,-0.0031277735251933336,-0.00659171724691987,0.0,0.0,0.0,-0.004835373256355524,-0.0009114540298469365,-0.0,0.0,0.0,0.0,0.0013779011787846684,0.0012854674132540822,0.00011137383262393996,13588.0,13319.0,13564.0,13696.0,0.41211196780204773,0.3949790894985199,0.4105648696422577,0.4191558063030243,0.0,0.0,0.0,0.0,13582.0,13261.0,13585.0,13632.0,1.6673640012741089,0.004369181370865783,0.04019383357280803,-0.08102402353891626,0.0036619463935494423,-0.014943967573344707,0.0
84,5,-1.2767948646796867e-05,-2.6872561647905968e-05,-8.64681805978762e-06,-0.0010515876347199082,0.00013542649685405195,0.002427624072879553,-0.013366254977881908,-0.013131160289049149,0.00244090030901134,0.0007786934729665518,-0.0031277735251933336,-0.00659171724691987,0.0,0.0,0.0,-0.004835373256355524,-0.0009114540298469365,-0.0,0.0,0.0,0.0,0.0013779011787846684,0.0012854674132540822,0.00011137383262393996,13588.0,13319.0,13564.0,13696.0,0.41211196780204773,0.3949790894985199,0.4105648696422577,0.4191558063030243,0.0,0.0,0.0,0.0,13582.0,13261.0,13585.0,13632.0,1.6673640012741089,0.004727660762786197,0.04019585662583421,-0.08141802556314595,0.0036619463935494423,-0.014943967573344707,0.0
89,5,-1.9064376829192042e-05,-3.579437543521635e-05,8.789822459220886e-06,-0.0011762063950300217,0.0011247884249314666,-0.0011213471880182624,-0.013362851925194263,-0.01312509085983038,0.0024480358697474003,0.00166803237516433,0.00030693176086060703,0.004478841088712215,0.0,0.0,0.0,-0.00021619036851916462,-0.0010176670039072633,-0.0,0.0,0.0,0.0,0.0013166057178750634,0.001421273103915155,0.0003530356043484062,13694.0,13208.0,13670.0,13591.0,0.4190155863761902,0.38804954290390015,0.4174351692199707,0.4123114347457886,0.0,0.0,0.0,0.0,13611.0,13295.0,13586.0,13674.0,1.636781930923462,0.004637277517193106,0.04032342638697089,-0.08168517426085241,0.004013731610029936,-0.0006558971363119781,0.0
94,5,-2.0561436031130143e-05,-1.5311075912904926e-05,4.2036799641209655e-06,-0.0006501296302303672,-0.002008080715313554,0.0001017981703625992,-0.013370571658015251,-0.013156182132661343,0.0024649598635733128,0.0020538349635899067,0.0008706848602741957,0.005591665394604206,0.0,0.0,0.0,0.0024388637393712997,-0.0006428039632737637,-0.0,0.0,0.0,0.0,0.0013844989007338881,0.0011854806216433644,0.0003374803636688739,13689.0,13241.0,13707.0,13598.0,0.4186441898345947,0.39010101556777954,0.41980743408203125,0.41280776262283325,0.0,0.0,0.0,0.0,13664.0,13267.0,13682.0,13623.0,1.647082805633545,0.003949585431469405,0.040288583406545696,-0.08127729127979155,0.002551200333982706,0.007445789407938719,-0.0
99,5,-3.3001392694131937e-06,-1.583285666129086e-05,-4.135766005219921e-07,0.0018113036639988422,-0.0007406185031868517,0.00059479009360075,-0.013370571658015251,-0.013156182132661343,0.0024649598635733128,0.0020538349635899067,0.0008706848602741957,0.005591665394604206,0.0,0.0,0.0,0.0024388637393712997,-0.0006428039632737637,-0.0,0.0,0.0,0.0,0.0013844989007338881,0.0011854806216433644,0.0003374803636688739,13689.0,13241.0,13707.0,13598.0,0.4186441898345947,0.39010101556777954,0.41980743408203125,0.41280776262283325,0.0,0.0,0.0,0.0,13664.0,13267.0,13682.0,13623.0,1.647082805633545,0.0044129915277581625,0.04101541651239374,-0.08152879016456752,0.002551200333982706,0.007445789407938719,-0.0
104,5,-9.378301911056042e-06,-1.665009585849475e-05,4.740038093586918e-06,-4.858038209931692e-06,-0.00019817867723759264,-0.00038051774026826024,-0.013370571658015251,-0.013156182132661343,0.0024649598635733128,0.0020538349635899067,0.0008706848602741957,0.005591665394604206,0.0,0.0,0.0,0.0024388637393712997,-0.0006428039632737637,-0.0,0.0,0.0,0.0,0.0013844989007338881,0.0011854806216433644,0.0003374803636688739,13689.0,13241.0,13707.0,13598.0,0.4186441898345947,0.39010101556777954,0.41980743408203125,0.41280776262283325,0.0,0.0,0.0,0.0,13664.0,13267.0,13682.0,13623.0,1.647082805633545,0.003678488625494756,0.04073640042288054,-0.08111399274472539,0.002551200333982706,0.007445789407938719,-0.0
110,5,2.4787793790892465e-06,-7.86299005994806e-06,9.896828487399034e-06,0.001420906512066722,-0.0011337242322042584,-0.0007710219360888004,-0.013362168334424496,-0.01312938705086708,0.002444435376673937,-0.00027683822554536164,-0.0049687838181853294,-0.006225162651389837,0.0,0.0,0.0,0.00021575028949882835,-1.7828102500061505e-05,-0.0,0.0,0.0,0.0,0.0008655483834445477,0.0012306347489356995,-5.355158464226406e-06,13702.0,13503.0,13645.0,13791.0,0.419541597366333,0.4066753387451172,0.41583335399627686,0.42531371116638184,0.0,0.0,0.0,0.0,13605.0,13298.0,13611.0,13651.0,1.6284600496292114,0.0036910394217924245,0.04110186934098856,-0.08134038009542639,6.995747389737517e-05,0.0006512339459732175,0.0
115,6,-6.081823812564835e-06,-2.1042391381342895e-05,2.0330013285274617e-05,-0.0004589097516145557,0.0011280383914709091,-0.0015603909268975258,-0.013362168334424496,-0.01312938705086708,0.002444435376673937,-0.00027683822554536164,-0.0049687838181853294,-0.006225162651389837,0.0,0.0,0.0,0.00021575028949882835,-1.7828102500061505e-05,-0.0,0.0,0.0,0.0,0.0008655483834445477,0.0012306347489356995,-5.355158464226406e-06,13702.0,13503.0,13645.0,13791.0,0.419541597366333,0.4066753387451172,0.41583335399627686,0.42531371116638184,0.0,0.0,0.0,0.0,13605.0,13298.0,13611.0,13651.0,1.6284600496292114,0.003660471395792949,0.040295118513257566,-0.08109598491786597,6.995747389737517e-05,0.0006512339459732175,0.0
120,5,-6.021624813001836e-06,-1.7404501704731956e-05,3.250935378673603e-06,-0.00017634003597777337,1.4668704352516215e-05,0.0014253329718485475,-0.013359338976442814,-0.013107184320688248,0.0024351030588150024,0.00010660052066668868,3.622088479460217e-05,-0.0008337273029610515,0.0,0.0,0.0,-0.0014311192790046334,-0.0004444016085471958,-0.0,0.0,0.0,0.0,0.0015983217163011432,0.0012650212738662958,0.0003230069996789098,13686.0,13260.0,13721.0,13657.0,0.41847479343414307,0.39127475023269653,0.4207356572151184,0.4165976047515869,0.0,0.0,0.0,0.0,13695.0,13251.0,13728.0,13649.0,1.6384633779525757,0.004386340354585384,0.04074973277877296,-0.08128946392288483,0.001754542114213109,-0.004346311558037996,0.0
132,11,-1.3720862625632435e-05,-6.885822131152963e-06,-1.1444258234405424e-05,-0.0011335836024954915,-0.0010180416284129024,0.0005841926904395223,-0.013367054052650928,-0.013124595396220684,0.002465220168232918,-0.0014577520778402686,0.005007959436625242,0.0030234907753765583,0.0,0.0,0.0,-0.0014311192790046334,-0.0004444016085471958,-0.0,0.0,0.0,0.0,0.0015983217163011432,0.0012650212738662958,0.0003230069996789098,13686.0,13260.0,13721.0,13657.0,0.41847479343414307,0.39127475023269653,0.4207356572151184,0.4165976047515869,0.0,0.0,0.0,0.0,13695.0,13251.0,13728.0,13649.0,1.6384633779525757,0.0038099187961614586,0.040729127498997764,-0.08098450829653743,0.004326631780713797,0.0037793258670717478,0.0
137,5,-1.9824163246084936e-05,-2.0765361114172265e-05,-1.2692421478277538e-05,-0.0011858295183628798,0.001258328091353178,0.0003834566450677812,-0.013368510641157627,-0.01317386981099844,0.002473651198670268,0.0023797336034476757,-0.004395510070025921,0.002343054860830307,0.0,0.0,0.0,-0.0015864006709307432,-0.0011503042187541723,-0.0,0.0,0.0,0.0,0.0013574848417192698,0.001316979294642806,0.00028547426336444914,13632.0,13200.0,13629.0,13573.0,0.4150072932243347,0.3875238299369812,0.414758563041687,0.4111703634262085,0.0,0.0,0.0,0.0,13695.0,13251.0,13728.0,13649.0,1.6437585353851318,0.003722945282641904,0.04076720105768737,-0.08136949783856023,0.004556191619485617,-0.004833471029996872,0.0
143,6,-2.250327088404447e-05,-2.0680219677160494e-05,2.422330726403743e-05,-0.0007958246860653162,0.000493114348500967,-0.00427650474011898,-0.013368510641157627,-0.01317386981099844,0.002473651198670268,0.0023797336034476757,-0.004395510070025921,0.002343054860830307,0.0,0.0,0.0,-0.0015864006709307432,-0.0011503042187541723,-0.0,0.0,0.0,0.0,0.0013574848417192698,0.001316979294642806,0.00028547426336444914,13632.0,13200.0,13629.0,13573.0,0.4150072932243347,0.3875238299369812,0.414758563041687,0.4111703634262085,0.0,0.0,0.0,0.0,13695.0,13251.0,13728.0,13649.0,1.6437585353851318,0.002788338144205925,0.03975458020398281,-0.08104800655037687,0.004556191619485617,-0.004833471029996872,0.0
148,5,-2.1916055629844777e-05,-1.535736009827815e-05,6.702303835481871e-06,-0.00024786413996480405,-0.0004414974246174097,0.0003919185255654156,-0.013368510641157627,-0.01317386981099844,0.002473651198670268,0.0023797336034476757,-0.004395510070025921,0.002343054860830307,0.0,0.0,0.0,-0.0015864006709307432,-0.0011503042187541723,-0.0,0.0,0.0,0.0,0.0013574848417192698,0.001316979294642806,0.00028547426336444914,13632.0,13200.0,13629.0,13573.0,0.4150072932243347,0.3875238299369812,0.414758563041687,0.4111703634262085,0.0,0.0,0.0,0.0,13695.0,13251.0,13728.0,13649.0,1.6437585353851318,0.0036959083941704367,0.04017304404609411,-0.08131833868504532,0.004556191619485617,-0.004833471029996872,0.0
153,5,-8.793173037702218e-06,-2.7686819521477446e-05,-1.2488906577345915e-05,0.0014756002929061651,0.001302936114370823,0.0024597125593572855,-0.013368510641157627,-0.01317386981099844,0.002473651198670268,-0.000621201004832983,-0.003209112910553813,-0.005527610890567303,0.0,0.0,0.0,0.0005195492412894964,-0.0002672905393410474,-0.0,0.0,0.0,0.0,0.0013625643914565444,0.0013122926466166973,0.00010087850387208164,13594.0,13341.0,13576.0,13682.0,0.4125330448150635,0.39637285470962524,0.41133731603622437,0.4182201623916626,0.0,0.0,0.0,0.0,13620.0,13314.0,13602.0,13656.0,1.6308752298355103,0.004469878466753505,0.04057423946465099,-0.08150923541106879,0.0010504034580662847,0.0015705651603639126,-0.0
158,5,9.80064578470774e-06,-1.859332223830279e-05,-1.2430584320100024e-05,0.002821498317644,-0.0005700452602468431,0.0009768863674253225,-0.013401866890490055,-0.013139935210347176,0.0024399009998887777,-0.000621201004832983,-0.003209112910553813,-0.005527610890567303,0.0,0.0,0.0,0.0005195492412894964,-0.0002672905393410474,-0.0,0.0,0.0,0.0,0.0013625643914565444,0.0013122926466166973,0.00010087850387208164,13594.0,13341.0,13576.0,13682.0,0.4125330448150635,0.39637285470962524,0.41133731603622437,0.4182201623916626,0.0,0.0,0.0,0.0,13620.0,13314.0,13602.0,13656.0,1.6308752298355103,0.004418316197408859,0.040468874959217714,-0.08177132752486949,0.0010504034580662847,0.0015705651603639126,-0.0
163,5,-2.219919224444311e-05,1.7385416867909953e-05,3.445640459176502e-06,-0.0027113810647279024,-0.004545466974377632,-0.00151439243927598,-0.013401866890490055,-0.013139935210347176,0.0024399009998887777,-0.000621201004832983,-0.003209112910553813,-0.005527610890567303,0.0,0.0,0.0,0.0005195492412894964,-0.0002672905393410474,-0.0,0.0,0.0,0.0,0.0013625643914565444,0.0013122926466166973,0.00010087850387208164,13594.0,13341.0,13576.0,13682.0,0.4125330448150635,0.39637285470962524,0.41133731603622437,0.4182201623916626,0.0,0.0,0.0,0.0,13620.0,13314.0,13602.0,13656.0,1.6308752298355103,0.006513064120894171,0.042659647528120626,-0.081079524797731,0.010290226899087429,0.017140597105026245,0.0
168,5,-4.281582005205564e-05,8.599232387496158e-05,7.010609260760248e-05,-0.0035585479345172644,-0.010051014833152294,-0.00860501080751419,-0.01339565496891737,-0.0131149310618639,0.0024538945872336626,0.002199418842792511,-0.0003806546446867287,0.002428631531074643,0.0,0.0,0.0,0.005505261477082968,-0.0025423576589673758,-0.0,0.0,0.0,0.0,0.0014046253636479378,0.0012822691351175308,0.00011132982035633177,13676.0,13243.0,13702.0,13613.0,0.41782882809638977,0.39021065831184387,0.4195145070552826,0.4137743413448334,0.0,0.0,0.0,0.0,13662.0,13257.0,13688.0,13628.0,1.6797453165054321,0.009069477350042808,0.041498378244917894,-0.07931597197183511,0.010290226899087429,0.017140597105026245,0.0
173,5,-4.4343192712403834e-05,5.723023787140846e-05,6.966999353608117e-05,-0.001606703968718648,-0.0005689563695341349,-0.0033896721433848143,-0.01339565496891737,-0.0131149310618639,0.0024538945872336626,0.002199418842792511,-0.0003806546446867287,0.002428631531074643,0.0,0.0,0.0,0.005505261477082968,-0.0025423576589673758,-0.0,0.0,0.0,0.0,0.0014046253636479378,0.0012822691351175308,0.00011132982035633177,13676.0,13243.0,13702.0,13613.0,0.41782882809638977,0.39021065831184387,0.4195145070552826,0.4137743413448334,0.0,0.0,0.0,0.0,13662.0,13257.0,13688.0,13628.0,1.6797453165054321,0.007724852244613817,0.04135898149983575,-0.0796083845140853,0.010290226899087429,0.017140597105026245,0.0
178,5,0.0001040527640725486,0.00022974875173531473,-0.0002743917575571686,0.01716483384370804,-0.02092980407178402,0.039931539446115494,-0.01341327279806137,-0.013090920634567738,0.002448291052132845,0.012702872045338154,-0.00430928822606802,0.00817839428782463,0.0,0.0,0.0,0.0008033544290810823,-0.001582667580805719,-0.0,0.0,0.0,0.0,0.001394420163705945,0.0013019818579778075,2.335266071895603e-05,13597.0,13251.0,13603.0,13623.0,0.41268643736839294,0.390701025724411,0.41309449076652527,0.41439327597618103,0.0,0.0,0.0,0.0,14060.0,12759.0,14062.0,13146.0,1.6439967155456543,0.02243016731356237,0.0483192372026129,-0.07734968237582933,0.006269634701311588,0.0024480291176587343,0.0
183,5,8.218606672016904e-05,0.0002500788541510701,-0.00024397904053330421,0.004241929855197668,-0.010811533778905869,0.012323091737926006,-0.01341327279806137,-0.013090920634567738,0.002448291052132845,0.012702872045338154,-0.00430928822606802,0.00817839428782463,0.0,0.0,0.0,0.0008033544290810823,-0.001582667580805719,-0.0,0.0,0.0,0.0,0.001394420163705945,0.0013019818579778075,2.335266071895603e-05,13597.0,13251.0,13603.0,13623.0,0.41268643736839294,0.390701025724411,0.41309449076652527,0.41439327597618103,0.0,0.0,0.0,0.0,14060.0,12759.0,14062.0,13146.0,1.6439967155456543,0.02187113623799801,0.047856580662041584,-0.07626588936707494,0.006269634701311588,0.0024480291176587343,0.0
188,5,9.095737186726183e-05,0.0002614170662127435,-0.00026499771047383547,0.0027493287343531847,-0.0056852009147405624,0.007451477460563183,-0.013413066044449806,-0.012998747639358044,0.00205558305606246,0.006756860297173262,-0.025055231526494026,0.10674070566892624,0.0,0.0,0.0,0.012950687669217587,0.0038878251798450947,-0.0,0.0,0.0,0.0,0.0019045324297621846,0.0010372435208410025,-0.00010063429363071918,14172.0,12964.0,14275.0,13377.0,0.4506117105484009,0.3729003667831421,0.45760101079940796,0.3986322283744812,0.0,0.0,0.0,0.0,12179.0,14556.0,12188.0,14898.0,1.7463611364364624,0.02268886217998328,0.04818262843813154,-0.07600348726557879,-0.016358939930796623,0.04191923886537552,0.0
193,5,7.322979217860848e-05,0.00021440898126456887,-0.00026356978924013674,-0.0010275781387463212,0.0033668919932097197,0.002809238387271762,-0.013413066044449806,-0.012998747639358044,0.00205558305606246,0.006756860297173262,-0.025055231526494026,0.10674070566892624,0.0,0.0,0.0,0.012950687669217587,0.0038878251798450947,-0.0,0.0,0.0,0.0,0.0019045324297621846,0.0010372435208410025,-0.00010063429363071918,14172.0,12964.0,14275.0,13377.0,0.4506117105484009,0.3729003667831421,0.45760101079940796,0.3986322283744812,0.0,0.0,0.0,0.0,12179.0,14556.0,12188.0,14898.0,1.7463611364364624,0.022307393749611645,0.048385075601853254,-0.07761761132749705,-0.016358939930796623,0.04191923886537552,0.0
198,5,8.572611113777384e-05,0.000247570889769122,-0.0002474821812938899,0.0010885263327509165,-0.0026326733641326427,-0.000806815514806658,-0.013413066044449806,-0.012998747639358044,0.00205558305606246,0.006756860297173262,-0.025055231526494026,0.10674070566892624,0.0,0.0,0.0,-0.0037239668890833855,-0.0008636668208055198,-0.0,0.0,0.0,0.0,0.0018922598101198673,0.0010415345896035433,-0.00019310342031531036,12615.0,14481.0,12731.0,14851.0,0.35187095403671265,0.47163480520248413,0.358756422996521,0.49748313426971436,0.0,0.0,0.0,0.0,15569.0,11227.0,15661.0,11705.0,1.658113956451416,0.02216453468313411,0.047603959401381964,-0.07723166182866274,0.0034507177770137787,-0.011445293202996254,0.0
203,5,9.089593368116766e-05,0.00025405536871403456,-0.0002423701371299103,0.0010557897621765733,-0.001831206027418375,-0.0009361723787151277,-0.013413066044449806,-0.012998747639358044,0.00205558305606246,0.006756860297173262,-0.025055231526494026,0.10674070566892624,0.0,0.0,0.0,-0.0037239668890833855,-0.0008636668208055198,-0.0,0.0,0.0,0.0,0.0018922598101198673,0.0010415345896035433,-0.00019310342031531036,12615.0,14481.0,12731.0,14851.0,0.35187095403671265,0.47163480520248413,0.358756422996521,0.49748313426971436,0.0,0.0,0.0,0.0,15569.0,11227.0,15661.0,11705.0,1.658113956451416,0.021459255303856693,0.04689137872012176,-0.07592309089282853,0.0034507177770137787,-0.011445293202996254,0.0
209,5,2.480032344465144e-05,0.00020951971237082034,-2.9974498829687946e-05,-0.007509157527238131,0.004611796699464321,-0.025861945003271103,-0.013726474717259407,-0.01239182148128748,0.002264671726152301,-0.021724650636315346,-0.10775978863239288,0.18029481172561646,0.0,0.0,0.0,0.0027009479235857725,0.0011207964271306992,-0.0,0.0,0.0,0.0,0.002679290482774377,0.0015779457753524184,0.0024409578181803226,15288.0,12091.0,15412.0,12721.0,0.5288890600204468,0.32130950689315796,0.5379693508148193,0.35819321870803833,0.0,0.0,0.0,0.0,11085.0,16017.0,11233.0,16513.0,1.651196837425232,0.01708020357736893,0.04313678116986014,-0.07726708137367924,-0.004459393676370382,0.008266518823802471,0.0
214,5,-0.00019535333558451384,5.9595899074338377e-05,0.0005070113693363965,-0.029422100633382797,0.01983557641506195,-0.0747830867767334,-0.013726474717259407,-0.01239182148128748,0.002264671726152301,-0.021724650636315346,-0.10775978863239288,0.18029481172561646,0.0,0.0,0.0,0.0027009479235857725,0.0011207964271306992,-0.0,0.0,0.0,0.0,0.002679290482774377,0.0015779457753524184,0.0024409578181803226,15288.0,12091.0,15412.0,12721.0,0.5288890600204468,0.32130950689315796,0.5379693508148193,0.35819321870803833,0.0,0.0,0.0,0.0,11085.0,16017.0,11233.0,16513.0,1.651196837425232,0.043691913536519085,0.04675311459522495,-0.08077504323286827,-0.004459393676370382,0.008266518823802471,0.0
219,5,-0.00022265063307713717,7.258830009959638e-05,0.0005433212500065565,-0.015044516883790493,0.006375142373144627,-0.03427042067050934,-0.014049489982426167,-0.011804006062448025,0.002879312727600336,-0.038567718118429184,-0.11703377962112427,-0.06404529511928558,0.0,0.0,0.0,-0.02024107798933983,-0.023428069427609444,-0.0,0.0,0.0,0.0,0.0010759021388366818,0.0010199566604569554,-0.0006175155285745859,13187.0,13907.0,13190.0,14185.0,0.38674119114875793,0.4329545199871063,0.386911541223526,0.45150670409202576,0.0,0.0,0.0,0.0,15378.0,11431.0,15366.0,11768.0,1.9740389585494995,0.04285522207232246,0.04491276102639748,-0.08011607887629453,0.11140774935483932,-0.07405323535203934,0.0
224,5,-0.00022775414981879294,6.834897067165002e-05,0.0005373228923417628,-0.00663022929802537,0.0030587755609303713,-0.01298836525529623,-0.014049489982426167,-0.011804006062448025,0.002879312727600336,-0.038567718118429184,-0.11703377962112427,-0.06404529511928558,0.0,0.0,0.0,-0.02024107798933983,-0.023428069427609444,-0.0,0.0,0.0,0.0,0.0010759021388366818,0.0010199566604569554,-0.0006175155285745859,13187.0,13907.0,13190.0,14185.0,0.38674119114875793,0.4329545199871063,0.386911541223526,0.45150670409202576,0.0,0.0,0.0,0.0,15378.0,11431.0,15366.0,11768.0,1.9740389585494995,0.04246678494688372,0.04429172686100904,-0.07982883854187338,0.11140774935483932,-0.07405323535203934,0.0
229,5,-0.00022299056581687182,1.8283577446709387e-05,0.0005757928011007607,-0.0020804607775062323,0.0072313579730689526,-0.009811732918024063,-0.01485262531787157,-0.010103435255587101,0.002944354899227619,-0.07886920124292374,-0.11350654810667038,0.05833517014980316,0.0,0.0,0.0,-0.0035155483055859804,-0.006367616355419159,-0.0,0.0,0.0,0.0,0.0017816202016547322,0.0010266435565426946,0.0017065230058506131,14237.0,12667.0,14334.0,13073.0,0.45502468943595886,0.35494545102119446,0.46159765124320984,0.3796290457248688,0.0,0.0,0.0,0.0,15130.0,14509.0,15252.0,14263.0,1.7021740674972534,0.03972372952051073,0.043239563086222836,-0.08041221260059774,0.02611723355948925,-0.011091849766671658,0.0
234,5,-0.00025960023049265146,2.7449556000647135e-05,0.0006408797344192863,-0.005225345492362976,0.0017926257569342852,-0.011735128238797188,-0.01485262531787157,-0.010103435255587101,0.002944354899227619,-0.07886920124292374,-0.11350654810667038,0.05833517014980316,0.0,0.0,0.0,-0.0035155483055859804,-0.006367616355419159,-0.0,0.0,0.0,0.0,0.0017816202016547322,0.0010266435565426946,0.0017065230058506131,14237.0,12667.0,14334.0,13073.0,0.45502468943595886,0.35494545102119446,0.46159765124320984,0.3796290457248688,0.0,0.0,0.0,0.0,15130.0,14509.0,15252.0,14263.0,1.7021740674972534,0.03844086074233843,0.041747873128138796,-0.07956290556083019,0.02611723355948925,-0.011091849766671658,0.0
239,5,-0.00023943874111864716,2.8526865207822993e-05,0.0006825641612522304,0.00032924124388955534,0.0005877732182852924,-0.009696177206933498,-0.015631496906280518,-0.00928215030580759,0.0028574918396770954,-0.04804610088467598,-0.10874594748020172,-0.010899144224822521,0.0,0.0,0.0,-0.002102894941344857,-0.005177699029445648,-0.0,0.0,0.0,0.0,-0.00037392982630990446,-0.0015002795262262225,-0.0006406318861991167,14583.0,15050.0,14730.0,14811.0,0.4786936640739441,0.5116815567016602,0.4889855980873108,0.4946780800819397,0.0,0.0,0.0,0.0,14120.0,13287.0,14264.0,13481.0,1.6851937770843506,0.024460419758828792,0.03681472458285745,-0.0784644127078412,0.021024981513619423,-0.006568639073520899,0.0
244,5,-0.00024197947641368955,4.314999023335986e-05,0.0007615535869263113,-0.0001731915690470487,-0.0015196657041087747,-0.013357204385101795,-0.015631496906280518,-0.00928215030580759,0.0028574918396770954,-0.04804610088467598,-0.10874594748020172,-0.010899144224822521,0.0,0.0,0.0,-0.002102894941344857,-0.005177699029445648,-0.0,0.0,0.0,0.0,-0.00037392982630990446,-0.0015002795262262225,-0.0006406318861991167,14583.0,15050.0,14730.0,14811.0,0.4786936640739441,0.5116815567016602,0.4889855980873108,0.4946780800819397,0.0,0.0,0.0,0.0,14120.0,13287.0,14264.0,13481.0,1.6851937770843506,0.024718926966358905,0.03691271639676975,-0.07915414136287559,0.021024981513619423,-0.006568639073520899,0.0
249,5,-0.00024652440333738923,-2.5362380256410688e-05,0.0009295353665947914,-0.0006146670784801245,0.007613618392497301,-0.025500698015093803,-0.016287637874484062,-0.008198648691177368,0.003257608041167259,-0.03999628871679306,-0.05025423318147659,-0.005192278418689966,0.0,0.0,0.0,0.001950457924976945,-0.0005010486929677427,-0.0,0.0,0.0,0.0,0.0013217652449384332,0.0001564210106153041,0.0012920035514980555,13999.0,13408.0,14150.0,13608.0,0.43900400400161743,0.4006209373474121,0.4491118788719177,0.41343724727630615,0.0,0.0,0.0,0.0,13472.0,13787.0,13635.0,14018.0,1.6427277326583862,0.03392758969732076,0.03956738796272422,-0.08067522484993572,0.0019833373371511698,0.005938957445323467,0.0
254,5,-0.00024652440333738923,-2.5362380256410688e-05,0.0009295353665947914,-0.0006146670784801245,0.007613618392497301,-0.025500698015093803,-0.016287637874484062,-0.008198648691177368,0.003257608041167259,-0.03999628871679306,-0.05025423318147659,-0.005192278418689966,0.0,0.0,0.0,0.001950457924976945,-0.0005010486929677427,-0.0,0.0,0.0,0.0,0.0013217652449384332,0.0001564210106153041,0.0012920035514980555,13999.0,13408.0,14150.0,13608.0,0.43900400400161743,0.4006209373474121,0.4491118788719177,0.41343724727630615,0.0,0.0,0.0,0.0,13472.0,13787.0,13635.0,14018.0,1.6427277326583862,0.03392758969732076,0.03956738796272422,-0.08067522484993572,0.0019833373371511698,0.005938957445323467,0.0
259,5,-0.0002588255447335541,8.93139440449886e-05,0.0011031023459509015,0.0021534499246627092,-0.00950893945991993,-0.01174271758645773,-0.016287637874484062,-0.008198648691177368,0.003257608041167259,-0.03999628871679306,-0.05025423318147659,-0.005192278418689966,0.0,0.0,0.0,-0.00908483937382698,-0.000892742769792676,-0.0,0.0,0.0,0.0,0.0020005772821605206,0.0007237333338707685,1.8227578038931824e-05,14388.0,12813.0,14554.0,13071.0,0.4652498662471771,0.36373236775398254,0.4767274558544159,0.379484087228775,0.0,0.0,0.0,0.0,14301.0,12905.0,14471.0,13167.0,1.7036553621292114,0.028372963738498787,0.03928617142973239,-0.08133208024214872,0.0036647303495556116,-0.028687763959169388,0.0
264,5,-0.00025313044898211956,4.990324100617727e-07,0.0013078917982056737,0.0015447925543412566,0.006854213308542967,-0.029271824285387993,-0.01694509945809841,-0.007804065011441708,0.003318802686408162,-0.1085355207324028,-0.023706862702965736,0.06828857213258743,0.0,0.0,0.0,-0.00908483937382698,-0.000892742769792676,-0.0,0.0,0.0,0.0,0.0020005772821605206,0.0007237333338707685,1.8227578038931824e-05,14388.0,12813.0,14554.0,13071.0,0.4652498662471771,0.36373236775398254,0.4767274558544159,0.379484087228775,0.0,0.0,0.0,0.0,14301.0,12905.0,14471.0,13167.0,1.7036553621292114,0.024437701610176485,0.03684126000557896,-0.08186621509907975,0.0036647303495556116,-0.028687763959169388,0.0
269,5,-0.00025313044898211956,4.990324100617727e-07,0.0013078917982056737,0.0015447925543412566,0.006854213308542967,-0.029271824285387993,-0.01694509945809841,-0.007804065011441708,0.003318802686408162,-0.1085355207324028,-0.023706862702965736,0.06828857213258743,0.0,0.0,0.0,-0.008174470625817776,0.0010756895644590259,-0.0,0.0,0.0,0.0,0.0020005772821605206,0.0007237333338707685,1.8227578038931824e-05,14388.0,12813.0,14554.0,13071.0,0.4652498662471771,0.36373236775398254,0.4767274558544159,0.379484087228775,0.0,0.0,0.0,0.0,14301.0,12905.0,14471.0,13167.0,1.6960389614105225,0.024437701610176485,0.03684126000557896,-0.08186621509907975,-0.004396024160087109,-0.025697756558656693,0.0
275,5,-0.00015048679779283702,0.00022713642101734877,0.001134087797254324,0.006989312823861837,-0.014183788560330868,0.0060175503604114056,-0.017658023163676262,-0.00759202940389514,0.0035736490972340107,-0.03521900624036789,-0.030068660154938698,-0.005407515447586775,0.0,0.0,0.0,-0.008174470625817776,0.0010756895644590259,-0.0,0.0,0.0,0.0,0.0008598861168138683,0.0006344757275655866,0.0018386539304628968,13502.0,13357.0,13672.0,13727.0,0.40664002299308777,0.39738133549690247,0.4175874888896942,0.4211188852787018,0.0,0.0,0.0,0.0,13826.0,13021.0,13993.0,13400.0,1.6960389614105225,0.020484208811204236,0.03895430319111079,-0.08096707181511609,-0.004396024160087109,-0.025697756558656693,0.0
280,5,-0.00022265419829636812,0.00025370166986249387,0.0012921433662995696,-0.005864363629370928,-0.008861345238983631,-0.016559645533561707,-0.017658023163676262,-0.00759202940389514,0.0035736490972340107,-0.03521900624036789,-0.030068660154938698,-0.005407515447586775,0.0,0.0,0.0,0.01644684001803398,0.005897533148527145,-0.0,0.0,0.0,0.0,0.0008598861168138683,0.0006344757275655866,0.0018386539304628968,13502.0,13357.0,13672.0,13727.0,0.40664002299308777,0.39738133549690247,0.4175874888896942,0.4211188852787018,0.0,0.0,0.0,0.0,13826.0,13021.0,13993.0,13400.0,1.7859901189804077,0.01622430138492685,0.03650150293090325,-0.07993082862852445,-0.02537698857486248,0.05444205179810524,-0.0
285,5,-0.00016225384024437517,0.00027851288905367255,0.001191372750326991,0.004902298096567392,-0.00652188528329134,0.0054686120711266994,-0.017622673884034157,-0.007345445454120636,0.003973693586885929,0.05592019110918045,-0.05023640766739845,0.037872038781642914,0.0,0.0,0.0,0.01644684001803398,0.005897533148527145,-0.0,0.0,0.0,0.0,0.0009181955829262733,0.0008064231951721013,0.0003000141878146678,13989.0,13430.0,13993.0,13664.0,0.43835869431495667,0.40202733874320984,0.438619464635849,0.41703346371650696,0.0,0.0,0.0,0.0,14039.0,13444.0,14063.0,13643.0,1.7859901189804077,0.012899776500181698,0.036717867308967915,-0.07992220276152114,-0.02537698857486248,0.05444205179810524,-0.0
290,5,-0.0001490587746957317,0.0003171740681864321,0.001174260163679719,0.003544327337294817,-0.007248093374073505,0.004240955226123333,-0.017622673884034157,-0.007345445454120636,0.003973693586885929,0.05592019110918045,-0.05023640766739845,0.037872038781642914,0.0,0.0,0.0,0.008200711570680141,0.0042435238137841225,-0.0,0.0,0.0,0.0,0.0009181955829262733,0.0008064231951721013,0.0003000141878146678,13989.0,13430.0,13993.0,13664.0,0.43835869431495667,0.40202733874320984,0.438619464635849,0.41703346371650696,0.0,0.0,0.0,0.0,14039.0,13444.0,14063.0,13643.0,1.7100658416748047,0.011168242850969713,0.03567175789858727,-0.07877357111861573,-0.017485396936535835,0.025993458926677704,-0.0
295,5,-0.00017244198534172028,0.0002401661331532523,0.0012528945226222277,-0.001388254459016025,0.006341714411973953,-0.007739742286503315,-0.016459304839372635,-0.006790068466216326,0.0045257494784891605,0.07002276182174683,-0.013675186783075333,0.006174549460411072,0.0,0.0,0.0,0.008200711570680141,0.0042435238137841225,-0.0,0.0,0.0,0.0,0.003278313670307398,0.001279457937926054,0.0015006811590865254,14362.0,13417.0,14603.0,14031.0,0.4635034203529358,0.4012002944946289,0.4801129698753357,0.4411734342575073,0.0,0.0,0.0,0.0,14390.0,12999.0,14395.0,13237.0,1.7100658416748047,0.0016451759636545511,0.031229906992667963,-0.0804551084894159,-0.017485396936535835,0.025993458926677704,-0.0
300,5,-0.0001314817345701158,0.00035436052712611854,0.0011067844461649656,0.004359928425401449,-0.011166640557348728,0.014437314122915268,-0.016459304839372635,-0.006790068466216326,0.0045257494784891605,0.07002276182174683,-0.013675186783075333,0.006174549460411072,0.0,0.0,0.0,-0.0071745035238564014,-0.0015141749754548073,-0.0,0.0,0.0,0.0,0.003278313670307398,0.001279457937926054,0.0015006811590865254,14362.0,13417.0,14603.0,14031.0,0.4635034203529358,0.4012002944946289,0.4801129698753357,0.4411734342575073,0.0,0.0,0.0,0.0,14390.0,12999.0,14395.0,13237.0,1.6885793209075928,0.008506451975508809,0.0347859837547887,-0.07847492298151305,0.006160813849419355,-0.022455105558037758,0.0
305,5,-0.00011782235378632322,0.0003872229717671871,0.0010265205055475235,0.0033830965403467417,-0.008410151116549969,0.015406603924930096,-0.016459304839372635,-0.006790068466216326,0.0045257494784891605,0.07002276182174683,-0.013675186783075333,0.006174549460411072,0.0,0.0,0.0,-0.0071745035238564014,-0.0015141749754548073,-0.0,0.0,0.0,0.0,0.002370012691244483,0.00108367542270571,0.0012740002712234855,14345.0,12959.0,14494.0,13438.0,0.4623280167579651,0.37263429164886475,0.47256094217300415,0.4025425910949707,0.0,0.0,0.0,0.0,14064.0,13731.0,14316.0,14324.0,1.6885793209075928,0.008678315760831178,0.0345452564368646,-0.07802938887563834,0.006160813849419355,-0.022455105558037758,0.0
310,5,-9.880227298708633e-05,0.0004209898761473596,0.0009420453570783138,0.0036356484051793814,-0.007416087668389082,0.01629965379834175,-0.016459304839372635,-0.006790068466216326,0.0045257494784891605,0.07002276182174683,-0.013675186783075333,0.006174549460411072,0.0,0.0,0.0,0.010551326908171177,0.002900018123909831,-0.0,0.0,0.0,0.0,0.002370012691244483,0.00108367542270571,0.0012740002712234855,14345.0,12959.0,14494.0,13438.0,0.4623280167579651,0.37263429164886475,0.47256094217300415,0.4025425910949707,0.0,0.0,0.0,0.0,14064.0,13731.0,14316.0,14324.0,1.721872091293335,0.008197896971721571,0.03478400928735859,-0.0774711180012663,-0.012031747959554195,0.03367455676198006,-0.0
315,5,-8.630423690192401e-05,0.0004499244096223265,0.0009217973565682769,0.0029540236573666334,-0.00643857941031456,0.008949625305831432,-0.015381974168121815,-0.006581393536180258,0.0046806917525827885,0.11308188736438751,-0.028397295624017715,0.05734236165881157,0.0,0.0,0.0,0.010551326908171177,0.002900018123909831,-0.0,0.0,0.0,0.0,0.0006750698084942997,0.00045722501818090677,0.0007751231896691024,13888.0,13504.0,13913.0,13659.0,0.43171513080596924,0.4067615270614624,0.43335193395614624,0.4167507290840149,0.0,0.0,0.0,0.0,14619.0,12648.0,14763.0,13140.0,1.721872091293335,0.00881441279777419,0.03394383281254039,-0.07727704532084993,-0.012031747959554195,0.03367455676198006,-0.0
320,5,-7.5718060543295e-05,0.00037787764449603856,0.0008899738895706832,0.0024519506841897964,0.006070178002119064,0.007398663088679314,-0.015381974168121815,-0.006581393536180258,0.0046806917525827885,0.11308188736438751,-0.028397295624017715,0.05734236165881157,0.0,0.0,0.0,0.008435885421931744,0.002582227811217308,-0.0,0.0,0.0,0.0,0.0006750698084942997,0.00045722501818090677,0.0007751231896691024,13888.0,13504.0,13913.0,13659.0,0.43171513080596924,0.4067615270614624,0.43335193395614624,0.4167507290840149,0.0,0.0,0.0,0.0,14619.0,12648.0,14763.0,13140.0,1.7029508352279663,0.0008764732154138523,0.030681638805861347,-0.07832176345418379,-0.010595772415399551,0.026627596467733383,-0.0
325,5,-0.0002150581422029063,0.0005162301240488887,0.0010932879522442818,-0.015740029513835907,-0.014174225740134716,-0.021438224241137505,-0.012565507553517818,-0.005739468149840832,0.005513555370271206,0.1791054606437683,-0.055726248770952225,0.08812325447797775,0.0,0.0,0.0,0.008435885421931744,0.002582227811217308,-0.0,0.0,0.0,0.0,0.0005511413910426199,0.0004359627200756222,0.002734905807301402,14806.0,12515.0,14809.0,12648.0,0.4943007230758667,0.3459089398384094,0.4945385456085205,0.35383111238479614,0.0,0.0,0.0,0.0,13804.0,13599.0,13824.0,13742.0,1.7029508352279663,0.010901363337700205,0.0336205342430795,-0.07670409094595337,-0.010595772415399551,0.026627596467733383,-0.0
331,5,-8.621588494861498e-05,0.0005355403409339488,0.0008925317670218647,0.00916505977511406,-0.007986918091773987,0.015515455976128578,-0.012565507553517818,-0.005739468149840832,0.005513555370271206,0.1791054606437683,-0.055726248770952225,0.08812325447797775,0.0,0.0,0.0,0.016390349715948105,-0.013557587750256062,-0.0,0.0,0.0,0.0,0.0005511413910426199,0.0004359627200756222,0.002734905807301402,14806.0,12515.0,14809.0,12648.0,0.4943007230758667,0.3459089398384094,0.4945385456085205,0.35383111238479614,0.0,0.0,0.0,0.0,13804.0,13599.0,13824.0,13742.0,1.8435205221176147,0.01183807299801828,0.0328937438609013,-0.076750609916179,0.06021582707762718,0.05600275844335556,0.0
336,5,-8.087768219411373e-05,0.0005413976614363492,0.00091027922462672,0.004306608345359564,-0.003897640621289611,0.004076482728123665,-0.011319974437355995,-0.0053102560341358185,0.0055488115176558495,0.16860289871692657,-0.02069719508290291,-0.0032629359047859907,0.0,0.0,0.0,0.016390349715948105,-0.013557587750256062,-0.0,0.0,0.0,0.0,0.002148804720491171,0.0008089370676316321,-0.00015217137115541846,13832.0,13624.0,14000.0,14019.0,0.4280104339122772,0.4144417941570282,0.43907782435417175,0.4403420388698578,0.0,0.0,0.0,0.0,14543.0,12845.0,14708.0,13284.0,1.8435205221176147,0.012658332914203109,0.0330080230053645,-0.0771346648960314,0.06021582707762718,0.05600275844335556,0.0
341,5,-8.937760139815509e-05,0.0005661135073751211,0.000977713381871581,0.0007026523817330599,-0.00452495738863945,-0.006461501121520996,-0.011319974437355995,-0.0053102560341358185,0.0055488115176558495,0.16860289871692657,-0.02069719508290291,-0.0032629359047859907,0.0,0.0,0.0,0.005622448865324259,0.003856014460325241,-0.0,0.0,0.0,0.0,0.002148804720491171,0.0008089370676316321,-0.00015217137115541846,13832.0,13624.0,14000.0,14019.0,0.4280104339122772,0.4144417941570282,0.43907782435417175,0.4403420388698578,0.0,0.0,0.0,0.0,14543.0,12845.0,14708.0,13284.0,1.6893818378448486,0.01288415088103019,0.032863264090763566,-0.07670770293399273,-0.015696775168180466,0.01760588027536869,-0.0
346,5,-7.588020525872707e-05,0.0005813257885165513,0.0009538782760500908,0.0019007489318028092,-0.003635463071987033,0.0002756135363597423,-0.011319974437355995,-0.0053102560341358185,0.0055488115176558495,0.16860289871692657,-0.02069719508290291,-0.0032629359047859907,0.0,0.0,0.0,0.005622448865324259,0.003856014460325241,-0.0,0.0,0.0,0.0,0.001776613644324243,0.000805555609986186,0.00221453420817852,14470.0,12848.0,14578.0,13205.0,0.4709233343601227,0.3658616840839386,0.47833767533302307,0.38782814145088196,0.0,0.0,0.0,0.0,14244.0,13079.0,14371.0,13451.0,1.6893818378448486,0.012586342279553289,0.03251718730389957,-0.0765168902920127,-0.015696775168180466,0.01760588027536869,-0.0
351,5,-0.00010888688848353922,0.0006349547184072435,0.0010838056914508343,0.007511592470109463,-0.007970000617206097,0.011843700893223286,-0.011319974437355995,-0.0053102560341358185,0.0055488115176558495,0.16860289871692657,-0.02069719508290291,-0.0032629359047859907,0.0,0.0,0.0,0.005426277406513691,0.0016607829602435231,-0.0,0.0,0.0,0.0,0.001776613644324243,0.000805555609986186,0.00221453420817852,14470.0,12848.0,14578.0,13205.0,0.4709233343601227,0.3658616840839386,0.47833767533302307,0.38782814145088196,0.0,0.0,0.0,0.0,14244.0,13079.0,14371.0,13451.0,1.6747411489486694,0.01511083927570906,0.031554243711064266,-0.07592146857202843,-0.00670202262699604,0.016844354569911957,-0.0
356,5,-0.0001115486811613664,0.0006521299947053194,0.001125560374930501,0.0026852223090827465,-0.005249036941677332,-0.0002730753330979496,-0.00915681105107069,-0.005142300855368376,0.006099760998040438,0.1807577908039093,-0.020768938586115837,0.03776608780026436,0.0,0.0,0.0,0.005426277406513691,0.0016607829602435231,-0.0,0.0,0.0,0.0,0.0023717288859188557,-0.000878873688634485,0.0007089351420290768,14495.0,13843.0,14899.0,14033.0,0.47261375188827515,0.42869508266448975,0.5009148120880127,0.44129687547683716,0.0,0.0,0.0,0.0,14363.0,13962.0,14784.0,14172.0,1.6747411489486694,0.016075321595390258,0.03170266869711166,-0.07608891580774717,-0.00670202262699604,0.016844354569911957,-0.0
361,5,-0.0001115486811613664,0.0006521299947053194,0.001125560374930501,0.0026852223090827465,-0.005249036941677332,-0.0002730753330979496,-0.00915681105107069,-0.005142300855368376,0.006099760998040438,0.1807577908039093,-0.020768938586115837,0.03776608780026436,0.0,0.0,0.0,0.007418589200824499,0.0023151268251240253,-0.0,0.0,0.0,0.0,0.0023717288859188557,-0.000878873688634485,0.0007089351420290768,14495.0,13843.0,14899.0,14033.0,0.47261375188827515,0.42869508266448975,0.5009148120880127,0.44129687547683716,0.0,0.0,0.0,0.0,14363.0,13962.0,14784.0,14172.0,1.6935194730758667,0.016075321595390258,0.03170266869711166,-0.07608891580774717,-0.009447230957448483,0.023286961019039154,0.0
366,5,-0.00011971211642958224,0.0006803730502724648,0.0011306687956675887,0.0007436311570927501,-0.0031199620570987463,0.0006710515590384603,-0.007753314916044474,-0.004905574023723602,0.006044752895832062,0.17339012026786804,-0.025215618312358856,0.03122682496905327,0.0,0.0,0.0,0.007418589200824499,0.0023151268251240253,-0.0,0.0,0.0,0.0,0.0011301568010821939,0.0008898850646801293,0.0016501744976267219,14210.0,13122.0,14222.0,13392.0,0.45314252376556396,0.38264405727386475,0.453967809677124,0.3996274471282959,0.0,0.0,0.0,0.0,14459.0,12820.0,14493.0,13122.0,1.6935194730758667,0.017863565372833786,0.03138015750424909,-0.07639254696418202,-0.009447230957448483,0.023286961019039154,0.0
371,5,-0.00011971211642958224,0.0006803730502724648,0.0011306687956675887,0.0007436311570927501,-0.0031199620570987463,0.0006710515590384603,-0.007753314916044474,-0.004905574023723602,0.006044752895832062,0.17339012026786804,-0.025215618312358856,0.03122682496905327,0.0,0.0,0.0,0.005000784527510405,0.000527714379131794,-0.0,0.0,0.0,0.0,0.0011301568010821939,0.0008898850646801293,0.0016501744976267219,14210.0,13122.0,14222.0,13392.0,0.45314252376556396,0.38264405727386475,0.453967809677124,0.3996274471282959,0.0,0.0,0.0,0.0,14459.0,12820.0,14493.0,13122.0,1.667954921722412,0.017863565372833786,0.03138015750424909,-0.07639254696418202,-0.0021209463011473417,0.015460649505257607,-0.0
376,5,-0.000288947019726038,0.0006972450646571815,0.0013083370868116617,-0.02027067355811596,-0.007767876610159874,-0.026205062866210938,-0.007753314916044474,-0.004905574023723602,0.006044752895832062,0.17339012026786804,-0.025215618312358856,0.03122682496905327,0.0,0.0,0.0,0.005000784527510405,0.000527714379131794,-0.0,0.0,0.0,0.0,0.0011301568010821939,0.0008898850646801293,0.0016501744976267219,14210.0,13122.0,14222.0,13392.0,0.45314252376556396,0.38264405727386475,0.453967809677124,0.3996274471282959,0.0,0.0,0.0,0.0,14459.0,12820.0,14493.0,13122.0,1.667954921722412,0.020613200801555855,0.03057173746338348,-0.07615096898989716,-0.0021209463011473417,0.015460649505257607,-0.0
381,5,-0.000288947019726038,0.0006972450646571815,0.0013083370868116617,-0.02027067355811596,-0.007767876610159874,-0.026205062866210938,-0.003652737708762288,-0.004405308049172163,0.0064485943876206875,0.2585221529006958,-0.012279598973691463,0.017983468249440193,0.0,0.0,0.0,0.009625503793358803,-0.017423242330551147,-0.0,0.0,0.0,0.0,0.0008220422314479947,0.0006151596317067742,0.000657984521239996,14009.0,13249.0,14029.0,13451.0,0.4397321939468384,0.3906152844429016,0.4410327672958374,0.40336090326309204,0.0,0.0,0.0,0.0,13810.0,13432.0,13854.0,13656.0,1.848860263824463,0.020613200801555855,0.03057173746338348,-0.07615096898989716,0.07761450111865997,0.032985564321279526,0.0
386,5,-0.00016842652985360473,0.0006980298785492778,0.0010116631165146828,0.006354188546538353,-0.0032013291493058205,0.02511884830892086,-0.003652737708762288,-0.004405308049172163,0.0064485943876206875,0.2585221529006958,-0.012279598973691463,0.017983468249440193,0.0,0.0,0.0,0.009625503793358803,-0.017423242330551147,-0.0,0.0,0.0,0.0,0.0008220422314479947,0.0006151596317067742,0.000657984521239996,14009.0,13249.0,14029.0,13451.0,0.4397321939468384,0.3906152844429016,0.4410327672958374,0.40336090326309204,0.0,0.0,0.0,0.0,13810.0,13432.0,13854.0,13656.0,1.848860263824463,0.021397635997026078,0.030751953190416532,-0.0760971823977466,0.07761450111865997,0.032985564321279526,0.0
391,5,-0.00021878912230022252,0.0006779154646210372,0.0010142670944333076,-0.004020700231194496,0.0012654016027227044,0.0032021861989051104,-0.001122658490203321,-0.003992049489170313,0.006723225116729736,0.1486937403678894,-0.05316738039255142,-0.021256113424897194,0.0,0.0,0.0,0.005033398512750864,0.005585619248449802,-0.0,0.0,0.0,0.0,0.0008579980931244791,0.0006483211764134467,0.0011139948619529605,13988.0,13421.0,14010.0,13617.0,0.4383049011230469,0.40145307779312134,0.43976694345474243,0.41399455070495605,0.0,0.0,0.0,0.0,14382.0,12981.0,14408.0,13209.0,1.7007849216461182,0.02191524455329803,0.030029325161351622,-0.07588429316735616,-0.022891005501151085,0.015867771580815315,-0.0
397,5,-0.0002542668953537941,0.0006379855913110077,0.00099778117146343,-0.005865613929927349,0.00529774185270071,0.003259183606132865,-0.001122658490203321,-0.003992049489170313,0.006723225116729736,0.1486937403678894,-0.05316738039255142,-0.021256113424897194,0.0,0.0,0.0,0.005033398512750864,0.005585619248449802,-0.0,0.0,0.0,0.0,0.0008579980931244791,0.0006483211764134467,0.0011139948619529605,13988.0,13421.0,14010.0,13617.0,0.4383049011230469,0.40145307779312134,0.43976694345474243,0.41399455070495605,0.0,0.0,0.0,0.0,14382.0,12981.0,14408.0,13209.0,1.7007849216461182,0.018813364145645498,0.02995173030606962,-0.07628067519184598,-0.022891005501151085,0.015867771580815315,-0.0
402,5,-0.00045539234997704625,0.0005907841841690242,0.0013812072575092316,-0.026481300592422485,0.007783265318721533,-0.04470745101571083,-0.0004783386248163879,-0.003485639812424779,0.006486988626420498,0.029585983604192734,-0.07482407987117767,0.01926518604159355,0.0,0.0,0.0,0.005033398512750864,0.005585619248449802,-0.0,0.0,0.0,0.0,0.0005891471519134939,0.00035815610317513347,0.0005872215260751545,13989.0,13247.0,14018.0,13380.0,0.4383849799633026,0.3904506266117096,0.44028010964393616,0.39883920550346375,0.0,0.0,0.0,0.0,14822.0,13708.0,15136.0,13643.0,1.7007849216461182,0.015256438214398305,0.02566867344864856,-0.07653299693621574,0.10182198137044907,-0.025912240147590637,0.0
407,5,-0.0003527345834299922,0.0006480106385424733,0.0011155795073136687,0.001726413262076676,-0.0037538676988333464,0.01399234589189291,-0.0004783386248163879,-0.003485639812424779,0.006486988626420498,0.029585983604192734,-0.07482407987117767,0.01926518604159355,0.0,0.0,0.0,-0.0073508392088115215,-0.022221354767680168,-0.0,0.0,0.0,0.0,0.0005891471519134939,0.00035815610317513347,0.0005872215260751545,13989.0,13247.0,14018.0,13380.0,0.4383849799633026,0.3904506266117096,0.44028010964393616,0.39883920550346375,0.0,0.0,0.0,0.0,14822.0,13708.0,15136.0,13643.0,1.9018076658248901,0.018004381435637384,0.027893207560970586,-0.07567690712514506,0.10182198137044907,-0.025912240147590637,0.0
412,5,-0.0003830971254501492,0.0006239718059077859,0.001131877419538796,-0.002952940296381712,0.001383114722557366,0.003641190705820918,-0.0007708920165896416,-0.0025899664033204317,0.006780662573873997,-0.08145967870950699,-0.09368906915187836,-0.01599961891770363,0.0,0.0,0.0,-0.0073508392088115215,-0.022221354767680168,-0.0,0.0,0.0,0.0,0.0011259060120210052,-0.0015092856483533978,0.0010667291935533285,14432.0,14105.0,14778.0,14045.0,0.46828028559684753,0.4461013972759247,0.4923672378063202,0.4421113431453705,0.0,0.0,0.0,0.0,14075.0,14457.0,14435.0,14403.0,1.9018076658248901,0.018058832721732407,0.028347957525615135,-0.07627237616518966,0.10182198137044907,-0.025912240147590637,0.0
417,5,-0.00043092845589853823,0.000616231351159513,0.0011475777719169855,-0.006920936051756144,0.0014821022050455213,-0.00042756934999488294,-0.0007708920165896416,-0.0025899664033204317,0.006780662573873997,-0.08145967870950699,-0.09368906915187836,-0.01599961891770363,0.0,0.0,0.0,-0.000560668995603919,-0.003295107278972864,-0.0,0.0,0.0,0.0,0.0011259060120210052,-0.0015092856483533978,0.0010667291935533285,14432.0,14105.0,14778.0,14045.0,0.46828028559684753,0.4461013972759247,0.4923672378063202,0.4421113431453705,0.0,0.0,0.0,0.0,14075.0,14457.0,14435.0,14403.0,1.6617565155029297,0.01604336320253565,0.027110645749212726,-0.07571021618880529,0.013194349594414234,-0.0017269605305045843,-0.0
422,5,-0.00048290114500559866,0.0005921530537307262,0.0011941262055188417,-0.00900509674102068,0.003482232568785548,-0.005756831727921963,-0.0018221475183963776,-0.0018691830337047577,0.0065932199358940125,-0.14687009155750275,-0.09245278686285019,0.017313124611973763,0.0,0.0,0.0,-0.000560668995603919,-0.003295107278972864,-0.0,0.0,0.0,0.0,-0.00025030833785422146,-0.002130586886778474,0.00017603504238650203,14156.0,13295.0,14174.0,13508.0,0.44956526160240173,0.3934761583805084,0.4507443606853485,0.4069991409778595,0.0,0.0,0.0,0.0,14243.0,13192.0,14273.0,13413.0,1.6617565155029297,0.016044243231020133,0.02762001181258941,-0.07626935859883768,0.013194349594414234,-0.0017269605305045843,-0.0
427,5,-0.0005088092875666916,0.0005603426834568381,0.0011091801570728421,-0.00671101501211524,0.00521014304831624,0.00789079163223505,-0.0018221475183963776,-0.0018691830337047577,0.0065932199358940125,-0.14687009155750275,-0.09245278686285019,0.017313124611973763,0.0,0.0,0.0,-0.0030524577014148235,-0.008756541647017002,-0.0,0.0,0.0,0.0,-0.00025030833785422146,-0.002130586886778474,0.00017603504238650203,14156.0,13295.0,14174.0,13508.0,0.44956526160240173,0.3934761583805084,0.4507443606853485,0.4069991409778595,0.0,0.0,0.0,0.0,14243.0,13192.0,14273.0,13413.0,1.7270619869232178,0.011679810257478062,0.026588379800004332,-0.07647417946657331,0.03644054755568504,-0.009771582670509815,0.0
432,5,-0.0006330694304779172,0.0004941360093653202,0.0013548263814300299,-0.017595622688531876,0.01002885214984417,-0.02632123976945877,-0.0036525430623441935,-0.0009980045724660158,0.006625297944992781,-0.16239014267921448,-0.08151814341545105,-0.03730648756027222,0.0,0.0,0.0,-0.0030524577014148235,-0.008756541647017002,-0.0,0.0,0.0,0.0,0.0005596097325906157,-0.0003362786374054849,0.0010714735835790634,14378.0,14714.0,14640.0,14408.0,0.4645739793777466,0.4878692030906677,0.48269057273864746,0.46667391061782837,0.0,0.0,0.0,0.0,14322.0,14771.0,14582.0,14465.0,1.7270619869232178,0.007430953592705963,0.02244631397213347,-0.07727837397717037,0.03644054755568504,-0.009771582670509815,0.0
437,5,-0.0006758116069249809,0.0005812713643535972,0.001254941220395267,-0.01216731034219265,-0.006444697733968496,0.0014577347319573164,-0.0036525430623441935,-0.0009980045724660158,0.006625297944992781,-0.16239014267921448,-0.08151814341545105,-0.03730648756027222,0.0,0.0,0.0,-0.010266563855111599,-0.01574259251356125,-0.0,0.0,0.0,0.0,0.0005596097325906157,-0.0003362786374054849,0.0010714735835790634,14378.0,14714.0,14640.0,14408.0,0.4645739793777466,0.4878692030906677,0.48269057273864746,0.46667391061782837,0.0,0.0,0.0,0.0,14322.0,14771.0,14582.0,14465.0,1.8318599462509155,0.01495805154089967,0.02750458950050575,-0.07574445129987127,0.06948316097259521,-0.03485877066850662,0.0
442,5,-0.0006453199894167483,0.000576185469981283,0.001142461784183979,-0.001207931898534298,-0.001967574469745159,0.014080618508160114,-0.004592719953507185,-0.00038503753603436053,0.006539384368807077,-0.12990695238113403,-0.041075367480516434,0.02643725275993347,0.0,0.0,0.0,-0.010266563855111599,-0.01574259251356125,-0.0,0.0,0.0,0.0,0.00040397074189968407,-0.0008262450573965907,0.00018869432096835226,13877.0,13849.0,14042.0,13788.0,0.4309299886226654,0.42911848425865173,0.4419238269329071,0.42508968710899353,0.0,0.0,0.0,0.0,13988.0,13198.0,14107.0,13236.0,1.8318599462509155,0.013408081142061892,0.026793392772301274,-0.0755622949130474,0.06948316097259521,-0.03485877066850662,0.0
447,5,-0.0006673667230643332,0.000589254661463201,0.0011409898288547993,-0.0031287793535739183,-0.002355332486331463,0.005808878690004349,-0.004592719953507185,-0.00038503753603436053,0.006539384368807077,-0.12990695238113403,-0.041075367480516434,0.02643725275993347,0.0,0.0,0.0,0.0034351323265582323,-0.002022549044340849,-0.0,0.0,0.0,0.0,0.00040397074189968407,-0.0008262450573965907,0.00018869432096835226,13877.0,13849.0,14042.0,13788.0,0.4309299886226654,0.42911848425865173,0.4419238269329071,0.42508968710899353,0.0,0.0,0.0,0.0,13988.0,13198.0,14107.0,13236.0,1.661808967590332,0.012711172335779293,0.026878629384971996,-0.0755221469071953,0.008098958991467953,0.010581118054687977,-0.0
452,5,-0.0006974082789383829,0.0006005525938235223,0.0011163584422320127,-0.004856501705944538,-0.0022978859487921,0.005279327277094126,-0.005970949772745371,-0.0002150172513211146,0.006525992415845394,-0.12013241648674011,0.007167973555624485,-0.013871378265321255,0.0,0.0,0.0,0.0034351323265582323,-0.002022549044340849,-0.0,0.0,0.0,0.0,-0.00019245895964559168,-0.0015134833520278335,0.0014029789017513394,14666.0,13910.0,14837.0,13675.0,0.4844662547111511,0.433106005191803,0.49650806188583374,0.4177796244621277,0.0,0.0,0.0,0.0,14069.0,13649.0,14236.0,13591.0,1.661808967590332,0.01310511125110424,0.027493262830898167,-0.07537337323286485,0.008098958991467953,0.010581118054687977,-0.0
458,5,-0.0007331913220696151,0.0006060265004634857,0.001133773592300713,-0.006236561108380556,-0.0015760177047923207,2.1910489522269927e-05,-0.005970949772745371,-0.0002150172513211146,0.006525992415845394,-0.12013241648674011,0.007167973555624485,-0.013871378265321255,0.0,0.0,0.0,0.0038089898880571127,-0.00540866469964385,-0.0,0.0,0.0,0.0,-0.00019245895964559168,-0.0015134833520278335,0.0014029789017513394,14666.0,13910.0,14837.0,13675.0,0.4844662547111511,0.433106005191803,0.49650806188583374,0.4177796244621277,0.0,0.0,0.0,0.0,14069.0,13649.0,14236.0,13591.0,1.6934254169464111,0.012233236668270244,0.028146694007750977,-0.07559987116455369,0.02207002229988575,0.011955906637012959,-0.0
463,5,-0.0008600029977969825,0.0005337700713425875,0.0014234198024496436,-0.017712026834487915,0.00804036296904087,-0.034748777747154236,-0.005970949772745371,-0.0002150172513211146,0.006525992415845394,-0.12013241648674011,0.007167973555624485,-0.013871378265321255,0.0,0.0,0.0,0.0038089898880571127,-0.00540866469964385,-0.0,0.0,0.0,0.0,-0.00019245895964559168,-0.0015134833520278335,0.0014029789017513394,14666.0,13910.0,14837.0,13675.0,0.4844662547111511,0.433106005191803,0.49650806188583374,0.4177796244621277,0.0,0.0,0.0,0.0,14069.0,13649.0,14236.0,13591.0,1.6934254169464111,0.003980472488526708,0.022411616145649443,-0.07727578117079666,0.02207002229988575,0.011955906637012959,-0.0
468,5,-0.0008232049876824021,0.0006656511104665697,0.001240213168784976,-0.0026690522208809853,-0.012609579600393772,0.008085282519459724,-0.008092337287962437,-0.00043742352863773704,0.0067714001052081585,-0.12065780907869339,0.0054087876342237,0.017329035326838493,0.0,0.0,0.0,-0.008021925576031208,-0.016161195933818817,-0.0,0.0,0.0,0.0,0.0012578311143442988,-0.00014523502613883466,0.0009459121502004564,13904.0,13197.0,14087.0,13348.0,0.432737797498703,0.3873232901096344,0.4449014961719513,0.39684638381004333,0.0,0.0,0.0,0.0,14494.0,14085.0,14672.0,13857.0,1.8278398513793945,0.011406621766778553,0.027739254863501064,-0.07560883891242774,0.07117552310228348,-0.0271779615432024,0.0
473,5,-0.0008354829042218626,0.0006863613380119205,0.0012032828526571393,-0.0025409681256860495,-0.007529059890657663,0.0076657445169985294,-0.008092337287962437,-0.00043742352863773704,0.0067714001052081585,-0.12065780907869339,0.0054087876342237,0.017329035326838493,0.0,0.0,0.0,-0.008021925576031208,-0.016161195933818817,-0.0,0.0,0.0,0.0,0.0012578311143442988,-0.00014523502613883466,0.0009459121502004564,13904.0,13197.0,14087.0,13348.0,0.432737797498703,0.3873232901096344,0.4449014961719513,0.39684638381004333,0.0,0.0,0.0,0.0,14494.0,14085.0,14672.0,13857.0,1.8278398513793945,0.011309687469071893,0.027083244295393556,-0.07553294743437916,0.07117552310228348,-0.0271779615432024,0.0
