timestamp,dt,pos_x,pos_y,pos_z,vel_x,vel_y,vel_z,roll,pitch,yaw,agv_x,agv_y,agv_z,x_ref,y_ref,z_ref,roll_ref,pitch_ref,yaw_ref,x_vel_ref,y_vel_ref,z_vel_ref,x_torque,y_torque,z_torque,w0,w1,w2,w3,u0,u1,u2,u3,m0req,m1req,m2req,m3req,thrust0,thrust1,thrust2,thrust3,thrust_ref,roll_vicon,pitch_vicon,yaw_vicon,acc_x,acc_y,acc_z,roll_received,pitch_received,yaw_received
5,5,0.0,0.0,0.0,-0.0007595967617817223,-0.0011469819582998753,0.0014856054913252592,0.016242194920778275,-0.2927689254283905,0.0025237896479666233,0.0,0.0,0.0,0.0,0.0,0.0,0.0014151555951684713,-0.0007209207396954298,-0.0,0.0,0.0,0.0,-0.003006651299074292,0.08765958249568939,0.0002864605048671365,1495.0,1495.0,1495.0,1495.0,0.0,0.0,0.0,0.0,0.0,0.0,0.0,0.0,0.0,0.0,0.0,0.0,1.6397415399551392,0.03592981814009934,0.12256427597787888,-0.21501437997591685,0.002848487813025713,0.004301182460039854,0.0,0.0014151555951684713,-0.0007209207396954298,0.0
28,23,0.0,0.0,0.0,0.0014584233285859227,-0.0009399825939908624,-0.0003869803040288389,0.016242194920778275,-0.2927689254283905,0.0025237896479666233,0.0,0.0,0.0,0.0,0.0,0.0,0.0014151555951684713,-0.0007209207396954298,-0.0,0.0,0.0,0.0,-0.003006651299074292,0.08765958249568939,0.0002864605048671365,1495.0,1495.0,1495.0,1495.0,0.0,0.0,0.0,0.0,0.0,0.0,0.0,0.0,0.0,0.0,0.0,0.0,1.6397415399551392,0.03640425930921031,0.12292947281203619,-0.21549014228189983,0.002848487813025713,0.004301182460039854,0.0,0.0014151555951684713,-0.0007209207396954298,0.0
33,5,0.0,0.0,0.0,0.0014584233285859227,-0.0009399825939908624,-0.0003869803040288389,0.016242194920778275,-0.2927689254283905,0.0025237896479666233,0.0,0.0,0.0,0.0,0.0,0.0,0.0014151555951684713,-0.0007209207396954298,-0.0,0.0,0.0,0.0,-0.003006651299074292,0.08765958249568939,0.0002864605048671365,1495.0,1495.0,1495.0,1495.0,0.0,0.0,0.0,0.0,0.0,0.0,0.0,0.0,0.0,0.0,0.0,0.0,1.6397415399551392,0.03640425930921031,0.12292947281203619,-0.21549014228189983,0.002848487813025713,0.004301182460039854,0.0,0.0014151555951684713,-0.0007209207396954298,0.0
38,5,0.0,0.0,0.0,0.0014584233285859227,-0.0009399825939908624,-0.0003869803040288389,0.016242194920778275,-0.2927689254283905,0.0025237896479666233,0.0,0.0,0.0,0.0,0.0,0.0,0.0014151555951684713,-0.0007209207396954298,-0.0,0.0,0.0,0.0,-0.0030131328385323286,0.08749879151582718,0.0001421218184987083,1495.0,1495.0,1495.0,1495.0,0.0,0.0,0.0,0.0,0.0,0.0,0.0,0.0,0.0,0.0,0.0,0.0,1.6397415399551392,0.03640425930921031,0.12292947281203619,-0.21549014228189983,0.002848487813025713,0.004301182460039854,0.0,0.0014151555951684713,-0.0007209207396954298,0.0
44,7,4.327878741605673e-06,-9.226644579030108e-06,8.730795343581121e-06,0.0011027147993445396,0.0007312042871490121,-0.0012024875031784177,0.01624460518360138,-0.29271918535232544,0.0024993030820041895,0.0,0.0,0.0,0.0,0.0,0.0,-0.0009190991404466331,0.0010528558632358909,-0.0,0.0,0.0,0.0,-0.0029570432379841805,0.08765062689781189,0.00019369287474546582,1495.0,1495.0,1495.0,1495.0,0.0,0.0,0.0,0.0,0.0,0.0,0.0,0.0,0.0,0.0,0.0,0.0,1.6393369436264038,0.037109401885326423,0.1224948234089603,-0.2156684048124328,-0.004158998839557171,-0.002792794955894351,0.0,0.0014151555951684713,-0.0007209207396954298,0.0
52,7,7.333601843129145e-06,-2.003138797590509e-05,-2.7250547645962797e-05,0.0011027147993445396,0.0007312042871490121,-0.0012024875031784177,0.0162171870470047,-0.2927192747592926,0.0024646474048495293,0.0,0.0,0.0,0.0,0.0,0.0,-0.0009386061574332416,0.001056965091265738,-0.0,0.0,0.0,0.0,-0.0029444119427353144,0.08772958070039749,0.00015204999363049865,18907.0,3638.0,1927.0,18538.0,0.8256462812423706,0.019560594111680984,0.0020922995172441006,0.7924423813819885,0.0,0.0,0.0,0.0,0.0,0.0,0.0,0.0,1.6394644975662231,0.03650880169188889,0.1227173491788937,-0.2152138270735494,-0.004175555892288685,-0.002852291101589799,0.0,0.0014151555951684713,-0.0007209207396954298,0.0
60,8,-5.71213513467228e-06,-9.811600648390595e-06,-2.4888960979296826e-05,-0.0011244025081396103,-0.0009338928502984345,-0.0007643853896297514,0.0162171870470047,-0.2927192747592926,0.0024646474048495293,0.0,0.0,0.0,0.0,0.0,0.0,-0.0009386061574332416,0.001056965091265738,-0.0,0.0,0.0,0.0,-0.0029444119427353144,0.08772958070039749,0.00015204999363049865,18907.0,3638.0,1927.0,18538.0,0.8256462812423706,0.019560594111680984,0.0020922995172441006,0.7924423813819885,0.0,0.0,0.0,0.0,0.0,0.0,0.0,0.0,1.6394644975662231,0.0363292041439896,0.12309521196171565,-0.21543301238413967,-0.004175555892288685,-0.002852291101589799,0.0,0.0014151555951684713,-0.0007209207396954298,0.0
65,5,-5.71213513467228e-06,-9.811600648390595e-06,-2.4888960979296826e-05,-0.0011244025081396103,-0.0009338928502984345,-0.0007643853896297514,0.0162171870470047,-0.2927192747592926,0.0024646474048495293,0.0,0.0,0.0,0.0,0.0,0.0,-0.0009386061574332416,0.001056965091265738,-0.0,0.0,0.0,0.0,-0.0029444119427353144,0.08772958070039749,0.00015204999363049865,18907.0,3638.0,1927.0,18538.0,0.8256462812423706,0.019560594111680984,0.0020922995172441006,0.7924423813819885,0.0,0.0,0.0,0.0,0.0,0.0,0.0,0.0,1.6394644975662231,0.0363292041439896,0.12309521196171565,-0.21543301238413967,-0.004175555892288685,-0.002852291101589799,0.0,0.0014151555951684713,-0.0007209207396954298,0.0
70,5,4.048438768222695e-06,-8.462109690299258e-06,-4.5233908167574555e-05,0.000721507880371064,-0.0005354960449039936,0.00213563977740705,0.016215406358242035,-0.2927086055278778,0.0024395594373345375,0.0,0.0,0.0,0.0,0.0,0.0,0.0011338596232235432,-0.0010745434556156397,-0.0,0.0,0.0,0.0,-0.003460577456280589,0.0881982073187828,0.00019331678049638867,18931.0,3784.0,1495.0,18560.0,0.8278470039367676,0.021722452715039253,-0.004451660439372063,0.7943467497825623,0.0,0.0,0.0,0.0,0.0,0.0,0.0,0.0,1.6405870914459229,0.03720088860609884,0.12242754262208767,-0.21513805655252657,0.004247905220836401,0.0034479976166039705,0.0,-0.0009190991404466331,0.0010528558632358909,0.0
75,5,4.048438768222695e-06,-8.462109690299258e-06,-4.5233908167574555e-05,0.000721507880371064,-0.0005354960449039936,0.00213563977740705,0.016215406358242035,-0.2927086055278778,0.0024395594373345375,0.0,0.0,0.0,0.0,0.0,0.0,0.0011338596232235432,-0.0010745434556156397,-0.0,0.0,0.0,0.0,-0.003460577456280589,0.0881982073187828,0.00019331678049638867,18931.0,3784.0,1495.0,18560.0,0.8278470039367676,0.021722452715039253,-0.004451660439372063,0.7943467497825623,0.0,0.0,0.0,0.0,0.0,0.0,0.0,0.0,1.6405870914459229,0.03720088860609884,0.12242754262208767,-0.21513805655252657,0.004247905220836401,0.0034479976166039705,0.0,-0.0009190991404466331,0.0010528558632358909,0.0
81,5,2.735078305704519e-05,-7.17779403203167e-06,-3.487976573524065e-05,0.000721507880371064,-0.0005354960449039936,0.00213563977740705,0.01622188091278076,-0.2927021086215973,0.002433963119983673,0.0,0.0,0.0,0.0,0.0,0.0,0.0006472562672570348,0.0006924743647687137,-0.0,0.0,0.0,0.0,-0.0034454367123544216,0.0883031040430069,0.00024377038062084466,18967.0,3557.0,1495.0,18521.0,0.8311980366706848,0.018399734050035477,-0.001067169476300478,0.7909338474273682,0.0,0.0,0.0,0.0,0.0,0.0,0.0,0.0,1.6348649263381958,0.03698570979310131,0.12222169317401488,-0.2148941795343096,-0.0027279560454189777,0.001961402129381895,0.0,-0.0009386061574332416,0.001056965091265738,0.0
86,5,2.735078305704519e-05,-7.17779403203167e-06,-3.487976573524065e-05,0.000721507880371064,-0.0005354960449039936,0.00213563977740705,0.01622188091278076,-0.2927021086215973,0.002433963119983673,0.0,0.0,0.0,0.0,0.0,0.0,0.0006472562672570348,0.0006924743647687137,-0.0,0.0,0.0,0.0,-0.0034454367123544216,0.0883031040430069,0.00024377038062084466,18967.0,3557.0,1495.0,18521.0,0.8311980366706848,0.018399734050035477,-0.001067169476300478,0.7909338474273682,0.0,0.0,0.0,0.0,0.0,0.0,0.0,0.0,1.6348649263381958,0.03698570979310131,0.12222169317401488,-0.2148941795343096,-0.0027279560454189777,0.001961402129381895,0.0,-0.0009386061574332416,0.001056965091265738,0.0
91,5,9.27744713408174e-06,-2.186884739785455e-05,-2.454097193549387e-05,0.000721507880371064,-0.0005354960449039936,0.00213563977740705,0.01622113212943077,-0.29272064566612244,0.002429274609312415,0.0,0.0,0.0,0.0,0.0,0.0,0.0006494616391137242,0.0007249009795486927,-0.0,0.0,0.0,0.0,-0.0030223694629967213,0.0878138393163681,0.000266656163148582,18938.0,3523.0,2278.0,18507.0,0.8285166621208191,0.017923487350344658,0.004473978187888861,0.7896729707717896,0.0,0.0,0.0,0.0,0.0,0.0,0.0,0.0,1.6351603269577026,0.03789148447541599,0.122032164655329,-0.21528682097198817,-0.0028562145307660103,0.001968440832570195,0.0,0.0011338596232235432,-0.0010745434556156397,0.0
104,13,-2.548699058024795e-06,-8.429419722233433e-06,4.75735760119278e-06,0.000721507880371064,-0.0005354960449039936,0.00213563977740705,0.01622113212943077,-0.29272064566612244,0.002429274609312415,0.0,0.0,0.0,0.0,0.0,0.0,0.0006229091668501496,0.000699829135555774,-0.0,0.0,0.0,0.0,-0.0030223694629967213,0.0878138393163681,0.000266656163148582,18938.0,3523.0,2278.0,18507.0,0.8285166621208191,0.017923487350344658,0.004473978187888861,0.7896729707717896,0.0,0.0,0.0,0.0,0.0,0.0,0.0,0.0,1.6348140239715576,0.03745837092941149,0.12265199599149959,-0.21561765326208343,-0.0027568438090384007,0.001887563499622047,0.0,0.0011338596232235432,-0.0010745434556156397,0.0
111,8,-1.9929480913560838e-05,-6.255738298932556e-06,-1.9079167032032274e-05,-0.0017970907501876354,-0.0004750402003992349,0.0037146389950066805,0.01622113212943077,-0.29272064566612244,0.002429274609312415,0.0,0.0,0.0,0.0,0.0,0.0,0.0006229091668501496,0.000699829135555774,-0.0,0.0,0.0,0.0,-0.0030223694629967213,0.0878138393163681,0.000266656163148582,18938.0,3523.0,2278.0,18507.0,0.8285166621208191,0.017923487350344658,0.004473978187888861,0.7896729707717896,0.0,0.0,0.0,0.0,0.0,0.0,0.0,0.0,1.6348140239715576,0.03671110252132723,0.12319397668073599,-0.21581172447965635,-0.0027568438090384007,0.001887563499622047,0.0,0.0011338596232235432,-0.0010745434556156397,0.0
116,5,-1.9929480913560838e-05,-6.255738298932556e-06,-1.9079167032032274e-05,-0.0017970907501876354,-0.0004750402003992349,0.0037146389950066805,0.01622779667377472,-0.2927391231060028,0.0024518908467143774,0.0,0.0,0.0,0.0,0.0,0.0,0.0005728870164602995,-0.0017278612358495593,-0.0,0.0,0.0,0.0,-0.003138066967949271,0.08834123611450195,0.000284769746940583,18969.0,3173.0,1727.0,18502.0,0.8313144445419312,0.013360235840082169,0.0010063252411782742,0.7891839146614075,0.0,0.0,0.0,0.0,0.0,0.0,0.0,0.0,1.644909143447876,0.03671110252132723,0.12319397668073599,-0.21581172447965635,0.006848609074950218,0.001746704219840467,0.0,0.0006472562672570348,0.0006924743647687137,0.0
122,5,1.0288978046446573e-05,-4.01412216888275e-06,-6.452397792600095e-05,-0.0017970907501876354,-0.0004750402003992349,0.0037146389950066805,0.01622779667377472,-0.2927391231060028,0.0024518908467143774,0.0,0.0,0.0,0.0,0.0,0.0,0.0005728870164602995,-0.0017278612358495593,-0.0,0.0,0.0,0.0,-0.003138066967949271,0.08834123611450195,0.000284769746940583,18969.0,3173.0,1727.0,18502.0,0.8313144445419312,0.013360235840082169,0.0010063252411782742,0.7891839146614075,0.0,0.0,0.0,0.0,0.0,0.0,0.0,0.0,1.644909143447876,0.03801583152253341,0.1229339977014391,-0.21550052506441,0.006848609074950218,0.001746704219840467,0.0,0.0006472562672570348,0.0006924743647687137,0.0
127,5,1.0288978046446573e-05,-4.01412216888275e-06,-6.452397792600095e-05,-0.0017970907501876354,-0.0004750402003992349,0.0037146389950066805,0.01623924821615219,-0.292724072933197,0.0024484526365995407,0.0,0.0,0.0,0.0,0.0,0.0,0.0005770758725702763,-0.0016863582422956824,-0.0,0.0,0.0,0.0,-0.003133114892989397,0.088516965508461,0.00026769921532832086,18968.0,3178.0,1495.0,18518.0,0.8312282562255859,0.013415828347206116,-7.957220077514648e-05,0.7905958294868469,0.0,0.0,0.0,0.0,0.0,0.0,0.0,0.0,1.6444820165634155,0.03801583152253341,0.1229339977014391,-0.21550052506441,0.0066823712550103664,0.0017590190982446074,0.0,0.0006229091668501496,0.000699829135555774,0.0
132,5,1.9008550680155167e-06,-3.7380115713858686e-07,-5.3115196351427585e-05,-0.0017970907501876354,-0.0004750402003992349,0.0037146389950066805,0.01623924821615219,-0.292724072933197,0.0024484526365995407,0.0,0.0,0.0,0.0,0.0,0.0,0.0005770758725702763,-0.0016863582422956824,-0.0,0.0,0.0,0.0,-0.003133114892989397,0.088516965508461,0.00026769921532832086,18968.0,3178.0,1495.0,18518.0,0.8312282562255859,0.013415828347206116,-7.957220077514648e-05,0.7905958294868469,0.0,0.0,0.0,0.0,0.0,0.0,0.0,0.0,1.6444820165634155,0.03646795252389895,0.12306506850359948,-0.21524976460128825,0.0066823712550103664,0.0017590190982446074,0.0,0.0006229091668501496,0.000699829135555774,0.0
137,5,1.9008550680155167e-06,-3.7380115713858686e-07,-5.3115196351427585e-05,-0.0017970907501876354,-0.0004750402003992349,0.0037146389950066805,0.016241319477558136,-0.2927118241786957,0.002454757457599044,0.0,0.0,0.0,0.0,0.0,0.0,0.000583596236538142,-0.0016978603089228272,-0.0,0.0,0.0,0.0,-0.0031754164956510067,0.08788152039051056,0.00010267738252878189,18953.0,3282.0,1495.0,18534.0,0.8298932313919067,0.0147171001881361,-0.0018483609892427921,0.7920520305633545,0.0,0.0,0.0,0.0,0.0,0.0,0.0,0.0,1.6446164846420288,0.03646795252389895,0.12306506850359948,-0.21524976460128825,0.006728499662131071,0.0017790396232157946,0.0,0.0005728870164602995,-0.0017278612358495593,0.0
142,5,1.5134971363295335e-05,-9.759603926795535e-06,-2.6286164938937873e-05,0.0008692576666362584,0.0009362802375108004,-0.0017336279852315784,0.016241319477558136,-0.2927118241786957,0.002454757457599044,0.0,0.0,0.0,0.0,0.0,0.0,0.000583596236538142,-0.0016978603089228272,-0.0,0.0,0.0,0.0,-0.0031754164956510067,0.08788152039051056,0.00010267738252878189,18953.0,3282.0,1495.0,18534.0,0.8298932313919067,0.0147171001881361,-0.0018483609892427921,0.7920520305633545,0.0,0.0,0.0,0.0,0.0,0.0,0.0,0.0,1.6446164846420288,0.03686474196792157,0.12242566137312041,-0.21514312807583225,0.006728499662131071,0.0017790396232157946,0.0,0.0005728870164602995,-0.0017278612358495593,0.0
147,5,1.8738184735411778e-05,-2.9194898161222227e-05,-5.412787868408486e-05,0.0007800887688063085,0.0027067475020885468,0.002647554501891136,0.016247373074293137,-0.29272234439849854,0.0024308201391249895,0.0,0.0,0.0,0.0,0.0,0.0,-0.0011734889121726155,0.0008464932907372713,-0.0,0.0,0.0,0.0,-0.003160119289532304,0.0878487378358841,0.00037494764546863735,18920.0,3857.0,1657.0,18561.0,0.8268806338310242,0.02285999432206154,0.000675398507155478,0.7944931387901306,0.0,0.0,0.0,0.0,0.0,0.0,0.0,0.0,1.6390057802200317,0.03716493369575256,0.12187514153732946,-0.215019223668698,-0.0033431476913392544,-0.0035650681238621473,0.0,0.0005770758725702763,-0.0016863582422956824,0.0
152,5,1.8738184735411778e-05,-2.9194898161222227e-05,-5.412787868408486e-05,0.0007800887688063085,0.0027067475020885468,0.002647554501891136,0.016247373074293137,-0.29272234439849854,0.0024308201391249895,0.0,0.0,0.0,0.0,0.0,0.0,-0.0011734889121726155,0.0008464932907372713,-0.0,0.0,0.0,0.0,-0.003160119289532304,0.0878487378358841,0.00037494764546863735,18920.0,3857.0,1657.0,18561.0,0.8268806338310242,0.02285999432206154,0.000675398507155478,0.7944931387901306,0.0,0.0,0.0,0.0,0.0,0.0,0.0,0.0,1.6390057802200317,0.03716493369575256,0.12187514153732946,-0.215019223668698,-0.0033431476913392544,-0.0035650681238621473,0.0,0.0005770758725702763,-0.0016863582422956824,0.0
157,5,6.899329946463695e-06,-2.184489494538866e-05,-6.674063479295e-05,-0.0011086271842941642,0.00020069850143045187,0.0025725525338202715,0.016253594309091568,-0.292695015668869,0.002456223824992776,0.0,0.0,0.0,0.0,0.0,0.0,-0.0033616074360907078,0.0007595200440846384,-0.0,0.0,0.0,0.0,-0.0031291362829506397,0.08794474601745605,0.00019420763419475406,18940.0,3696.0,2022.0,18543.0,0.8287146091461182,0.020402319729328156,0.0026728699449449778,0.7928267121315002,0.0,0.0,0.0,0.0,0.0,0.0,0.0,0.0,1.654855489730835,0.03542373776264314,0.12207568199058605,-0.2142693825266536,-0.003028647508472204,-0.010311316698789597,0.0,0.000583596236538142,-0.0016978603089228272,0.0
162,5,6.899329946463695e-06,-2.184489494538866e-05,-6.674063479295e-05,-0.0011086271842941642,0.00020069850143045187,0.0025725525338202715,0.016253594309091568,-0.292695015668869,0.002456223824992776,0.0,0.0,0.0,0.0,0.0,0.0,-0.0033616074360907078,0.0007595200440846384,-0.0,0.0,0.0,0.0,-0.0031291362829506397,0.08794474601745605,0.00019420763419475406,18940.0,3696.0,2022.0,18543.0,0.8287146091461182,0.020402319729328156,0.0026728699449449778,0.7928267121315002,0.0,0.0,0.0,0.0,0.0,0.0,0.0,0.0,1.654855489730835,0.03542373776264314,0.12207568199058605,-0.2142693825266536,-0.003028647508472204,-0.010311316698789597,0.0,0.000583596236538142,-0.0016978603089228272,0.0
167,5,-4.281229121261276e-05,-1.0870149708352983e-05,-4.155387796345167e-05,-0.006408845540136099,-0.0012366899754852057,-0.0019933898001909256,0.016232604160904884,-0.29269933700561523,0.0024373186752200127,0.0,0.0,0.0,0.0,0.0,0.0,-0.00028777492116205394,-0.0010441410122439265,-0.0,0.0,0.0,0.0,-0.0034720308613032103,0.08869326114654541,0.0008271372644230723,18970.0,3516.0,1495.0,18560.0,0.8314611911773682,0.017827244475483894,-0.004700617864727974,0.7944179177284241,0.0,0.0,0.0,0.0,0.0,0.0,0.0,0.0,1.6371715068817139,0.03572549004009221,0.12344545542813828,-0.2155154723024889,0.004119126591831446,-0.0008732843562029302,0.0,-0.0011734889121726155,0.0008464932907372713,0.0
173,5,-4.281229121261276e-05,-1.0870149708352983e-05,-4.155387796345167e-05,-0.006408845540136099,-0.0012366899754852057,-0.0019933898001909256,0.016232604160904884,-0.29269933700561523,0.0024373186752200127,0.0,0.0,0.0,0.0,0.0,0.0,-0.00028777492116205394,-0.0010441410122439265,-0.0,0.0,0.0,0.0,-0.0034720308613032103,0.08869326114654541,0.0008271372644230723,18970.0,3516.0,1495.0,18560.0,0.8314611911773682,0.017827244475483894,-0.004700617864727974,0.7944179177284241,0.0,0.0,0.0,0.0,0.0,0.0,0.0,0.0,1.6371715068817139,0.03572549004009221,0.12344545542813828,-0.2155154723024889,0.004119126591831446,-0.0008732843562029302,0.0,-0.0011734889121726155,0.0008464932907372713,0.0
178,5,-1.8417755143218528e-07,1.6709474948584102e-05,-7.147317955968902e-05,0.002551835495978594,-0.0038042308297008276,0.0027929602656513453,0.016183748841285706,-0.2926647961139679,0.002448481507599354,0.0,0.0,0.0,0.0,0.0,0.0,0.001459177816286683,-0.005951227154582739,-0.0,0.0,0.0,0.0,-0.003541351528838277,0.08863327652215958,0.0003367102472111583,19819.0,1495.0,6200.0,17729.0,0.9108036756515503,-0.050963468849658966,0.07318245619535446,0.721832811832428,0.0,0.0,0.0,0.0,0.0,0.0,0.0,0.0,1.69234037399292,0.037309323019050725,0.12249980294269738,-0.21415742312486302,0.024268509820103645,0.0045772455632686615,0.0,-0.0033616074360907078,0.0007595200440846384,0.0
183,5,-1.8417755143218528e-07,1.6709474948584102e-05,-7.147317955968902e-05,0.002551835495978594,-0.0038042308297008276,0.0027929602656513453,0.016183748841285706,-0.2926647961139679,0.002448481507599354,0.0,0.0,0.0,0.0,0.0,0.0,0.001459177816286683,-0.005951227154582739,-0.0,0.0,0.0,0.0,-0.003541351528838277,0.08863327652215958,0.0003367102472111583,19819.0,1495.0,6200.0,17729.0,0.9108036756515503,-0.050963468849658966,0.07318245619535446,0.721832811832428,0.0,0.0,0.0,0.0,0.0,0.0,0.0,0.0,1.69234037399292,0.037309323019050725,0.12249980294269738,-0.21415742312486302,0.024268509820103645,0.0045772455632686615,0.0,-0.0033616074360907078,0.0007595200440846384,0.0
188,5,-2.7804924684460275e-05,3.7716531551268417e-06,-2.7841721021104604e-05,0.002551835495978594,-0.0038042308297008276,0.0027929602656513453,0.0159570574760437,-0.2926306128501892,0.0023036031052470207,0.0,0.0,0.0,0.0,0.0,0.0,0.004631582647562027,0.002374434843659401,-0.0,0.0,0.0,0.0,-0.0036393548361957073,0.08822134137153625,0.0015447218902409077,18263.0,6405.0,1495.0,19227.0,0.7681084275245667,0.07887421548366547,-0.06489303708076477,0.8550819158554077,0.0,0.0,0.0,0.0,0.0,0.0,0.0,0.0,1.672386646270752,0.03526108955677741,0.12327759422716371,-0.21605241827896324,-0.009568498469889164,0.014357269741594791,0.0,-0.00028777492116205394,-0.0010441410122439265,0.0
193,5,-2.7804924684460275e-05,3.7716531551268417e-06,-2.7841721021104604e-05,0.002551835495978594,-0.0038042308297008276,0.0027929602656513453,0.0159570574760437,-0.2926306128501892,0.0023036031052470207,0.0,0.0,0.0,0.0,0.0,0.0,0.004631582647562027,0.002374434843659401,-0.0,0.0,0.0,0.0,-0.0036393548361957073,0.08822134137153625,0.0015447218902409077,18263.0,6405.0,1495.0,19227.0,0.7681084275245667,0.07887421548366547,-0.06489303708076477,0.8550819158554077,0.0,0.0,0.0,0.0,0.0,0.0,0.0,0.0,1.672386646270752,0.03526108955677741,0.12327759422716371,-0.21605241827896324,-0.009568498469889164,0.014357269741594791,0.0,-0.00028777492116205394,-0.0010441410122439265,0.0
198,5,1.5940258890623227e-05,-8.39770473248791e-06,-8.454522321699187e-05,0.006270156241953373,-6.136946467449889e-05,0.007921604439616203,0.01624481752514839,-0.2925748825073242,0.002861077431589365,0.0,0.0,0.0,0.0,0.0,0.0,0.004609693307429552,0.002337251091375947,-0.0,0.0,0.0,0.0,-0.0025838369037956,0.08671054244041443,-0.0010450886329635978,20112.0,1495.0,7948.0,17356.0,0.9391111135482788,-0.06586046516895294,0.12863217294216156,0.6904575824737549,0.0,0.0,0.0,0.0,0.0,0.0,0.0,0.0,1.6720014810562134,0.03632500916483574,0.12178407999290651,-0.21333204794208283,-0.009416487067937851,0.01428612507879734,0.0,0.001459177816286683,-0.005951227154582739,0.0
203,5,1.5940258890623227e-05,-8.39770473248791e-06,-8.454522321699187e-05,0.006270156241953373,-6.136946467449889e-05,0.007921604439616203,0.01624481752514839,-0.2925748825073242,0.002861077431589365,0.0,0.0,0.0,0.0,0.0,0.0,0.004609693307429552,0.002337251091375947,-0.0,0.0,0.0,0.0,-0.0025838369037956,0.08671054244041443,-0.0010450886329635978,20112.0,1495.0,7948.0,17356.0,0.9391111135482788,-0.06586046516895294,0.12863217294216156,0.6904575824737549,0.0,0.0,0.0,0.0,0.0,0.0,0.0,0.0,1.6720014810562134,0.03632500916483574,0.12178407999290651,-0.21333204794208283,-0.009416487067937851,0.01428612507879734,0.0,0.001459177816286683,-0.005951227154582739,0.0
208,5,-1.1923298188776243e-05,-3.57471544703003e-05,-6.500065501313657e-05,-0.0008355643949471414,0.003257386153563857,0.0008232938125729561,0.016289353370666504,-0.29223597049713135,0.0028129834681749344,0.0,0.0,0.0,0.0,0.0,0.0,5.857833821210079e-05,0.005797531921416521,-0.0,0.0,0.0,0.0,-0.0028403117321431637,0.0889306515455246,0.0006086749490350485,18045.0,7318.0,1495.0,19712.0,0.7490275502204895,0.10689280182123184,-0.0841737762093544,0.9006400108337402,0.0,0.0,0.0,0.0,0.0,0.0,0.0,0.0,1.6894094944000244,0.03583255687244665,0.1217013538188128,-0.2140464953110959,-0.02360084466636181,0.00018343428382650018,0.0,0.004631582647562027,0.002374434843659401,0.0
213,5,-1.1923298188776243e-05,-3.57471544703003e-05,-6.500065501313657e-05,-0.0008355643949471414,0.003257386153563857,0.0008232938125729561,0.016289353370666504,-0.29223597049713135,0.0028129834681749344,0.0,0.0,0.0,0.0,0.0,0.0,5.857833821210079e-05,0.005797531921416521,-0.0,0.0,0.0,0.0,-0.0028403117321431637,0.0889306515455246,0.0006086749490350485,18045.0,7318.0,1495.0,19712.0,0.7490275502204895,0.10689280182123184,-0.0841737762093544,0.9006400108337402,0.0,0.0,0.0,0.0,0.0,0.0,0.0,0.0,1.6894094944000244,0.03583255687244665,0.1217013538188128,-0.2140464953110959,-0.02360084466636181,0.00018343428382650018,0.0,0.004631582647562027,0.002374434843659401,0.0
219,5,8.268356032203883e-05,-0.0003622814838308841,5.58695501240436e-05,-0.0008355643949471414,0.003257386153563857,0.0008232938125729561,0.015571488998830318,-0.2920423746109009,0.0027900543063879013,0.0,0.0,0.0,0.0,0.0,0.0,5.857833821210079e-05,-0.0007995175546966493,-0.0,0.0,0.0,0.0,-0.0010695321252569556,0.08846783638000488,0.0016128673451021314,19746.0,1495.0,6891.0,17781.0,0.9038538932800293,-0.05139632895588875,0.09327084571123123,0.7262730598449707,0.0,0.0,0.0,0.0,0.0,0.0,0.0,0.0,1.6604442596435547,0.0012104965685848627,0.12050947446611929,-0.202517336045799,0.0031988995615392923,-0.012412446551024914,0.0,0.004609693307429552,0.002337251091375947,0.0
224,5,8.268356032203883e-05,-0.0003622814838308841,5.58695501240436e-05,-0.0008355643949471414,0.003257386153563857,0.0008232938125729561,0.015571488998830318,-0.2920423746109009,0.0027900543063879013,0.0,0.0,0.0,0.0,0.0,0.0,-0.004032985772937536,-0.0007995175546966493,-0.0,0.0,0.0,0.0,-0.0010695321252569556,0.08846783638000488,0.0016128673451021314,19746.0,1495.0,6891.0,17781.0,0.9038538932800293,-0.05139632895588875,0.09327084571123123,0.7262730598449707,0.0,0.0,0.0,0.0,0.0,0.0,0.0,0.0,1.6604442596435547,0.0012104965685848627,0.12050947446611929,-0.202517336045799,0.0031988995615392923,-0.012412446551024914,0.0,0.004609693307429552,0.002337251091375947,0.0
229,5,0.0001788180525181815,-0.0004541098896879703,-0.0001287599152419716,0.011201913468539715,0.012322360649704933,0.022484853863716125,0.01578708179295063,-0.29052937030792236,0.0031162782106548548,0.0,0.0,0.0,0.0,0.0,0.0,-0.004032985772937536,-0.0007995175546966493,-0.0,0.0,0.0,0.0,-0.0032359352335333824,0.08774146437644958,-0.000255524180829525,18994.0,4428.0,3628.0,18665.0,0.8336120247840881,0.032580841332674026,0.019412141293287277,0.8038045167922974,0.0,0.0,0.0,0.0,0.0,0.0,0.0,0.0,1.6604442596435547,0.007439801511751271,0.11576321498660451,-0.20338956527941202,-0.042462270706892014,-0.048708364367485046,0.0,5.857833821210079e-05,0.005797531921416521,0.0
234,5,0.0001788180525181815,-0.0004541098896879703,-0.0001287599152419716,0.011201913468539715,0.012322360649704933,0.022484853863716125,0.01578708179295063,-0.29052937030792236,0.0031162782106548548,0.0,0.0,0.0,0.0,0.0,0.0,-0.014617349952459335,0.0098028015345335,-0.0,0.0,0.0,0.0,-0.0032359352335333824,0.08774146437644958,-0.000255524180829525,18994.0,4428.0,3628.0,18665.0,0.8336120247840881,0.032580841332674026,0.019412141293287277,0.8038045167922974,0.0,0.0,0.0,0.0,0.0,0.0,0.0,0.0,1.7978540658950806,0.007439801511751271,0.11576321498660451,-0.20338956527941202,-0.042462270706892014,-0.048708364367485046,0.0,5.857833821210079e-05,0.005797531921416521,0.0
239,5,0.00010205622675130144,-0.00040656200144439936,9.29405796341598e-05,-0.004730653949081898,-0.0007768012583255768,-0.01761011779308319,0.016046620905399323,-0.2882399260997772,0.003427105722948909,0.0,0.0,0.0,0.0,0.0,0.0,0.00021731619199272245,-0.004263075068593025,-0.0,0.0,0.0,0.0,-0.004626577720046043,0.08120664209127426,0.0016170010203495622,18960.0,4603.0,6392.0,17654.0,0.8305428624153137,0.03589457646012306,0.07852088660001755,0.7154859900474548,0.0,0.0,0.0,0.0,0.0,0.0,0.0,0.0,1.672210693359375,0.004497659678644637,0.11490069232848962,-0.20527335090439247,0.017177682369947433,0.0006735838251188397,0.0,-0.004032985772937536,-0.0007995175546966493,0.0
244,5,0.00010205622675130144,-0.00040656200144439936,9.29405796341598e-05,-0.004730653949081898,-0.0007768012583255768,-0.01761011779308319,0.016046620905399323,-0.2882399260997772,0.003427105722948909,0.0,0.0,0.0,0.0,0.0,0.0,0.00021731619199272245,-0.004263075068593025,-0.0,0.0,0.0,0.0,-0.004626577720046043,0.08120664209127426,0.0016170010203495622,18960.0,4603.0,6392.0,17654.0,0.8305428624153137,0.03589457646012306,0.07852088660001755,0.7154859900474548,0.0,0.0,0.0,0.0,0.0,0.0,0.0,0.0,1.672210693359375,0.004497659678644637,0.11490069232848962,-0.20527335090439247,0.017177682369947433,0.0006735838251188397,0.0,-0.004032985772937536,-0.0007995175546966493,0.0
249,5,4.6795808884780854e-05,-0.0004319258441682905,0.00030994616099633276,-0.008523511700332165,0.0027329393196851015,-0.03308471664786339,0.015271009877324104,-0.2777947783470154,0.003092253115028143,0.0,0.0,0.0,0.0,0.0,0.0,0.000216857239138335,-0.004262988921254873,-0.0,0.0,0.0,0.0,-0.002902290318161249,0.06676901876926422,-0.0004253123770467937,18294.0,9013.0,7812.0,17863.0,0.7707972526550293,0.16995663940906525,0.12379678338766098,0.733303427696228,0.0,0.0,0.0,0.0,0.0,0.0,0.0,0.0,1.672209620475769,-0.0004444910836794835,0.1037667743268593,-0.20587739716464595,0.01717732474207878,0.0006721608224324882,0.0,-0.004032985772937536,-0.0007995175546966493,0.0
254,5,4.6795808884780854e-05,-0.0004319258441682905,0.00030994616099633276,-0.008523511700332165,0.0027329393196851015,-0.03308471664786339,0.015271009877324104,-0.2777947783470154,0.003092253115028143,0.0,0.0,0.0,0.0,0.0,0.0,0.000216857239138335,-0.004262988921254873,-0.0,0.0,0.0,0.0,-0.002902290318161249,0.06676901876926422,-0.0004253123770467937,18294.0,9013.0,7812.0,17863.0,0.7707972526550293,0.16995663940906525,0.12379678338766098,0.733303427696228,0.0,0.0,0.0,0.0,0.0,0.0,0.0,0.0,1.672209620475769,-0.0004444910836794835,0.1037667743268593,-0.20587739716464595,0.01717732474207878,0.0006721608224324882,0.0,-0.004032985772937536,-0.0007995175546966493,0.0
259,5,-0.000361742393579334,-0.0004249450284987688,0.0011042305268347263,-0.008523511700332165,0.0027329393196851015,-0.03308471664786339,0.01570761576294899,-0.2632671594619751,0.0031638257205486298,0.0,0.0,0.0,0.0,0.0,0.0,-0.003967462573200464,-0.007660850882530212,-0.0,0.0,0.0,0.0,-0.00725940614938736,0.046033646911382675,0.0014270306564867496,16294.0,10976.0,11020.0,15483.0,0.604779839515686,0.26099371910095215,0.26325178146362305,0.543185293674469,0.0,0.0,0.0,0.0,0.0,0.0,0.0,0.0,1.717501163482666,-0.006065890166941921,0.07652841779589314,-0.20172754090033312,0.031704310327768326,-0.01263037882745266,0.0,-0.014617349952459335,0.0098028015345335,0.0
264,5,-0.000361742393579334,-0.0004249450284987688,0.0011042305268347263,-0.008523511700332165,0.0027329393196851015,-0.03308471664786339,0.01570761576294899,-0.2632671594619751,0.0031638257205486298,0.0,0.0,0.0,0.0,0.0,0.0,-0.003967462573200464,-0.007660850882530212,-0.0,0.0,0.0,0.0,-0.00725940614938736,0.046033646911382675,0.0014270306564867496,16294.0,10976.0,11020.0,15483.0,0.604779839515686,0.26099371910095215,0.26325178146362305,0.543185293674469,0.0,0.0,0.0,0.0,0.0,0.0,0.0,0.0,1.717501163482666,-0.006065890166941921,0.07652841779589314,-0.20172754090033312,0.031704310327768326,-0.01263037882745266,0.0,-0.014617349952459335,0.0098028015345335,0.0
269,5,-0.000573058903682977,-0.00040401550359092653,0.001857856521382928,-0.008523511700332165,0.0027329393196851015,-0.03308471664786339,0.015048012137413025,-0.2256699651479721,0.002863707486540079,0.0,0.0,0.0,0.0,0.0,0.0,-0.003967462573200464,-0.007660850882530212,-0.0,0.0,0.0,0.0,-0.002664674771949649,0.005485774949193001,0.0014173982199281454,14488.0,13239.0,14092.0,12832.0,0.472110778093338,0.3899846374988556,0.44523975253105164,0.3648744523525238,0.0,0.0,0.0,0.0,0.0,0.0,0.0,0.0,1.717501163482666,-0.010323550450491326,0.0421508229901606,-0.20414536414846526,0.031704310327768326,-0.01263037882745266,0.0,0.00021731619199272245,-0.004263075068593025,0.0
274,5,-0.000573058903682977,-0.00040401550359092653,0.001857856521382928,-0.008523511700332165,0.0027329393196851015,-0.03308471664786339,0.015048012137413025,-0.2256699651479721,0.002863707486540079,0.0,0.0,0.0,0.0,0.0,0.0,-0.003900747047737241,-0.008444132283329964,-0.0,0.0,0.0,0.0,-0.002664674771949649,0.005485774949193001,0.0014173982199281454,14488.0,13239.0,14092.0,12832.0,0.472110778093338,0.3899846374988556,0.44523975253105164,0.3648744523525238,0.0,0.0,0.0,0.0,0.0,0.0,0.0,0.0,1.7258402109146118,-0.010323550450491326,0.0421508229901606,-0.20414536414846526,0.03511551767587662,-0.012478286400437355,0.0,0.00021731619199272245,-0.004263075068593025,0.0
279,5,-0.0007273816154338419,-0.0004995065974071622,0.0026993886567652225,-0.021928133442997932,0.012552106752991676,-0.11421774327754974,0.014834144152700901,-0.18955694139003754,0.002294053789228201,0.0,0.0,0.0,0.0,0.0,0.0,-0.003900747047737241,-0.008444132283329964,-0.0,0.0,0.0,0.0,-0.00299398903734982,-0.03167703375220299,-0.00015795683430042118,10684.0,16428.0,16373.0,9702.0,0.24625951051712036,0.6153079867362976,0.6109462976455688,0.19969582557678223,0.0,0.0,0.0,0.0,0.0,0.0,0.0,0.0,1.7258402109146118,-0.005535510658946544,-0.007653874406561566,-0.20669816863620058,0.03511551767587662,-0.012478286400437355,0.0,0.000216857239138335,-0.004262988921254873,0.0
284,5,-0.0007273816154338419,-0.0004995065974071622,0.0026993886567652225,-0.021928133442997932,0.012552106752991676,-0.11421774327754974,0.014834144152700901,-0.18955694139003754,0.002294053789228201,0.0,0.0,0.0,0.0,0.0,0.0,-0.014239391312003136,-0.018958549946546555,-0.0,0.0,0.0,0.0,-0.00299398903734982,-0.03167703375220299,-0.00015795683430042118,10684.0,16428.0,16373.0,9702.0,0.24625951051712036,0.6153079867362976,0.6109462976455688,0.19969582557678223,0.0,0.0,0.0,0.0,0.0,0.0,0.0,0.0,1.8879584074020386,-0.005535510658946544,-0.007653874406561566,-0.20669816863620058,0.08623416721820831,-0.04982711374759674,0.0,0.000216857239138335,-0.004262988921254873,0.0
290,5,-0.0009651561267673969,-0.0005323052173480392,0.003617545822635293,-0.021928133442997932,0.012552106752991676,-0.11421774327754974,0.014904755167663097,-0.12058839201927185,0.001496685203164816,0.0,0.0,0.0,0.0,0.0,0.0,-0.014239391312003136,-0.018958549946546555,-0.0,0.0,0.0,0.0,-0.004614685196429491,-0.07611027359962463,0.0003175161255057901,6931.0,18686.0,18374.0,4787.0,0.09449619799852371,0.8056607246398926,0.7778148055076599,0.03952943906188011,0.0,0.0,0.0,0.0,0.0,0.0,0.0,0.0,1.8879584074020386,-0.011253445498858925,-0.07292558122238711,-0.20574789681023134,0.08623416721820831,-0.04982711374759674,0.0,-0.003967462573200464,-0.007660850882530212,0.0
295,5,-0.0009651561267673969,-0.0005323052173480392,0.003617545822635293,-0.021928133442997932,0.012552106752991676,-0.11421774327754974,0.014904755167663097,-0.12058839201927185,0.001496685203164816,0.0,0.0,0.0,0.0,0.0,0.0,-0.014267866499722004,-0.019215041771531105,-0.0,0.0,0.0,0.0,-0.004614685196429491,-0.07611027359962463,0.0003175161255057901,6931.0,18686.0,18374.0,4787.0,0.09449619799852371,0.8056607246398926,0.7778148055076599,0.03952943906188011,0.0,0.0,0.0,0.0,0.0,0.0,0.0,0.0,1.8910828828811646,-0.011253445498858925,-0.07292558122238711,-0.20574789681023134,0.08754530549049377,-0.05000936985015869,0.0,-0.003967462573200464,-0.007660850882530212,0.0
300,5,-0.001494512427598238,-0.0004376013530418277,0.005031944718211889,-0.021928133442997932,0.012552106752991676,-0.11421774327754974,0.015058248303830624,-0.06856591254472733,0.0005959991249255836,0.0,0.0,0.0,0.0,0.0,0.0,-0.014267866499722004,-0.019215041771531105,-0.0,0.0,0.0,0.0,-0.004118133336305618,-0.1046501100063324,5.5201850045705214e-05,1495.0,20469.0,19914.0,1495.0,-0.07321096211671829,0.9741014242172241,0.919950544834137,-0.09500076621770859,0.0,0.0,0.0,0.0,0.0,0.0,0.0,0.0,1.8910828828811646,-0.031120342028899815,-0.13414602825625818,-0.21006708485808206,0.08754530549049377,-0.05000936985015869,0.0,-0.003900747047737241,-0.008444132283329964,0.0
305,5,-0.001494512427598238,-0.0004376013530418277,0.005031944718211889,-0.021928133442997932,0.012552106752991676,-0.11421774327754974,0.015058248303830624,-0.06856591254472733,0.0005959991249255836,0.0,0.0,0.0,0.0,0.0,0.0,-0.01407631766051054,-0.019794270396232605,-0.0,0.0,0.0,0.0,-0.004118133336305618,-0.1046501100063324,5.5201850045705214e-05,1495.0,20469.0,19914.0,1495.0,-0.07321096211671829,0.9741014242172241,0.919950544834137,-0.09500076621770859,0.0,0.0,0.0,0.0,0.0,0.0,0.0,0.0,1.8969075679779053,-0.031120342028899815,-0.13414602825625818,-0.21006708485808206,0.09046199917793274,-0.049490030854940414,0.0,-0.003900747047737241,-0.008444132283329964,0.0
310,5,-0.0023583383299410343,-0.0005535803502425551,0.005556335207074881,-0.021928133442997932,0.012552106752991676,-0.11421774327754974,0.015058248303830624,-0.06856591254472733,0.0005959991249255836,0.0,0.0,0.0,0.0,0.0,0.0,-0.01407631766051054,-0.019794270396232605,-0.0,0.0,0.0,0.0,-0.004118133336305618,-0.1046501100063324,5.5201850045705214e-05,1495.0,20469.0,19914.0,1495.0,-0.07321096211671829,0.9741014242172241,0.919950544834137,-0.09500076621770859,0.0,0.0,0.0,0.0,0.0,0.0,0.0,0.0,1.8969075679779053,-0.04763982730196805,-0.21119235613792128,-0.21530417367795326,0.09046199917793274,-0.049490030854940414,0.0,-0.003900747047737241,-0.008444132283329964,0.0
315,5,-0.0023583383299410343,-0.0005535803502425551,0.005556335207074881,-0.021928133442997932,0.012552106752991676,-0.11421774327754974,0.015463167801499367,0.011141199618577957,-0.0010295555694028735,0.0,0.0,0.0,0.0,0.0,0.0,-0.014173116534948349,-0.020711326971650124,-0.0,0.0,0.0,0.0,-0.004876898601651192,-0.13755452632904053,-0.001369321602396667,1495.0,21920.0,20867.0,1495.0,-0.12768582999706268,1.122955322265625,1.0138263702392578,-0.12113742530345917,0.0,0.0,0.0,0.0,0.0,0.0,0.0,0.0,1.908310055732727,-0.04763982730196805,-0.21119235613792128,-0.21530417367795326,0.09522129595279694,-0.05012985318899155,0.0,-0.014267866499722004,-0.019215041771531105,0.0
320,5,-0.003119927830994129,-0.0004117408534511924,0.00656041968613863,-0.021928133442997932,0.012552106752991676,-0.11421774327754974,0.015463167801499367,0.011141199618577957,-0.0010295555694028735,0.0,0.0,0.0,0.0,0.0,0.0,-0.014173116534948349,-0.020711326971650124,-0.0,0.0,0.0,0.0,-0.004876898601651192,-0.13755452632904053,-0.001369321602396667,1495.0,21920.0,20867.0,1495.0,-0.12768582999706268,1.122955322265625,1.0138263702392578,-0.12113742530345917,0.0,0.0,0.0,0.0,0.0,0.0,0.0,0.0,1.908310055732727,-0.056016669875440635,-0.26750065514312865,-0.22354977101497453,0.09522129595279694,-0.05012985318899155,0.0,-0.014267866499722004,-0.019215041771531105,0.0
325,5,-0.003119927830994129,-0.0004117408534511924,0.00656041968613863,-0.021928133442997932,0.012552106752991676,-0.11421774327754974,0.015315886586904526,0.06089412793517113,-0.0021588681265711784,0.0,0.0,0.0,0.0,0.0,0.0,-0.013890640810132027,-0.02152828685939312,-0.0,0.0,0.0,0.0,-0.0033547927159816027,-0.14746306836605072,-0.0013774791732430458,1495.0,22475.0,21277.0,1495.0,-0.19444440305233002,1.1826611757278442,1.0556464195251465,-0.15278036892414093,0.0,0.0,0.0,0.0,0.0,0.0,0.0,0.0,1.9168671369552612,-0.056016669875440635,-0.26750065514312865,-0.22354977101497453,0.0994209572672844,-0.049351174384355545,0.0,-0.01407631766051054,-0.019794270396232605,0.0
330,5,-0.003863000310957432,-0.000186446777661331,0.007577450480312109,-0.09793995320796967,-0.022014446556568146,-0.16773083806037903,0.015315886586904526,0.06089412793517113,-0.0021588681265711784,0.0,0.0,0.0,0.0,0.0,0.0,-0.013890640810132027,-0.02152828685939312,-0.0,0.0,0.0,0.0,-0.0033547927159816027,-0.14746306836605072,-0.0013774791732430458,1495.0,22475.0,21277.0,1495.0,-0.19444440305233002,1.1826611757278442,1.0556464195251465,-0.15278036892414093,0.0,0.0,0.0,0.0,0.0,0.0,0.0,0.0,1.9168671369552612,-0.07802531565690643,-0.3111076748462841,-0.237522647095956,0.0994209572672844,-0.049351174384355545,0.0,-0.01407631766051054,-0.019794270396232605,0.0
336,5,-0.003863000310957432,-0.000186446777661331,0.007577450480312109,-0.09793995320796967,-0.022014446556568146,-0.16773083806037903,0.014634029939770699,0.10671684890985489,-0.0032277063000947237,0.0,0.0,0.0,0.0,0.0,0.0,0.017130045220255852,-0.06285936385393143,-0.0,0.0,0.0,0.0,-0.004924285691231489,-0.13822031021118164,-0.002070172457024455,1495.0,22430.0,21499.0,1495.0,-0.19757166504859924,1.1715654134750366,1.0645103454589844,-0.1415964663028717,0.0,0.0,0.0,0.0,0.0,0.0,0.0,0.0,2.5673928260803223,-0.07802531565690643,-0.3111076748462841,-0.237522647095956,0.38856568932533264,0.08151186257600784,0.0,-0.014173116534948349,-0.020711326971650124,0.0
341,5,-0.004422390833497047,-0.00017673865659162402,0.008007500320672989,-0.09793995320796967,-0.022014446556568146,-0.16773083806037903,0.014634029939770699,0.10671684890985489,-0.0032277063000947237,0.0,0.0,0.0,0.0,0.0,0.0,0.017130045220255852,-0.06285936385393143,-0.0,0.0,0.0,0.0,-0.004924285691231489,-0.13822031021118164,-0.002070172457024455,1495.0,22430.0,21499.0,1495.0,-0.19757166504859924,1.1715654134750366,1.0645103454589844,-0.1415964663028717,0.0,0.0,0.0,0.0,0.0,0.0,0.0,0.0,2.5673928260803223,-0.08831867678142054,-0.3558235070550713,-0.24229821505723606,0.38856568932533264,0.08151186257600784,0.0,-0.014173116534948349,-0.020711326971650124,0.0
346,5,-0.004422390833497047,-0.00017673865659162402,0.008007500320672989,-0.09793995320796967,-0.022014446556568146,-0.16773083806037903,0.014160298742353916,0.1637474000453949,-0.004781159106642008,0.0,0.0,0.0,0.0,0.0,0.0,0.017130045220255852,-0.06285936385393143,-0.0,0.0,0.0,0.0,-0.004226238466799259,-0.13272953033447266,-0.002460220130160451,1495.0,22506.0,21094.0,1495.0,-0.18253235518932343,1.1859554052352905,1.03694486618042,-0.13205792009830475,0.0,0.0,0.0,0.0,0.0,0.0,0.0,0.0,2.5673928260803223,-0.08831867678142054,-0.3558235070550713,-0.24229821505723606,0.38856568932533264,0.08151186257600784,0.0,-0.013890640810132027,-0.02152828685939312,0.0
351,5,-0.004876564722508192,-0.00021601401385851204,0.008327677845954895,-0.0936768427491188,-0.0040927366353571415,-0.10551361739635468,0.014160298742353916,0.1637474000453949,-0.004781159106642008,0.0,0.0,0.0,0.0,0.0,0.0,0.017100302502512932,-0.06320909410715103,-0.0,0.0,0.0,0.0,-0.004226238466799259,-0.13272953033447266,-0.002460220130160451,1495.0,22506.0,21094.0,1495.0,-0.18253235518932343,1.1859554052352905,1.03694486618042,-0.13205792009830475,0.0,0.0,0.0,0.0,0.0,0.0,0.0,0.0,2.5735230445861816,-0.09595025852014298,-0.39662644548569226,-0.23765491942258113,0.39165782928466797,0.08156464248895645,0.0,-0.013890640810132027,-0.02152828685939312,0.0
356,5,-0.004876564722508192,-0.00021601401385851204,0.008327677845954895,-0.0936768427491188,-0.0040927366353571415,-0.10551361739635468,0.014283840544521809,0.19360558688640594,-0.005791759584099054,0.0,0.0,0.0,0.0,0.0,0.0,0.017100302502512932,-0.06320909410715103,-0.0,0.0,0.0,0.0,0.0003697486827149987,-0.12947992980480194,-0.00219658762216568,2370.0,23290.0,22391.0,7577.0,0.005202479660511017,1.273127794265747,1.1734671592712402,0.11559540033340454,0.0,0.0,0.0,0.0,0.0,0.0,0.0,0.0,2.5735230445861816,-0.09595025852014298,-0.39662644548569226,-0.23765491942258113,0.39165782928466797,0.08156464248895645,0.0,0.017130045220255852,-0.06285936385393143,0.0
361,5,-0.005737061612308025,-0.0003869390639010817,0.008073645643889904,-0.1407303810119629,0.0188739113509655,-0.011721644550561905,0.014283840544521809,0.19360558688640594,-0.005791759584099054,0.0,0.0,0.0,0.0,0.0,0.0,0.0030162595212459564,-0.062089286744594574,-0.0,0.0,0.0,0.0,0.0003697486827149987,-0.12947992980480194,-0.00219658762216568,2370.0,23290.0,22391.0,7577.0,0.005202479660511017,1.273127794265747,1.1734671592712402,0.11559540033340454,0.0,0.0,0.0,0.0,0.0,0.0,0.0,0.0,2.5294036865234375,-0.10207767424303854,-0.42726077851470085,-0.24105296551168143,0.3781861960887909,0.014141458086669445,0.0,0.017130045220255852,-0.06285936385393143,0.0
366,5,-0.005955255590379238,-0.00011244296911172569,0.00824491586536169,-0.08247540891170502,-0.02538996748626232,-0.025241127237677574,0.014453185722231865,0.22512204945087433,-0.007060357369482517,0.0,0.0,0.0,0.0,0.0,0.0,0.0030162595212459564,-0.062089286744594574,-0.0,0.0,0.0,0.0,0.0014672239776700735,-0.11469832062721252,-0.002412853529676795,6512.0,22534.0,21719.0,9728.0,0.08194610476493835,1.1890445947647095,1.101665735244751,0.20086663961410522,0.0,0.0,0.0,0.0,0.0,0.0,0.0,0.0,2.5294036865234375,-0.10578714524451972,-0.4266731834079629,-0.25724796765193714,0.3781861960887909,0.014141458086669445,0.0,0.017100302502512932,-0.06320909410715103,0.0
371,5,-0.005955255590379238,-0.00011244296911172569,0.00824491586536169,-0.08247540891170502,-0.02538996748626232,-0.025241127237677574,0.014453185722231865,0.22512204945087433,-0.007060357369482517,0.0,0.0,0.0,0.0,0.0,0.0,0.020569216459989548,-0.05727526172995567,-0.0,0.0,0.0,0.0,0.0014672239776700735,-0.11469832062721252,-0.002412853529676795,6512.0,22534.0,21719.0,9728.0,0.08194610476493835,1.1890445947647095,1.101665735244751,0.20086663961410522,0.0,0.0,0.0,0.0,0.0,0.0,0.0,0.0,2.4808881282806396,-0.10578714524451972,-0.4266731834079629,-0.25724796765193714,0.3421344459056854,0.09457532316446304,0.0,0.017100302502512932,-0.06320909410715103,0.0
376,5,-0.005955255590379238,-0.00011244296911172569,0.00824491586536169,-0.08247540891170502,-0.02538996748626232,-0.025241127237677574,0.014360344037413597,0.23746609687805176,-0.007778521161526442,0.0,0.0,0.0,0.0,0.0,0.0,0.020569216459989548,-0.05727526172995567,-0.0,0.0,0.0,0.0,-0.002309939591214061,-0.09388123452663422,-0.002998154144734144,8713.0,21955.0,20264.0,11546.0,0.15773439407348633,1.1266816854476929,0.9538899064064026,0.2910976707935333,0.0,0.0,0.0,0.0,0.0,0.0,0.0,0.0,2.4808881282806396,-0.10578714524451972,-0.4266731834079629,-0.25724796765193714,0.3421344459056854,0.09457532316446304,0.0,0.0030162595212459564,-0.062089286744594574,0.0
381,5,-0.00615320261567831,4.9558995669940487e-05,0.00832587480545044,-0.08247540891170502,-0.02538996748626232,-0.025241127237677574,0.014360344037413597,0.23746609687805176,-0.007778521161526442,0.0,0.0,0.0,0.0,0.0,0.0,0.020568782463669777,-0.05727778747677803,-0.0,0.0,0.0,0.0,-0.002309939591214061,-0.09388123452663422,-0.002998154144734144,8713.0,21955.0,20264.0,11546.0,0.15773439407348633,1.1266816854476929,0.9538899064064026,0.2910976707935333,0.0,0.0,0.0,0.0,0.0,0.0,0.0,0.0,2.4809298515319824,-0.10991921054174678,-0.4235250932024565,-0.26083575114681995,0.3421553075313568,0.0945749282836914,0.0,0.0030162595212459564,-0.062089286744594574,0.0
386,5,-0.006337360478937626,7.227819878607988e-05,0.008135264739394188,-0.055089112371206284,-0.012882291339337826,0.012776763178408146,0.01419599074870348,0.2336694449186325,-0.009737860411405563,0.0,0.0,0.0,0.0,0.0,0.0,0.020568782463669777,-0.05727778747677803,-0.0,0.0,0.0,0.0,0.0017012559110298753,-0.07155819237232208,-0.0029050814919173717,10005.0,20858.0,19124.0,13537.0,0.21355652809143066,1.0129454135894775,0.8455392122268677,0.40884697437286377,0.0,0.0,0.0,0.0,0.0,0.0,0.0,0.0,2.4809298515319824,-0.10205592556167496,-0.4157577944974985,-0.2551106601073938,0.3421553075313568,0.0945749282836914,0.0,0.020569216459989548,-0.05727526172995567,0.0
391,5,-0.006337360478937626,7.227819878607988e-05,0.008135264739394188,-0.055089112371206284,-0.012882291339337826,0.012776763178408146,0.01419599074870348,0.2336694449186325,-0.009737860411405563,0.0,0.0,0.0,0.0,0.0,0.0,0.011711739003658295,-0.04471776261925697,-0.0,0.0,0.0,0.0,0.0017012559110298753,-0.07155819237232208,-0.0029050814919173717,10005.0,20858.0,19124.0,13537.0,0.21355652809143066,1.0129454135894775,0.8455392122268677,0.40884697437286377,0.0,0.0,0.0,0.0,0.0,0.0,0.0,0.0,2.2428712844848633,-0.10205592556167496,-0.4157577944974985,-0.2551106601073938,0.24158044159412384,0.04868736118078232,-0.0,0.020569216459989548,-0.05727526172995567,0.0
397,5,-0.006378419231623411,0.00013045266678091139,0.007854667492210865,-0.055089112371206284,-0.012882291339337826,0.012776763178408146,0.01468074694275856,0.2213878482580185,-0.010507693514227867,0.0,0.0,0.0,0.0,0.0,0.0,0.011711739003658295,-0.04471776261925697,-0.0,0.0,0.0,0.0,0.0005637506837956607,-0.05358726158738136,-0.0035543448757380247,11751.0,20061.0,18052.0,14814.0,0.302267462015152,0.9341669678688049,0.7496042847633362,0.49489107728004456,0.0,0.0,0.0,0.0,0.0,0.0,0.0,0.0,2.2428712844848633,-0.09456182988776919,-0.3973906917717179,-0.2535767441749333,0.24158044159412384,0.04868736118078232,-0.0,0.020568782463669777,-0.05727778747677803,0.0
402,5,-0.006378419231623411,0.00013045266678091139,0.007854667492210865,-0.055089112371206284,-0.012882291339337826,0.012776763178408146,0.01468074694275856,0.2213878482580185,-0.010507693514227867,0.0,0.0,0.0,0.0,0.0,0.0,0.011785130016505718,-0.04474974051117897,-0.0,0.0,0.0,0.0,0.0005637506837956607,-0.05358726158738136,-0.0035543448757380247,11751.0,20061.0,18052.0,14814.0,0.302267462015152,0.9341669678688049,0.7496042847633362,0.49489107728004456,0.0,0.0,0.0,0.0,0.0,0.0,0.0,0.0,2.2435736656188965,-0.09456182988776919,-0.3973906917717179,-0.2535767441749333,0.24182859063148499,0.049007777124643326,-0.0,0.020568782463669777,-0.05727778747677803,0.0
407,5,-0.006504812277853489,0.00016003537166398019,0.007621136959642172,-0.055089112371206284,-0.012882291339337826,0.012776763178408146,0.015061690472066402,0.20525768399238586,-0.011326657608151436,0.0,0.0,0.0,0.0,0.0,0.0,0.011785130016505718,-0.04474974051117897,-0.0,0.0,0.0,0.0,-0.001402285066433251,-0.03176866099238396,-0.004409525077790022,12168.0,18701.0,16148.0,15119.0,0.3257521688938141,0.8070101737976074,0.5934512615203857,0.5166577100753784,0.0,0.0,0.0,0.0,0.0,0.0,0.0,0.0,2.2435736656188965,-0.0824234447629434,-0.37379978783249,-0.24820617680401436,0.24182859063148499,0.049007777124643326,-0.0,0.011711739003658295,-0.04471776261925697,0.0
412,5,-0.006504812277853489,0.00016003537166398019,0.007621136959642172,-0.055089112371206284,-0.012882291339337826,0.012776763178408146,0.015061690472066402,0.20525768399238586,-0.011326657608151436,0.0,0.0,0.0,0.0,0.0,0.0,0.011815528385341167,-0.04484902322292328,-0.0,0.0,0.0,0.0,-0.001402285066433251,-0.03176866099238396,-0.004409525077790022,12168.0,18701.0,16148.0,15119.0,0.3257521688938141,0.8070101737976074,0.5934512615203857,0.5166577100753784,0.0,0.0,0.0,0.0,0.0,0.0,0.0,0.0,2.2452571392059326,-0.0824234447629434,-0.37379978783249,-0.24820617680401436,0.24254651367664337,0.04917104169726372,-0.0,0.011711739003658295,-0.04471776261925697,0.0
417,5,-0.006672677583992481,0.000377767370082438,0.0072450484149158,-0.042179446667432785,-0.0312807559967041,0.05024135112762451,0.015571026131510735,0.1778883934020996,-0.011929071508347988,0.0,0.0,0.0,0.0,0.0,0.0,0.011815528385341167,-0.04484902322292328,-0.0,0.0,0.0,0.0,-0.001750368275679648,-0.022911477833986282,-0.003164039459079504,13699.0,17697.0,16016.0,15192.0,0.4192896783351898,0.7191157937049866,0.5832969546318054,0.5218712687492371,0.0,0.0,0.0,0.0,0.0,0.0,0.0,0.0,2.2452571392059326,-0.07872433968311539,-0.35386126384120276,-0.24728008696705112,0.24254651367664337,0.04917104169726372,-0.0,0.011711739003658295,-0.04471776261925697,0.0
422,5,-0.006672677583992481,0.000377767370082438,0.0072450484149158,-0.042179446667432785,-0.0312807559967041,0.05024135112762451,0.015571026131510735,0.1778883934020996,-0.011929071508347988,0.0,0.0,0.0,0.0,0.0,0.0,0.029247811064124107,-0.03678445518016815,-0.0,0.0,0.0,0.0,-0.001750368275679648,-0.022911477833986282,-0.003164039459079504,13699.0,17697.0,16016.0,15192.0,0.4192896783351898,0.7191157937049866,0.5832969546318054,0.5218712687492371,0.0,0.0,0.0,0.0,0.0,0.0,0.0,0.0,2.2023403644561768,-0.07872433968311539,-0.35386126384120276,-0.24728008696705112,0.195081889629364,0.11936413496732712,-0.0,0.011711739003658295,-0.04471776261925697,0.0
427,5,-0.0069352323189377785,0.000600882398430258,0.006985344458371401,-0.042179446667432785,-0.0312807559967041,0.05024135112762451,0.01527256891131401,0.1600431650876999,-0.01193293184041977,0.0,0.0,0.0,0.0,0.0,0.0,0.029247811064124107,-0.03678445518016815,-0.0,0.0,0.0,0.0,0.00031287281308323145,-0.017709681764245033,-0.002566975774243474,13657.0,17580.0,16011.0,15392.0,0.4165719747543335,0.7092574834823608,0.5829442739486694,0.5364834666252136,0.0,0.0,0.0,0.0,0.0,0.0,0.0,0.0,2.2023403644561768,-0.08164604683608045,-0.336014013740636,-0.24953477436700547,0.195081889629364,0.11936413496732712,-0.0,0.011785130016505718,-0.04474974051117897,0.0
432,5,-0.0069352323189377785,0.000600882398430258,0.006985344458371401,-0.042179446667432785,-0.0312807559967041,0.05024135112762451,0.01527256891131401,0.1600431650876999,-0.01193293184041977,0.0,0.0,0.0,0.0,0.0,0.0,0.029490262269973755,-0.03698783367872238,-0.0,0.0,0.0,0.0,0.00031287281308323145,-0.017709681764245033,-0.002566975774243474,13657.0,17580.0,16011.0,15392.0,0.4165719747543335,0.7092574834823608,0.5829442739486694,0.5364834666252136,0.0,0.0,0.0,0.0,0.0,0.0,0.0,0.0,2.2067372798919678,-0.08164604683608045,-0.336014013740636,-0.24953477436700547,0.19655020534992218,0.1205933690071106,-0.0,0.011785130016505718,-0.04474974051117897,0.0
437,5,-0.0073030078783631325,0.0007635593647137284,0.0069671212695539,-0.06100485101342201,-0.032033540308475494,0.022283336147665977,0.015403048135340214,0.13728870451450348,-0.01183578185737133,0.0,0.0,0.0,0.0,0.0,0.0,0.029490262269973755,-0.03698783367872238,-0.0,0.0,0.0,0.0,-0.0011036100331693888,-0.020384080708026886,-0.0011350099230185151,13375.0,17286.0,15947.0,15455.0,0.39853984117507935,0.6846554279327393,0.5780248641967773,0.5411202907562256,0.0,0.0,0.0,0.0,0.0,0.0,0.0,0.0,2.2067372798919678,-0.07717707697833052,-0.31470258659303624,-0.24715401379325505,0.19655020534992218,0.1205933690071106,-0.0,0.011815528385341167,-0.04484902322292328,0.0
442,5,-0.0073030078783631325,0.0007635593647137284,0.0069671212695539,-0.06100485101342201,-0.032033540308475494,0.022283336147665977,0.015403048135340214,0.13728870451450348,-0.01183578185737133,0.0,0.0,0.0,0.0,0.0,0.0,0.02847912535071373,-0.047463733702898026,-0.0,0.0,0.0,0.0,-0.0011036100331693888,-0.020384080708026886,-0.0011350099230185151,13375.0,17286.0,15947.0,15455.0,0.39853984117507935,0.6846554279327393,0.5780248641967773,0.5411202907562256,0.0,0.0,0.0,0.0,0.0,0.0,0.0,0.0,2.3555400371551514,-0.07717707697833052,-0.31470258659303624,-0.24715401379325505,0.2691937983036041,0.12431370466947556,-0.0,0.011815528385341167,-0.04484902322292328,0.0
447,5,-0.0076567935757339,0.0009855303214862943,0.006730449385941029,-0.06100485101342201,-0.032033540308475494,0.022283336147665977,0.015403048135340214,0.13728870451450348,-0.01183578185737133,0.0,0.0,0.0,0.0,0.0,0.0,0.02847912535071373,-0.047463733702898026,-0.0,0.0,0.0,0.0,-0.0011036100331693888,-0.020384080708026886,-0.0011350099230185151,13375.0,17286.0,15947.0,15455.0,0.39853984117507935,0.6846554279327393,0.5780248641967773,0.5411202907562256,0.0,0.0,0.0,0.0,0.0,0.0,0.0,0.0,2.3555400371551514,-0.08077922929993965,-0.3103864103117759,-0.24963440243062357,0.2691937983036041,0.12431370466947556,-0.0,0.011815528385341167,-0.04484902322292328,0.0
453,5,-0.0076567935757339,0.0009855303214862943,0.006730449385941029,-0.06100485101342201,-0.032033540308475494,0.022283336147665977,0.0154081666842103,0.1256452351808548,-0.011908541433513165,0.0,0.0,0.0,0.0,0.0,0.0,0.028697941452264786,-0.04770934209227562,-0.0,0.0,0.0,0.0,0.0025416058488190174,-0.021757744252681732,-0.00043149376870132983,13939.0,16836.0,17154.0,14165.0,0.435025691986084,0.6478379368782043,0.6737263798713684,0.45014721155166626,0.0,0.0,0.0,0.0,0.0,0.0,0.0,0.0,2.360609769821167,-0.08077922929993965,-0.3103864103117759,-0.24963440243062357,0.2711664140224457,0.12553799152374268,-0.0,0.029247811064124107,-0.03678445518016815,0.0
458,5,-0.008060126565396786,0.001164215267635882,0.006605259142816067,-0.07280194759368896,-0.03425560146570206,0.023936161771416664,0.0154081666842103,0.1256452351808548,-0.011908541433513165,0.0,0.0,0.0,0.0,0.0,0.0,0.028697941452264786,-0.04770934209227562,-0.0,0.0,0.0,0.0,0.0025416058488190174,-0.021757744252681732,-0.00043149376870132983,13939.0,16836.0,17154.0,14165.0,0.435025691986084,0.6478379368782043,0.6737263798713684,0.45014721155166626,0.0,0.0,0.0,0.0,0.0,0.0,0.0,0.0,2.360609769821167,-0.07558494698996387,-0.30911997332086116,-0.2509689551395771,0.2711664140224457,0.12553799152374268,-0.0,0.029247811064124107,-0.03678445518016815,0.0
463,5,-0.008060126565396786,0.001164215267635882,0.006605259142816067,-0.07280194759368896,-0.03425560146570206,0.023936161771416664,0.015613271854817867,0.11505086719989777,-0.012405538000166416,0.0,0.0,0.0,0.0,0.0,0.0,0.029579229652881622,-0.05362941324710846,-0.0,0.0,0.0,0.0,0.0024819171521812677,-0.03162887319922447,-0.004219014197587967,12093.0,18200.0,16804.0,14566.0,0.32142776250839233,0.7625680565834045,0.6451963782310486,0.4775450825691223,0.0,0.0,0.0,0.0,0.0,0.0,0.0,0.0,2.460339069366455,-0.07558494698996387,-0.30911997332086116,-0.2509689551395771,0.3176520764827728,0.13485756516456604,-0.0,0.029490262269973755,-0.03698783367872238,0.0
468,5,-0.008740347810089588,0.0012664668029174209,0.0067298137582838535,-0.07280194759368896,-0.03425560146570206,0.023936161771416664,0.015613271854817867,0.11505086719989777,-0.012405538000166416,0.0,0.0,0.0,0.0,0.0,0.0,0.029579229652881622,-0.05362941324710846,-0.0,0.0,0.0,0.0,0.0024819171521812677,-0.03162887319922447,-0.004219014197587967,12093.0,18200.0,16804.0,14566.0,0.32142776250839233,0.7625680565834045,0.6451963782310486,0.4775450825691223,0.0,0.0,0.0,0.0,0.0,0.0,0.0,0.0,2.460339069366455,-0.07548854915734696,-0.30624655066416445,-0.24325101952323283,0.3176520764827728,0.13485756516456604,-0.0,0.029490262269973755,-0.03698783367872238,0.0
473,5,-0.008740347810089588,0.0012664668029174209,0.0067298137582838535,-0.07280194759368896,-0.03425560146570206,0.023936161771416664,0.015503203496336937,0.11304163187742233,-0.012331081554293633,0.0,0.0,0.0,0.0,0.0,0.0,0.02960972860455513,-0.054095275700092316,-0.0,0.0,0.0,0.0,0.002767855068668723,-0.04589499160647392,-0.0021659748163074255,10996.0,19626.0,17809.0,14492.0,0.26203086972236633,0.8924336433410645,0.7286669015884399,0.47240862250328064,0.0,0.0,0.0,0.0,0.0,0.0,0.0,0.0,2.4681363105773926,-0.07548854915734696,-0.30624655066416445,-0.24325101952323283,0.32142388820648193,0.13542437553405762,-0.0,0.02847912535071373,-0.047463733702898026,0.0
478,5,-0.009291598573327065,0.0014704075874760747,0.006701793521642685,-0.09527084976434708,-0.038175128400325775,0.012936904095113277,0.015503203496336937,0.11304163187742233,-0.012331081554293633,0.0,0.0,0.0,0.0,0.0,0.0,0.02960972860455513,-0.054095275700092316,-0.0,0.0,0.0,0.0,0.002767855068668723,-0.04589499160647392,-0.0021659748163074255,10996.0,19626.0,17809.0,14492.0,0.26203086972236633,0.8924336433410645,0.7286669015884399,0.47240862250328064,0.0,0.0,0.0,0.0,0.0,0.0,0.0,0.0,2.4681363105773926,-0.08116830415373152,-0.3188439168848671,-0.2490164858535581,0.32142388820648193,0.13542437553405762,-0.0,0.02847912535071373,-0.047463733702898026,0.0
483,5,-0.009291598573327065,0.0014704075874760747,0.006701793521642685,-0.09527084976434708,-0.038175128400325775,0.012936904095113277,0.01532988902181387,0.11733779311180115,-0.012510367669165134,0.0,0.0,0.0,0.0,0.0,0.0,0.030861007049679756,-0.0642106831073761,-0.0,0.0,0.0,0.0,0.0024864955339580774,-0.057762738317251205,0.00034496342414058745,12042.0,19079.0,19588.0,11922.0,0.3185441195964813,0.8413891792297363,0.8888815641403198,0.3117949068546295,0.0,0.0,0.0,0.0,0.0,0.0,0.0,0.0,2.644845724105835,-0.08116830415373152,-0.3188439168848671,-0.2490164858535581,0.4087466597557068,0.15124942362308502,-0.0,0.028697941452264786,-0.04770934209227562,0.0
488,5,-0.010048880241811275,0.001650963444262743,0.0068656099028885365,-0.09527084976434708,-0.038175128400325775,0.012936904095113277,0.01532988902181387,0.11733779311180115,-0.012510367669165134,0.0,0.0,0.0,0.0,0.0,0.0,0.030861007049679756,-0.0642106831073761,-0.0,0.0,0.0,0.0,0.0024864955339580774,-0.057762738317251205,0.00034496342414058745,12042.0,19079.0,19588.0,11922.0,0.3185441195964813,0.8413891792297363,0.8888815641403198,0.3117949068546295,0.0,0.0,0.0,0.0,0.0,0.0,0.0,0.0,2.644845724105835,-0.08727867469781854,-0.33106413973372834,-0.25037206170571724,0.4087466597557068,0.15124942362308502,-0.0,0.028697941452264786,-0.04770934209227562,0.0
493,5,-0.010048880241811275,0.001650963444262743,0.0068656099028885365,-0.09527084976434708,-0.038175128400325775,0.012936904095113277,0.015768328681588173,0.12327890843153,-0.01290702261030674,0.0,0.0,0.0,0.0,0.0,0.0,0.030967047438025475,-0.06466706842184067,-0.0,0.0,0.0,0.0,0.0020733075216412544,-0.0690036490559578,-0.00299062835983932,10245.0,20602.0,19561.0,12782.0,0.22486558556556702,0.9872865676879883,0.8863428831100464,0.3618440330028534,0.0,0.0,0.0,0.0,0.0,0.0,0.0,0.0,2.65320086479187,-0.08727867469781854,-0.33106413973372834,-0.25037206170571724,0.412946879863739,0.15224826335906982,-0.0,0.029579229652881622,-0.05362941324710846,0.0
