timestamp,dt,pos_x,pos_y,pos_z,vel_x,vel_y,vel_z,roll,pitch,yaw,agv_x,agv_y,agv_z,x_ref,y_ref,z_ref,roll_ref,pitch_ref,yaw_ref,x_vel_ref,y_vel_ref,z_vel_ref,x_torque,y_torque,z_torque,w0,w1,w2,w3,u0,u1,u2,u3,m0req,m1req,m2req,m3req,thrust0,thrust1,thrust2,thrust3,thrust_ref,roll_vicon,pitch_vicon,yaw_vicon,acc_x,acc_y,acc_z,roll_received,pitch_received,yaw_received
5,5,0.0,0.0,0.0,0.017159156501293182,-0.004254166968166828,0.0034694557543843985,0.09875629842281342,-0.092196524143219,-0.15709757804870605,0.0,0.0,0.0,0.0,0.0,0.0,0.0024158747401088476,0.007495783269405365,-0.0,0.0,0.0,0.0,-0.01973610371351242,0.029890624806284904,-0.015016334131360054,1495.0,1495.0,1495.0,1495.0,0.0,0.0,0.0,0.0,0.0,0.0,0.0,0.0,0.0,0.0,0.0,0.0,3.5625715255737305,0.06801698435756554,-0.08314676001204753,-0.015570893293615976,-0.06434683501720428,0.015953125432133675,0.0,-0.0,-0.0,0.0
31,26,0.0,0.0,0.0,0.01560743898153305,-0.0037865531630814075,0.00426061823964119,0.09875629842281342,-0.092196524143219,-0.15709757804870605,0.0,0.0,0.0,0.0,0.0,0.0,0.0024158747401088476,0.007495783269405365,-0.0,0.0,0.0,0.0,-0.01973610371351242,0.029890624806284904,-0.015016334131360054,1495.0,1495.0,1495.0,1495.0,0.0,0.0,0.0,0.0,0.0,0.0,0.0,0.0,0.0,0.0,0.0,0.0,3.5625715255737305,0.0669040225449972,-0.08001973158000306,-0.015250755752179723,-0.06434683501720428,0.015953125432133675,0.0,-0.0,-0.0,0.0
36,5,0.0,0.0,0.0,0.01560743898153305,-0.0037865531630814075,0.00426061823964119,0.09877385944128036,-0.09309348464012146,-0.1567762792110443,0.0,0.0,0.0,0.0,0.0,0.0,0.0021516717970371246,0.006822193507105112,-0.0,0.0,0.0,0.0,-0.019750481471419334,0.030334707349538803,-0.014924892224371433,1495.0,1495.0,1495.0,1495.0,0.0,0.0,0.0,0.0,0.0,0.0,0.0,0.0,0.0,0.0,0.0,0.0,3.5603389739990234,0.0669040225449972,-0.08001973158000306,-0.015250755752179723,-0.05852789431810379,0.0141995744779706,0.0,-0.0,-0.0,0.0
41,5,0.0,0.0,0.0,0.01560743898153305,-0.0037865531630814075,0.00426061823964119,0.09877385944128036,-0.09309348464012146,-0.1567762792110443,0.0,0.0,0.0,0.0,0.0,0.0,0.0021516717970371246,0.006822193507105112,-0.0,0.0,0.0,0.0,-0.019750481471419334,0.030334707349538803,-0.014924892224371433,1495.0,1495.0,1495.0,1495.0,0.0,0.0,0.0,0.0,0.0,0.0,0.0,0.0,0.0,0.0,0.0,0.0,3.5603389739990234,0.06701148403775686,-0.07864198896242734,-0.014581243510132059,-0.05852789431810379,0.0141995744779706,0.0,-0.0,-0.0,0.0
46,5,0.0,0.0,0.0,0.01560743898153305,-0.0037865531630814075,0.00426061823964119,0.09875427186489105,-0.094393290579319,-0.15621338784694672,0.0,0.0,0.0,0.0,0.0,0.0,0.002154286950826645,0.006830485071986914,-0.0,0.0,0.0,0.0,-0.01922292448580265,0.03280891850590706,-0.014661313965916634,1495.0,1495.0,1495.0,1495.0,0.0,0.0,0.0,0.0,0.0,0.0,0.0,0.0,0.0,0.0,0.0,0.0,3.5560169219970703,0.06701148403775686,-0.07864198896242734,-0.014581243510132059,-0.05852789431810379,0.0141995744779706,0.0,0.0024158747401088476,0.007495783269405365,0.0
60,14,0.0,0.0,0.0,0.01580088958144188,-0.0019001720938831568,0.007621122989803553,0.09873364120721817,-0.09528906643390656,-0.15572261810302734,0.0,0.0,0.0,0.0,0.0,0.0,0.0010810666717588902,0.006915144622325897,-0.0,0.0,0.0,0.0,-0.01927618496119976,0.03320459648966789,-0.014237559400498867,18325.0,22385.0,11800.0,23604.0,0.7735599279403687,1.1728508472442627,0.3050045371055603,1.3089237213134766,0.0,0.0,0.0,0.0,0.0,0.0,0.0,0.0,3.5560128688812256,0.06381648843966359,-0.07702817021856379,-0.013408493386265038,-0.05925333499908447,0.007125645410269499,0.0,0.0021516717970371246,0.006822193507105112,0.0
67,8,0.0,0.0,0.0,0.01432778686285019,0.0006981384358368814,0.001502610044553876,0.09873364120721817,-0.09528906643390656,-0.15572261810302734,0.0,0.0,0.0,0.0,0.0,0.0,0.0010810666717588902,0.006915144622325897,-0.0,0.0,0.0,0.0,-0.01927618496119976,0.03320459648966789,-0.014237559400498867,18325.0,22385.0,11800.0,23604.0,0.7735599279403687,1.1728508472442627,0.3050045371055603,1.3089237213134766,0.0,0.0,0.0,0.0,0.0,0.0,0.0,0.0,3.5560128688812256,0.06523738329736554,-0.07538874640778442,-0.012879336969420155,-0.05925333499908447,0.007125645410269499,0.0,0.0021516717970371246,0.006822193507105112,0.0
73,5,0.0,0.0,0.0,0.01432778686285019,0.0006981384358368814,0.001502610044553876,0.09874051064252853,-0.09755098074674606,-0.15444126725196838,0.0,0.0,0.0,0.0,0.0,0.0,-0.0003974667051807046,0.006274770013988018,-0.0,0.0,0.0,0.0,-0.019328836351633072,0.033777203410863876,-0.014325723052024841,18299.0,22391.0,11659.0,23649.0,0.771207869052887,1.1735373735427856,0.2972419261932373,1.3140296936035156,0.0,0.0,0.0,0.0,0.0,0.0,0.0,0.0,3.5535590648651123,0.06523738329736554,-0.07538874640778442,-0.012879336969420155,-0.05372919887304306,-0.002618019236251712,0.0,0.002154286950826645,0.006830485071986914,0.0
78,6,7.133539475034922e-05,-5.908650564379059e-06,1.2025819160044193e-05,0.01432778686285019,0.0006981384358368814,0.001502610044553876,0.09874051064252853,-0.09755098074674606,-0.15444126725196838,0.0,0.0,0.0,0.0,0.0,0.0,-0.0003974667051807046,0.006274770013988018,-0.0,0.0,0.0,0.0,-0.019328836351633072,0.033777203410863876,-0.014325723052024841,18299.0,22391.0,11659.0,23649.0,0.771207869052887,1.1735373735427856,0.2972419261932373,1.3140296936035156,0.0,0.0,0.0,0.0,0.0,0.0,0.0,0.0,3.5535590648651123,0.06477886827313892,-0.07551666408961312,-0.012048629315767598,-0.05372919887304306,-0.002618019236251712,0.0,0.002154286950826645,0.006830485071986914,0.0
83,5,7.133539475034922e-05,-5.908650564379059e-06,1.2025819160044193e-05,0.01432778686285019,0.0006981384358368814,0.001502610044553876,0.09874051064252853,-0.09755098074674606,-0.15444126725196838,0.0,0.0,0.0,0.0,0.0,0.0,-0.0003974667051807046,0.006274770013988018,-0.0,0.0,0.0,0.0,-0.019328836351633072,0.033777203410863876,-0.014325723052024841,18299.0,22391.0,11659.0,23649.0,0.771207869052887,1.1735373735427856,0.2972419261932373,1.3140296936035156,0.0,0.0,0.0,0.0,0.0,0.0,0.0,0.0,3.5535590648651123,0.06477886827313892,-0.07551666408961312,-0.012048629315767598,-0.05372919887304306,-0.002618019236251712,0.0,0.002154286950826645,0.006830485071986914,0.0
89,5,0.00013821767061017454,-1.7898329360832577e-06,-4.436098606674932e-05,0.01432778686285019,0.0006981384358368814,0.001502610044553876,0.09879785031080246,-0.09883975237607956,-0.15383566915988922,0.0,0.0,0.0,0.0,0.0,0.0,-0.0004031398275401443,0.006332184188067913,-0.0,0.0,0.0,0.0,-0.019967881962656975,0.033860985189676285,-0.014753332361578941,18264.0,22440.0,11514.0,23698.0,0.7681179046630859,1.178820252418518,0.2893565595149994,1.3197181224822998,0.0,0.0,0.0,0.0,0.0,0.0,0.0,0.0,3.5470693111419678,0.06365317998702513,-0.07447633692698759,-0.011576863994922335,-0.054121796041727066,-0.002650537295266986,-0.0,-0.0003974667051807046,0.006274770013988018,0.0
94,5,0.00013821767061017454,-1.7898329360832577e-06,-4.436098606674932e-05,0.01432778686285019,0.0006981384358368814,0.001502610044553876,0.09879785031080246,-0.09883975237607956,-0.15383566915988922,0.0,0.0,0.0,0.0,0.0,0.0,-0.0004031398275401443,0.006332184188067913,-0.0,0.0,0.0,0.0,-0.019967881962656975,0.033860985189676285,-0.014753332361578941,18264.0,22440.0,11514.0,23698.0,0.7681179046630859,1.178820252418518,0.2893565595149994,1.3197181224822998,0.0,0.0,0.0,0.0,0.0,0.0,0.0,0.0,3.5470693111419678,0.06365317998702513,-0.07447633692698759,-0.011576863994922335,-0.054121796041727066,-0.002650537295266986,-0.0,-0.0003974667051807046,0.006274770013988018,0.0
99,5,0.00020215434778947383,5.0947459385497496e-05,-5.324477388057858e-05,0.013403517194092274,-0.006049219984561205,0.001667098724283278,0.09879785031080246,-0.09883975237607956,-0.15383566915988922,0.0,0.0,0.0,0.0,0.0,0.0,-0.0004000483895651996,0.006380912382155657,-0.0,0.0,0.0,0.0,-0.019967881962656975,0.033860985189676285,-0.014753332361578941,18264.0,22440.0,11514.0,23698.0,0.7681179046630859,1.178820252418518,0.2893565595149994,1.3197181224822998,0.0,0.0,0.0,0.0,0.0,0.0,0.0,0.0,3.543938159942627,0.06235867930224437,-0.0742032023786315,-0.010945341624911495,-0.05449013039469719,-0.0026278900913894176,0.0,-0.0003974667051807046,0.006274770013988018,0.0
104,5,0.00020215434778947383,5.0947459385497496e-05,-5.324477388057858e-05,0.013403517194092274,-0.006049219984561205,0.001667098724283278,0.098880335688591,-0.09957987070083618,-0.1534837782382965,0.0,0.0,0.0,0.0,0.0,0.0,-0.0004000483895651996,0.006380912382155657,-0.0,0.0,0.0,0.0,-0.019969217479228973,0.03382769599556923,-0.014949304051697254,18157.0,22515.0,11303.0,23729.0,0.7587487697601318,1.1869542598724365,0.2780681252479553,1.3232982158660889,0.0,0.0,0.0,0.0,0.0,0.0,0.0,0.0,3.543938159942627,0.06235867930224437,-0.0742032023786315,-0.010945341624911495,-0.05449013039469719,-0.0026278900913894176,0.0,-0.0004031398275401443,0.006332184188067913,0.0
109,5,0.0002578747516963631,7.634850044269115e-05,-5.5382453865604475e-05,0.013403517194092274,-0.006049219984561205,0.001667098724283278,0.098880335688591,-0.09957987070083618,-0.1534837782382965,0.0,0.0,0.0,0.0,0.0,0.0,0.003497807774692774,0.00601942976936698,-0.0,0.0,0.0,0.0,-0.019969217479228973,0.03382769599556923,-0.014949304051697254,18157.0,22515.0,11303.0,23729.0,0.7587487697601318,1.1869542598724365,0.2780681252479553,1.3232982158660889,0.0,0.0,0.0,0.0,0.0,0.0,0.0,0.0,3.5421128273010254,0.06497419308069928,-0.07333978337296074,-0.010592287763332646,-0.05137648060917854,0.02296493761241436,0.0,-0.0004031398275401443,0.006332184188067913,0.0
114,5,0.0002578747516963631,7.634850044269115e-05,-5.5382453865604475e-05,0.013403517194092274,-0.006049219984561205,0.001667098724283278,0.09895385801792145,-0.1005127876996994,-0.15309372544288635,0.0,0.0,0.0,0.0,0.0,0.0,0.003521168837323785,0.0060589550994336605,-0.0,0.0,0.0,0.0,-0.019969217479228973,0.03382769599556923,-0.014949304051697254,18157.0,22515.0,11303.0,23729.0,0.7587487697601318,1.1869542598724365,0.2780681252479553,1.3232982158660889,0.0,0.0,0.0,0.0,0.0,0.0,0.0,0.0,3.5400590896606445,0.06497419308069928,-0.07333978337296074,-0.010592287763332646,-0.05168384313583374,0.02310490980744362,0.0,-0.0004031398275401443,0.006332184188067913,0.0
120,6,0.00034070853143930435,7.699841080466285e-05,-0.0001676421525189653,0.013403517194092274,-0.006049219984561205,0.001667098724283278,0.09895385801792145,-0.1005127876996994,-0.15309372544288635,0.0,0.0,0.0,0.0,0.0,0.0,0.003521168837323785,0.0060589550994336605,-0.0,0.0,0.0,0.0,-0.019969217479228973,0.03382769599556923,-0.014949304051697254,18157.0,22515.0,11303.0,23729.0,0.7587487697601318,1.1869542598724365,0.2780681252479553,1.3232982158660889,0.0,0.0,0.0,0.0,0.0,0.0,0.0,0.0,3.5400590896606445,0.06383648962582845,-0.07092048175231687,-0.011368753770993365,-0.05168384313583374,0.02310490980744362,0.0,-0.0004031398275401443,0.006332184188067913,0.0
125,5,0.00034070853143930435,7.699841080466285e-05,-0.0001676421525189653,0.013403517194092274,-0.006049219984561205,0.001667098724283278,0.09901223331689835,-0.10114339739084244,-0.15285860002040863,0.0,0.0,0.0,0.0,0.0,0.0,0.003521168837323785,0.0060589550994336605,-0.0,0.0,0.0,0.0,-0.020107463002204895,0.03427295759320259,-0.015185949392616749,18114.0,22554.0,11201.0,23771.0,0.7550725340843201,1.191253900527954,0.27268487215042114,1.3280580043792725,0.0,0.0,0.0,0.0,0.0,0.0,0.0,0.0,3.5400590896606445,0.06383648962582845,-0.07092048175231687,-0.011368753770993365,-0.05168384313583374,0.02310490980744362,0.0,-0.0004000483895651996,0.006380912382155657,0.0
130,5,0.00037697827792726457,0.00013729394413530827,-0.00012274491018615663,0.009713775478303432,-0.009655151516199112,-0.004720828030258417,0.09916657954454422,-0.10277388244867325,-0.1523592621088028,0.0,0.0,0.0,0.0,0.0,0.0,0.003522994462400675,0.006114656571298838,-0.0,0.0,0.0,0.0,-0.019336163997650146,0.0346023328602314,-0.01504137460142374,18104.0,22475.0,11207.0,23790.0,0.7541893720626831,1.1826106309890747,0.2730206549167633,1.3302384614944458,0.0,0.0,0.0,0.0,0.0,0.0,0.0,0.0,3.538813352584839,0.06471170352716472,-0.07165734067682347,-0.010156332284625395,-0.052140623331069946,0.02310875430703163,0.0,0.003521168837323785,0.0060589550994336605,0.0
135,5,0.00037697827792726457,0.00013729394413530827,-0.00012274491018615663,0.009713775478303432,-0.009655151516199112,-0.004720828030258417,0.09916657954454422,-0.10277388244867325,-0.1523592621088028,0.0,0.0,0.0,0.0,0.0,0.0,0.003522994462400675,0.006114656571298838,-0.0,0.0,0.0,0.0,-0.019336163997650146,0.0346023328602314,-0.01504137460142374,18104.0,22475.0,11207.0,23790.0,0.7541893720626831,1.1826106309890747,0.2730206549167633,1.3302384614944458,0.0,0.0,0.0,0.0,0.0,0.0,0.0,0.0,3.538813352584839,0.06471170352716472,-0.07165734067682347,-0.010156332284625395,-0.052140623331069946,0.02310875430703163,0.0,0.003521168837323785,0.0060589550994336605,0.0
140,5,0.00042520431452430785,0.00016415119171142578,-0.00015184715448413044,0.009672635234892368,-0.007084930315613747,0.0016039381735026836,0.09916657954454422,-0.10277388244867325,-0.1523592621088028,0.0,0.0,0.0,0.0,0.0,0.0,0.005639408249408007,0.004518995061516762,-0.0,0.0,0.0,0.0,-0.019336163997650146,0.0346023328602314,-0.01504137460142374,18104.0,22475.0,11207.0,23790.0,0.7541893720626831,1.1826106309890747,0.2730206549167633,1.3302384614944458,0.0,0.0,0.0,0.0,0.0,0.0,0.0,0.0,3.5361487865448,0.06429776826101581,-0.07041443750350566,-0.010562851877708388,-0.03850489482283592,0.03696310520172119,0.0,0.003521168837323785,0.0060589550994336605,0.0
145,5,0.00042520431452430785,0.00016415119171142578,-0.00015184715448413044,0.009672635234892368,-0.007084930315613747,0.0016039381735026836,0.09925464540719986,-0.10368338227272034,-0.15204013884067535,0.0,0.0,0.0,0.0,0.0,0.0,0.005639408249408007,0.004518995061516762,-0.0,0.0,0.0,0.0,-0.019352059811353683,0.03470493480563164,-0.015119715593755245,18096.0,22478.0,11160.0,23804.0,0.753424882888794,1.1829198598861694,0.27055034041404724,1.3319182395935059,0.0,0.0,0.0,0.0,0.0,0.0,0.0,0.0,3.5361487865448,0.06429776826101581,-0.07041443750350566,-0.010562851877708388,-0.03850489482283592,0.03696310520172119,0.0,0.003521168837323785,0.0060589550994336605,0.0
150,5,0.0004518216010183096,0.0002464872086420655,-0.00014460454985965043,0.007063130382448435,-0.012714292854070663,-0.00022753869416192174,0.09925464540719986,-0.10368338227272034,-0.15204013884067535,0.0,0.0,0.0,0.0,0.0,0.0,0.004193577915430069,0.0045343986712396145,-0.0,0.0,0.0,0.0,-0.019352059811353683,0.03470493480563164,-0.015119715593755245,18096.0,22478.0,11160.0,23804.0,0.753424882888794,1.1829198598861694,0.27055034041404724,1.3319182395935059,0.0,0.0,0.0,0.0,0.0,0.0,0.0,0.0,3.5344035625457764,0.06599393349359738,-0.07023456589621657,-0.009832761487871801,-0.03861735016107559,0.02747306413948536,0.0,0.003521168837323785,0.0060589550994336605,0.0
155,5,0.0004518216010183096,0.0002464872086420655,-0.00014460454985965043,0.007063130382448435,-0.012714292854070663,-0.00022753869416192174,0.09933150559663773,-0.10420127958059311,-0.15185236930847168,0.0,0.0,0.0,0.0,0.0,0.0,0.004193577915430069,0.0045343986712396145,-0.0,0.0,0.0,0.0,-0.019466785714030266,0.03461740165948868,-0.015193114057183266,17999.0,22519.0,11161.0,23814.0,0.7450350522994995,1.1874624490737915,0.2706005573272705,1.3330507278442383,0.0,0.0,0.0,0.0,0.0,0.0,0.0,0.0,3.5344035625457764,0.06599393349359738,-0.07023456589621657,-0.009832761487871801,-0.03861735016107559,0.02747306413948536,0.0,0.003522994462400675,0.006114656571298838,0.0
161,5,0.0005431436584331095,0.00022888995590619743,-0.00026385646197013557,0.013783898204565048,-0.0029740487225353718,0.01421921607106924,0.09933150559663773,-0.10420127958059311,-0.15185236930847168,0.0,0.0,0.0,0.0,0.0,0.0,0.007487281691282988,0.0034037467557936907,-0.0,0.0,0.0,0.0,-0.019466785714030266,0.03461740165948868,-0.015193114057183266,17999.0,22519.0,11161.0,23814.0,0.7450350522994995,1.1874624490737915,0.2706005573272705,1.3330507278442383,0.0,0.0,0.0,0.0,0.0,0.0,0.0,0.0,3.533438205718994,0.0692352544239835,-0.06959404979788271,-0.010716440952505341,-0.02897968329489231,0.04903688281774521,0.0,0.003522994462400675,0.006114656571298838,0.0
166,5,0.0005431436584331095,0.00022888995590619743,-0.00026385646197013557,0.013783898204565048,-0.0029740487225353718,0.01421921607106924,0.09949547052383423,-0.10482732951641083,-0.1518125981092453,0.0,0.0,0.0,0.0,0.0,0.0,0.007487281691282988,0.0034037467557936907,-0.0,0.0,0.0,0.0,-0.01913660764694214,0.03397686406970024,-0.016190016642212868,17698.0,22763.0,10645.0,24032.0,0.7191950082778931,1.2142245769500732,0.244278222322464,1.358451008796692,0.0,0.0,0.0,0.0,0.0,0.0,0.0,0.0,3.533438205718994,0.0692352544239835,-0.06959404979788271,-0.010716440952505341,-0.02897968329489231,0.04903688281774521,0.0,0.005639408249408007,0.004518995061516762,0.0
171,5,0.0005669470992870629,0.000310996692860499,-0.00025621155509725213,0.008369970135390759,-0.011042429134249687,0.004770294763147831,0.09949547052383423,-0.10482732951641083,-0.1518125981092453,0.0,0.0,0.0,0.0,0.0,0.0,0.001895710825920105,0.0064234426245093346,-0.0,0.0,0.0,0.0,-0.01913660764694214,0.03397686406970024,-0.016190016642212868,17698.0,22763.0,10645.0,24032.0,0.7191950082778931,1.2142245769500732,0.244278222322464,1.358451008796692,0.0,0.0,0.0,0.0,0.0,0.0,0.0,0.0,3.53318190574646,0.06580289074030304,-0.07056265077512436,-0.008965453304468043,-0.05468673259019852,0.012414984405040741,0.0,0.005639408249408007,0.004518995061516762,0.0
176,5,0.0005669470992870629,0.000310996692860499,-0.00025621155509725213,0.008369970135390759,-0.011042429134249687,0.004770294763147831,0.09965881705284119,-0.10511840879917145,-0.1513841599225998,0.0,0.0,0.0,0.0,0.0,0.0,0.001895710825920105,0.0064234426245093346,-0.0,0.0,0.0,0.0,-0.019394664093852043,0.03405601531267166,-0.014961855486035347,17873.0,22635.0,10904.0,23898.0,0.7342139482498169,1.2001005411148071,0.2573377788066864,1.3427512645721436,0.0,0.0,0.0,0.0,0.0,0.0,0.0,0.0,3.53318190574646,0.06580289074030304,-0.07056265077512436,-0.008965453304468043,-0.05468673259019852,0.012414984405040741,0.0,0.004193577915430069,0.0045343986712396145,0.0
181,5,0.0005904938443563879,0.0004433387075550854,-0.00016628115554340184,0.008369970135390759,-0.011042429134249687,0.004770294763147831,0.09965881705284119,-0.10511840879917145,-0.1513841599225998,0.0,0.0,0.0,0.0,0.0,0.0,0.006589240860193968,0.004057094920426607,-0.0,0.0,0.0,0.0,-0.019394664093852043,0.03405601531267166,-0.014961855486035347,17873.0,22635.0,10904.0,23898.0,0.7342139482498169,1.2001005411148071,0.2573377788066864,1.3427512645721436,0.0,0.0,0.0,0.0,0.0,0.0,0.0,0.0,3.530869722366333,0.06473473647603581,-0.06962372511925964,-0.010917194305960632,-0.03451740741729736,0.043124087154865265,0.0,0.004193577915430069,0.0045343986712396145,0.0
186,5,0.0005904938443563879,0.0004433387075550854,-0.00016628115554340184,0.008369970135390759,-0.011042429134249687,0.004770294763147831,0.0998024195432663,-0.10571036487817764,-0.15132136642932892,0.0,0.0,0.0,0.0,0.0,0.0,0.006589240860193968,0.004057094920426607,-0.0,0.0,0.0,0.0,-0.019050713628530502,0.034197863191366196,-0.013904363848268986,18630.0,21983.0,12189.0,23317.0,0.8006793260574341,1.1296569108963013,0.3269309103488922,1.276171088218689,0.0,0.0,0.0,0.0,0.0,0.0,0.0,0.0,3.530869722366333,0.06473473647603581,-0.06962372511925964,-0.010917194305960632,-0.03451740741729736,0.043124087154865265,0.0,0.007487281691282988,0.0034037467557936907,0.0
191,5,0.0006258125067688525,0.0003825309395324439,-0.0002714820147957653,0.007586226332932711,0.002879961160942912,0.014532220549881458,0.0998024195432663,-0.10571036487817764,-0.15132136642932892,0.0,0.0,0.0,0.0,0.0,0.0,0.006701346952468157,0.004072957206517458,-0.0,0.0,0.0,0.0,-0.019050713628530502,0.034197863191366196,-0.013904363848268986,18630.0,21983.0,12189.0,23317.0,0.8006793260574341,1.1296569108963013,0.3269309103488922,1.276171088218689,0.0,0.0,0.0,0.0,0.0,0.0,0.0,0.0,3.5305280685424805,0.0661757677910231,-0.06985398282810808,-0.009456202285338191,-0.03464898094534874,0.0438535176217556,0.0,0.007487281691282988,0.0034037467557936907,0.0
196,5,0.0006258125067688525,0.0003825309395324439,-0.0002714820147957653,0.007586226332932711,0.002879961160942912,0.014532220549881458,0.0995580330491066,-0.1060326024889946,-0.1514934003353119,0.0,0.0,0.0,0.0,0.0,0.0,0.006701346952468157,0.004072957206517458,-0.0,0.0,0.0,0.0,-0.01961628720164299,0.03551274910569191,-0.019394073635339737,16927.0,23363.0,8762.0,24695.0,0.655142068862915,1.2813891172409058,0.1596916913986206,1.4369590282440186,0.0,0.0,0.0,0.0,0.0,0.0,0.0,0.0,3.5305280685424805,0.0661757677910231,-0.06985398282810808,-0.009456202285338191,-0.03464898094534874,0.0438535176217556,0.0,0.001895710825920105,0.0064234426245093346,0.0
201,5,0.0006015988765284419,0.0003840411372948438,-0.0001973542821360752,0.007586226332932711,0.002879961160942912,0.014532220549881458,0.0995580330491066,-0.1060326024889946,-0.1514934003353119,0.0,0.0,0.0,0.0,0.0,0.0,-0.0013273736694827676,0.0037495694123208523,-0.0,0.0,0.0,0.0,-0.01961628720164299,0.03551274910569191,-0.019394073635339737,16927.0,23363.0,8762.0,24695.0,0.655142068862915,1.2813891172409058,0.1596916913986206,1.4369590282440186,0.0,0.0,0.0,0.0,0.0,0.0,0.0,0.0,3.5313901901245117,0.06985850841785765,-0.06762616666834002,-0.009928931032723213,-0.031906384974718094,-0.00868854857981205,0.0,0.001895710825920105,0.0064234426245093346,0.0
206,5,0.0006728142034262419,0.00041153913480229676,-0.00019565006368793547,0.011580328457057476,-0.002147776074707508,0.005608382169157267,0.09932359308004379,-0.10665915161371231,-0.15101510286331177,0.0,0.0,0.0,0.0,0.0,0.0,-0.0013273736694827676,0.0037495694123208523,-0.0,0.0,0.0,0.0,-0.018425671383738518,0.033700622618198395,-0.013341886922717094,18201.0,22252.0,11754.0,23590.0,0.7626575231552124,1.1584770679473877,0.30245131254196167,1.307283878326416,0.0,0.0,0.0,0.0,0.0,0.0,0.0,0.0,3.5313901901245117,0.06883154357672608,-0.06746633881502236,-0.011296601662993063,-0.031906384974718094,-0.00868854857981205,0.0,0.006589240860193968,0.004057094920426607,0.0
212,5,0.0006728142034262419,0.00041153913480229676,-0.00019565006368793547,0.011580328457057476,-0.002147776074707508,0.005608382169157267,0.09932359308004379,-0.10665915161371231,-0.15101510286331177,0.0,0.0,0.0,0.0,0.0,0.0,0.0015787627780809999,0.005544491112232208,-0.0,0.0,0.0,0.0,-0.018425671383738518,0.033700622618198395,-0.013341886922717094,18201.0,22252.0,11754.0,23590.0,0.7626575231552124,1.1584770679473877,0.30245131254196167,1.307283878326416,0.0,0.0,0.0,0.0,0.0,0.0,0.0,0.0,3.528791666030884,0.06883154357672608,-0.06746633881502236,-0.011296601662993063,-0.04714513197541237,0.010326451621949673,0.0,0.006589240860193968,0.004057094920426607,0.0
217,5,0.000807831238489598,0.00026824779342859983,-0.00021927704801782966,0.011580328457057476,-0.002147776074707508,0.005608382169157267,0.09927143156528473,-0.10700076073408127,-0.15098878741264343,0.0,0.0,0.0,0.0,0.0,0.0,0.0015787627780809999,0.005544491112232208,-0.0,0.0,0.0,0.0,-0.019649608060717583,0.035143278539180756,-0.014446303248405457,18389.0,22222.0,11539.0,23574.0,0.7791448831558228,1.1552143096923828,0.29069313406944275,1.3054755926132202,0.0,0.0,0.0,0.0,0.0,0.0,0.0,0.0,3.528791666030884,0.08327371023948005,-0.06478052725099738,-0.012151349362401214,-0.04714513197541237,0.010326451621949673,0.0,0.006701346952468157,0.004072957206517458,0.0
222,5,0.000807831238489598,0.00026824779342859983,-0.00021927704801782966,0.011580328457057476,-0.002147776074707508,0.005608382169157267,0.09927143156528473,-0.10700076073408127,-0.15098878741264343,0.0,0.0,0.0,0.0,0.0,0.0,0.0014584765303879976,0.005632386542856693,-0.0,0.0,0.0,0.0,-0.019649608060717583,0.035143278539180756,-0.014446303248405457,18389.0,22222.0,11539.0,23574.0,0.7791448831558228,1.1552143096923828,0.29069313406944275,1.3054755926132202,0.0,0.0,0.0,0.0,0.0,0.0,0.0,0.0,3.5286471843719482,0.08327371023948005,-0.06478052725099738,-0.012151349362401214,-0.0478905513882637,0.009539288468658924,0.0,0.006701346952468157,0.004072957206517458,0.0
227,5,0.0007447142852470279,0.0003155153535772115,-0.00019400021119508892,0.011580328457057476,-0.002147776074707508,0.005608382169157267,0.09929656982421875,-0.10797273367643356,-0.15061892569065094,0.0,0.0,0.0,0.0,0.0,0.0,0.0014584765303879976,0.005632386542856693,-0.0,0.0,0.0,0.0,-0.020297598093748093,0.03626643493771553,-0.016040587797760963,18000.0,22601.0,10511.0,23979.0,0.7451061010360718,1.196346402168274,0.2377077043056488,1.3522298336029053,0.0,0.0,0.0,0.0,0.0,0.0,0.0,0.0,3.5286471843719482,0.07150008022982891,-0.06554770425700482,-0.009644303359326117,-0.0478905513882637,0.009539288468658924,0.0,-0.0013273736694827676,0.0037495694123208523,0.0
232,5,0.0007447142852470279,0.0003155153535772115,-0.00019400021119508892,0.011580328457057476,-0.002147776074707508,0.005608382169157267,0.09929656982421875,-0.10797273367643356,-0.15061892569065094,0.0,0.0,0.0,0.0,0.0,0.0,0.0014992650831118226,0.0055951206013560295,-0.0,0.0,0.0,0.0,-0.020297598093748093,0.03626643493771553,-0.016040587797760963,18000.0,22601.0,10511.0,23979.0,0.7451061010360718,1.196346402168274,0.2377077043056488,1.3522298336029053,0.0,0.0,0.0,0.0,0.0,0.0,0.0,0.0,3.526594638824463,0.07150008022982891,-0.06554770425700482,-0.009644303359326117,-0.04754601791501045,0.009800364263355732,0.0,-0.0013273736694827676,0.0037495694123208523,0.0
237,5,0.0007565366104245186,0.00024091312661767006,-1.839844844653271e-05,0.011580328457057476,-0.002147776074707508,0.005608382169157267,0.09900643676519394,-0.1081729382276535,-0.14972178637981415,0.0,0.0,0.0,0.0,0.0,0.0,0.0014992650831118226,0.0055951206013560295,-0.0,0.0,0.0,0.0,-0.018893061205744743,0.03428439795970917,-0.01401040330529213,18020.0,22450.0,11293.0,23740.0,0.7468796968460083,1.1798847913742065,0.27751943469047546,1.324507713317871,0.0,0.0,0.0,0.0,0.0,0.0,0.0,0.0,3.526594638824463,0.07019168930828511,-0.06969127607548886,-0.007568547384686557,-0.04754601791501045,0.009800364263355732,0.0,0.0015787627780809999,0.005544491112232208,0.0
242,5,0.0007565366104245186,0.00024091312661767006,-1.839844844653271e-05,0.011580328457057476,-0.002147776074707508,0.005608382169157267,0.09900643676519394,-0.1081729382276535,-0.14972178637981415,0.0,0.0,0.0,0.0,0.0,0.0,0.0014386809198185802,0.005611104890704155,-0.0,0.0,0.0,0.0,-0.018893061205744743,0.03428439795970917,-0.01401040330529213,18020.0,22450.0,11293.0,23740.0,0.7468796968460083,1.1798847913742065,0.27751943469047546,1.324507713317871,0.0,0.0,0.0,0.0,0.0,0.0,0.0,0.0,3.5215530395507812,0.07019168930828511,-0.06969127607548886,-0.007568547384686557,-0.04761368781328201,0.009390895254909992,0.0,0.0015787627780809999,0.005544491112232208,0.0
247,5,0.0007924652891233563,0.00023491539468523115,0.00036993055255152285,0.00894357543438673,-0.00013938274059910327,-0.044356126338243484,0.09900643676519394,-0.1081729382276535,-0.14972178637981415,0.0,0.0,0.0,0.0,0.0,0.0,0.0014386809198185802,0.005611104890704155,-0.0,0.0,0.0,0.0,-0.018893061205744743,0.03428439795970917,-0.01401040330529213,18020.0,22450.0,11293.0,23740.0,0.7468796968460083,1.1798847913742065,0.27751943469047546,1.324507713317871,0.0,0.0,0.0,0.0,0.0,0.0,0.0,0.0,3.5215530395507812,0.06718820176869801,-0.07546455818164745,-0.00468683599314505,-0.04761368781328201,0.009390895254909992,0.0,0.0015787627780809999,0.005544491112232208,0.0
252,5,0.0007924652891233563,0.00023491539468523115,0.00036993055255152285,0.00894357543438673,-0.00013938274059910327,-0.044356126338243484,0.09682894498109818,-0.10567738860845566,-0.14932309091091156,0.0,0.0,0.0,0.0,0.0,0.0,0.00028011685935780406,0.004472373519092798,-0.0,0.0,0.0,0.0,-0.010904685594141483,0.018988408148288727,-0.012448967434465885,17962.0,22284.0,12544.0,23326.0,0.7418677806854248,1.1619560718536377,0.3476521372795105,1.2771711349487305,0.0,0.0,0.0,0.0,0.0,0.0,0.0,0.0,3.5192596912384033,0.06718820176869801,-0.07546455818164745,-0.00468683599314505,-0.03792624548077583,0.0018272548913955688,0.0,0.0014992650831118226,0.0055951206013560295,0.0
257,5,0.0008400733349844813,0.0002017981169046834,0.0008941198466345668,0.00894357543438673,-0.00013938274059910327,-0.044356126338243484,0.09682894498109818,-0.10567738860845566,-0.14932309091091156,0.0,0.0,0.0,0.0,0.0,0.0,0.00028011685935780406,0.004472373519092798,-0.0,0.0,0.0,0.0,-0.010904685594141483,0.018988408148288727,-0.012448967434465885,17962.0,22284.0,12544.0,23326.0,0.7418677806854248,1.1619560718536377,0.3476521372795105,1.2771711349487305,0.0,0.0,0.0,0.0,0.0,0.0,0.0,0.0,3.5192596912384033,0.05929543698665617,-0.08658460462775829,-0.0031835183338990687,-0.03792624548077583,0.0018272548913955688,0.0,0.0014992650831118226,0.0055951206013560295,0.0
262,5,0.0008400733349844813,0.0002017981169046834,0.0008941198466345668,0.00894357543438673,-0.00013938274059910327,-0.044356126338243484,0.09297305345535278,-0.10134267061948776,-0.14885210990905762,0.0,0.0,0.0,0.0,0.0,0.0,0.0002524964220356196,0.004507060162723064,-0.0,0.0,0.0,0.0,-0.006911721080541611,0.005984688177704811,-0.012783313170075417,17571.0,22135.0,14211.0,22806.0,0.7084742188453674,1.145875096321106,0.45322632789611816,1.2190189361572266,0.0,0.0,0.0,0.0,0.0,0.0,0.0,0.0,3.5165560245513916,0.05929543698665617,-0.08658460462775829,-0.0031835183338990687,-0.03819102793931961,0.001645816140808165,0.0,0.0014386809198185802,0.005611104890704155,0.0
267,5,0.0008858743240125477,0.00010849800310097635,0.0015126914950087667,0.00894357543438673,-0.00013938274059910327,-0.044356126338243484,0.09297305345535278,-0.10134267061948776,-0.14885210990905762,0.0,0.0,0.0,0.0,0.0,0.0,0.0002524964220356196,0.004507060162723064,-0.0,0.0,0.0,0.0,-0.006911721080541611,0.005984688177704811,-0.012783313170075417,17571.0,22135.0,14211.0,22806.0,0.7084742188453674,1.145875096321106,0.45322632789611816,1.2190189361572266,0.0,0.0,0.0,0.0,0.0,0.0,0.0,0.0,3.5165560245513916,0.05230698939152947,-0.10090492214528864,-0.003528658721719853,-0.03819102793931961,0.001645816140808165,0.0,0.0014386809198185802,0.005611104890704155,0.0
272,5,0.0008858743240125477,0.00010849800310097635,0.0015126914950087667,0.00894357543438673,-0.00013938274059910327,-0.044356126338243484,0.08391382545232773,-0.08882486075162888,-0.14847984910011292,0.0,0.0,0.0,0.0,0.0,0.0,0.00017393514281138778,0.004539936315268278,-0.0,0.0,0.0,0.0,-0.0034884680062532425,-0.004531542304903269,-0.01259543839842081,16196.0,22781.0,15030.0,22615.0,0.5972135066986084,1.216214656829834,0.5102131366729736,1.1979117393493652,0.0,0.0,0.0,0.0,0.0,0.0,0.0,0.0,3.514401435852051,0.05230698939152947,-0.10090492214528864,-0.003528658721719853,-0.038446035236120224,0.0011330452980473638,0.0,0.00028011685935780406,0.004472373519092798,0.0
277,5,0.0009053885005414486,1.4274392924562562e-05,0.0020178852137178183,0.005919128190726042,0.011251079849898815,-0.07836570590734482,0.08391382545232773,-0.08882486075162888,-0.14847984910011292,0.0,0.0,0.0,0.0,0.0,0.0,0.00017393514281138778,0.004539936315268278,-0.0,0.0,0.0,0.0,-0.0034884680062532425,-0.004531542304903269,-0.01259543839842081,16196.0,22781.0,15030.0,22615.0,0.5972135066986084,1.216214656829834,0.5102131366729736,1.1979117393493652,0.0,0.0,0.0,0.0,0.0,0.0,0.0,0.0,3.514401435852051,0.0444704047658727,-0.11682338207114432,-0.001994058445445262,-0.038446035236120224,0.0011330452980473638,0.0,0.00028011685935780406,0.004472373519092798,0.0
283,5,0.0009053885005414486,1.4274392924562562e-05,0.0020178852137178183,0.005919128190726042,0.011251079849898815,-0.07836570590734482,0.07637756317853928,-0.07764720171689987,-0.14863736927509308,0.0,0.0,0.0,0.0,0.0,0.0,-0.00646102475002408,0.0032128675375133753,-0.0,0.0,0.0,0.0,-0.002586063928902149,-0.007603743113577366,-0.01140537578612566,15883.0,22799.0,16056.0,22095.0,0.5731810927391052,1.2181777954101562,0.5863425135612488,1.1415584087371826,0.0,0.0,0.0,0.0,0.0,0.0,0.0,0.0,3.5153706073760986,0.0444704047658727,-0.11682338207114432,-0.001994058445445262,-0.027214854955673218,-0.04209936782717705,0.0,0.0002524964220356196,0.004507060162723064,0.0
288,5,0.0008770832209847867,-3.352660860400647e-05,0.0024223735090345144,-0.0010289789643138647,0.010236551985144615,-0.07988487929105759,0.07637756317853928,-0.07764720171689987,-0.14863736927509308,0.0,0.0,0.0,0.0,0.0,0.0,-0.00646102475002408,0.0032128675375133753,-0.0,0.0,0.0,0.0,-0.002586063928902149,-0.007603743113577366,-0.01140537578612566,15883.0,22799.0,16056.0,22095.0,0.5731810927391052,1.2181777954101562,0.5863425135612488,1.1415584087371826,0.0,0.0,0.0,0.0,0.0,0.0,0.0,0.0,3.5153706073760986,0.04007736110466011,-0.12765420888764165,-0.0006914182487868486,-0.027214854955673218,-0.04209936782717705,0.0,0.0002524964220356196,0.004507060162723064,0.0
293,5,0.0008770832209847867,-3.352660860400647e-05,0.0024223735090345144,-0.0010289789643138647,0.010236551985144615,-0.07988487929105759,0.06486599147319794,-0.059893786907196045,-0.14780813455581665,0.0,0.0,0.0,0.0,0.0,0.0,-0.00592571496963501,0.00011902795813512057,-0.0,0.0,0.0,0.0,-0.0025796920526772738,-0.0033642365597188473,-0.012394431047141552,15899.0,22712.0,15876.0,22255.0,0.5743982791900635,1.2085545063018799,0.572662353515625,1.1587862968444824,0.0,0.0,0.0,0.0,0.0,0.0,0.0,0.0,3.5104987621307373,0.04007736110466011,-0.12765420888764165,-0.0006914182487868486,-0.0010068437550216913,-0.03855791315436363,0.0,0.00017393514281138778,0.004539936315268278,0.0
298,5,0.0008453222108073533,-4.91773389512673e-05,0.002763276221230626,-0.0010289789643138647,0.010236551985144615,-0.07988487929105759,0.06486599147319794,-0.059893786907196045,-0.14780813455581665,0.0,0.0,0.0,0.0,0.0,0.0,-0.00592571496963501,0.00011902795813512057,-0.0,0.0,0.0,0.0,-0.0025796920526772738,-0.0033642365597188473,-0.012394431047141552,15899.0,22712.0,15876.0,22255.0,0.5743982791900635,1.2085545063018799,0.572662353515625,1.1587862968444824,0.0,0.0,0.0,0.0,0.0,0.0,0.0,0.0,3.5104987621307373,0.037624302151055306,-0.13355515506704052,0.001276944573709905,-0.0010068437550216913,-0.03855791315436363,0.0,0.00017393514281138778,0.004539936315268278,0.0
303,5,0.0008453222108073533,-4.91773389512673e-05,0.002763276221230626,-0.0010289789643138647,0.010236551985144615,-0.07988487929105759,0.05821758881211281,-0.050518691539764404,-0.1473812609910965,0.0,0.0,0.0,0.0,0.0,0.0,-0.00592571496963501,0.00011902795813512057,-0.0,0.0,0.0,0.0,-0.005056261550635099,0.0034257173538208008,-0.01311570219695568,16209.0,22657.0,15160.0,22589.0,0.5981615781784058,1.202566385269165,0.519566535949707,1.1950761079788208,0.0,0.0,0.0,0.0,0.0,0.0,0.0,0.0,3.5104987621307373,0.037624302151055306,-0.13355515506704052,0.001276944573709905,-0.0010068437550216913,-0.03855791315436363,0.0,-0.00646102475002408,0.0032128675375133753,0.0
308,5,0.0008426642161794007,-0.00014812035078648478,0.0027376364450901747,-0.0010289789643138647,0.010236551985144615,-0.07988487929105759,0.05821758881211281,-0.050518691539764404,-0.1473812609910965,0.0,0.0,0.0,0.0,0.0,0.0,-0.0059432415291666985,9.87975945463404e-05,-0.0,0.0,0.0,0.0,-0.005056261550635099,0.0034257173538208008,-0.01311570219695568,16209.0,22657.0,15160.0,22589.0,0.5981615781784058,1.202566385269165,0.519566535949707,1.1950761079788208,0.0,0.0,0.0,0.0,0.0,0.0,0.0,0.0,3.5079760551452637,0.028157082330715486,-0.13524937645909643,0.0006814230435667371,-0.0008351168362423778,-0.03864416480064392,0.0,-0.00646102475002408,0.0032128675375133753,0.0
313,5,0.0008426642161794007,-0.00014812035078648478,0.0027376364450901747,-0.0010289789643138647,0.010236551985144615,-0.07988487929105759,0.05082225427031517,-0.04169456660747528,-0.14655883610248566,0.0,0.0,0.0,0.0,0.0,0.0,-0.0059432415291666985,9.87975945463404e-05,-0.0,0.0,0.0,0.0,-0.0070632873103022575,0.011670295149087906,-0.013092436827719212,16784.0,22411.0,14364.0,22884.0,0.6435915231704712,1.1756569147109985,0.46363046765327454,1.2276198863983154,0.0,0.0,0.0,0.0,0.0,0.0,0.0,0.0,3.5079760551452637,0.028157082330715486,-0.13524937645909643,0.0006814230435667371,-0.0008351168362423778,-0.03864416480064392,0.0,-0.00592571496963501,0.00011902795813512057,0.0
318,5,0.0009184073423966765,-9.468162897974253e-05,0.0027479950804263353,-0.0010289789643138647,0.010236551985144615,-0.07988487929105759,0.05082225427031517,-0.04169456660747528,-0.14655883610248566,0.0,0.0,0.0,0.0,0.0,0.0,-0.006035475060343742,9.755381324794143e-05,-0.0,0.0,0.0,0.0,-0.0070632873103022575,0.011670295149087906,-0.013092436827719212,16784.0,22411.0,14364.0,22884.0,0.6435915231704712,1.1756569147109985,0.46363046765327454,1.2276198863983154,0.0,0.0,0.0,0.0,0.0,0.0,0.0,0.0,3.5030596256256104,0.02997036010598175,-0.13412451298802736,0.0008281623285047414,-0.0008234471897594631,-0.039188869297504425,0.0,-0.00592571496963501,0.00011902795813512057,0.0
323,5,0.0009184073423966765,-9.468162897974253e-05,0.0027479950804263353,-0.0010289789643138647,0.010236551985144615,-0.07988487929105759,0.04785576090216637,-0.03990669175982475,-0.14583346247673035,0.0,0.0,0.0,0.0,0.0,0.0,-0.006035475060343742,9.755381324794143e-05,-0.0,0.0,0.0,0.0,-0.007976161316037178,0.01780494675040245,-0.013669866137206554,16980.0,22298.0,13767.0,23185.0,0.6595075726509094,1.1634678840637207,0.4237193465232849,1.2612812519073486,0.0,0.0,0.0,0.0,0.0,0.0,0.0,0.0,3.5030596256256104,0.02997036010598175,-0.13412451298802736,0.0008281623285047414,-0.0008234471897594631,-0.039188869297504425,0.0,-0.0059432415291666985,9.87975945463404e-05,0.0
328,5,0.0009401580900885165,-6.084014239604585e-05,0.0026947788428515196,0.0021984921768307686,3.364290023455396e-05,-0.025568004697561264,0.04785576090216637,-0.03990669175982475,-0.14583346247673035,0.0,0.0,0.0,0.0,0.0,0.0,-0.005997796542942524,0.00014747300883755088,-0.0,0.0,0.0,0.0,-0.007976161316037178,0.01780494675040245,-0.013669866137206554,16980.0,22298.0,13767.0,23185.0,0.6595075726509094,1.1634678840637207,0.4237193465232849,1.2612812519073486,0.0,0.0,0.0,0.0,0.0,0.0,0.0,0.0,3.498657464981079,0.02444891036854461,-0.1313874419994102,0.002210706296832732,-0.0012432488147169352,-0.03889528661966324,0.0,-0.0059432415291666985,9.87975945463404e-05,0.0
333,5,0.0009401580900885165,-6.084014239604585e-05,0.0026947788428515196,0.0021984921768307686,3.364290023455396e-05,-0.025568004697561264,0.04313351586461067,-0.04368484765291214,-0.14415231347084045,0.0,0.0,0.0,0.0,0.0,0.0,-0.005997796542942524,0.00014747300883755088,-0.0,0.0,0.0,0.0,-0.006176041904836893,0.01839854009449482,-0.013414504937827587,16929.0,22158.0,13934.0,23215.0,0.6553572416305542,1.1483253240585327,0.4347507059574127,1.264626383781433,0.0,0.0,0.0,0.0,0.0,0.0,0.0,0.0,3.498657464981079,0.02444891036854461,-0.1313874419994102,0.002210706296832732,-0.0012432488147169352,-0.03889528661966324,0.0,-0.006035475060343742,9.755381324794143e-05,0.0
339,5,0.001007644459605217,-7.703780283918604e-06,0.002849597716704011,0.0021984921768307686,3.364290023455396e-05,-0.025568004697561264,0.04313351586461067,-0.04368484765291214,-0.14415231347084045,0.0,0.0,0.0,0.0,0.0,0.0,-6.936179852345958e-05,0.001602477626875043,-0.0,0.0,0.0,0.0,-0.006176041904836893,0.01839854009449482,-0.013414504937827587,16929.0,22158.0,13934.0,23215.0,0.6553572416305542,1.1483253240585327,0.4347507059574127,1.264626383781433,0.0,0.0,0.0,0.0,0.0,0.0,0.0,0.0,3.4881701469421387,0.025596574311127135,-0.1320162821737586,0.003360983873588048,-0.013469185680150986,-0.00044846293167211115,0.0,-0.006035475060343742,9.755381324794143e-05,0.0
344,5,0.001007644459605217,-7.703780283918604e-06,0.002849597716704011,0.0021984921768307686,3.364290023455396e-05,-0.025568004697561264,0.03868584334850311,-0.045527346432209015,-0.14344674348831177,0.0,0.0,0.0,0.0,0.0,0.0,-6.936179852345958e-05,0.001602477626875043,-0.0,0.0,0.0,0.0,-0.004223204217851162,0.016522767022252083,-0.014374829828739166,16360.0,22360.0,13842.0,23438.0,0.6099253296852112,1.1701743602752686,0.4286639094352722,1.2898938655853271,0.0,0.0,0.0,0.0,0.0,0.0,0.0,0.0,3.4881701469421387,0.025596574311127135,-0.1320162821737586,0.003360983873588048,-0.013469185680150986,-0.00044846293167211115,0.0,-0.005997796542942524,0.00014747300883755088,0.0
349,5,0.0010776636190712452,-4.986775093129836e-05,0.0028625784907490015,0.009281697683036327,0.005073133390396833,-0.011784899048507214,0.03868584334850311,-0.045527346432209015,-0.14344674348831177,0.0,0.0,0.0,0.0,0.0,0.0,-2.419595875835512e-05,0.001649171463213861,-0.0,0.0,0.0,0.0,-0.004223204217851162,0.016522767022252083,-0.014374829828739166,16360.0,22360.0,13842.0,23438.0,0.6099253296852112,1.1701743602752686,0.4286639094352722,1.2898938655853271,0.0,0.0,0.0,0.0,0.0,0.0,0.0,0.0,3.4836983680725098,0.02216802946652476,-0.13140274372111937,0.003158019464103238,-0.013843887485563755,-0.00015623989747837186,0.0,-0.005997796542942524,0.00014747300883755088,0.0
354,5,0.0010776636190712452,-4.986775093129836e-05,0.0028625784907490015,0.009281697683036327,0.005073133390396833,-0.011784899048507214,0.035300467163324356,-0.04626833274960518,-0.1431829035282135,0.0,0.0,0.0,0.0,0.0,0.0,-2.419595875835512e-05,0.001649171463213861,-0.0,0.0,0.0,0.0,-0.00258465064689517,0.01628918945789337,-0.014984969981014729,15960.0,22500.0,13615.0,23613.0,0.5790541172027588,1.1853207349777222,0.41389718651771545,1.3098981380462646,0.0,0.0,0.0,0.0,0.0,0.0,0.0,0.0,3.4836983680725098,0.02216802946652476,-0.13140274372111937,0.003158019464103238,-0.013843887485563755,-0.00015623989747837186,0.0,-6.936179852345958e-05,0.001602477626875043,0.0
359,5,0.001099325716495514,4.3845833715749905e-05,0.0030446494929492474,0.009281697683036327,0.005073133390396833,-0.011784899048507214,0.035300467163324356,-0.04626833274960518,-0.1431829035282135,0.0,0.0,0.0,0.0,0.0,0.0,-0.0029881829395890236,0.004862052854150534,-0.0,0.0,0.0,0.0,-0.00258465064689517,0.01628918945789337,-0.014984969981014729,15960.0,22500.0,13615.0,23613.0,0.5790541172027588,1.1853207349777222,0.41389718651771545,1.3098981380462646,0.0,0.0,0.0,0.0,0.0,0.0,0.0,0.0,3.4820637702941895,0.021455156891061925,-0.13117292520251655,0.004914169788116018,-0.04079478606581688,-0.01928640529513359,0.0,-6.936179852345958e-05,0.001602477626875043,0.0
364,5,0.001099325716495514,4.3845833715749905e-05,0.0030446494929492474,0.009281697683036327,0.005073133390396833,-0.011784899048507214,0.029452895745635033,-0.04684772342443466,-0.14332906901836395,0.0,0.0,0.0,0.0,0.0,0.0,-0.0029881829395890236,0.004862052854150534,-0.0,0.0,0.0,0.0,-0.000539289612788707,0.01689840666949749,-0.01570110395550728,15812.0,22386.0,13611.0,23781.0,0.5678284168243408,1.1729497909545898,0.41364213824272156,1.3292779922485352,0.0,0.0,0.0,0.0,0.0,0.0,0.0,0.0,3.4820637702941895,0.021455156891061925,-0.13117292520251655,0.004914169788116018,-0.04079478606581688,-0.01928640529513359,0.0,-2.419595875835512e-05,0.001649171463213861,0.0
369,5,0.0012016664259135723,-2.938514808192849e-05,0.002911981428042054,0.01599356159567833,0.010816970840096474,0.011206201277673244,0.029452895745635033,-0.04684772342443466,-0.14332906901836395,0.0,0.0,0.0,0.0,0.0,0.0,-0.002907519694417715,0.00487540103495121,-0.0,0.0,0.0,0.0,-0.000539289612788707,0.01689840666949749,-0.01570110395550728,15812.0,22386.0,13611.0,23781.0,0.5678284168243408,1.1729497909545898,0.41364213824272156,1.3292779922485352,0.0,0.0,0.0,0.0,0.0,0.0,0.0,0.0,3.4829986095428467,0.013309291695916827,-0.1309622703812426,0.0040631847335950814,-0.0409177727997303,-0.01877082698047161,0.0,-2.419595875835512e-05,0.001649171463213861,0.0
374,5,0.0012016664259135723,-2.938514808192849e-05,0.002911981428042054,0.01599356159567833,0.010816970840096474,0.011206201277673244,0.0251956544816494,-0.047742024064064026,-0.14295706152915955,0.0,0.0,0.0,0.0,0.0,0.0,-0.002907519694417715,0.00487540103495121,-0.0,0.0,0.0,0.0,0.0003748481103684753,0.017620014026761055,-0.014638230204582214,16070.0,22246.0,13656.0,23703.0,0.5874269008636475,1.1578326225280762,0.41656240820884705,1.3202418088912964,0.0,0.0,0.0,0.0,0.0,0.0,0.0,0.0,3.4829986095428467,0.013309291695916827,-0.1309622703812426,0.0040631847335950814,-0.0409177727997303,-0.01877082698047161,0.0,-2.419595875835512e-05,0.001649171463213861,0.0
379,5,0.0012918658321723342,-2.5339077183161862e-05,0.002890670206397772,0.0172213576734066,0.0038412599824368954,0.007039819378405809,0.0251956544816494,-0.047742024064064026,-0.14295706152915955,0.0,0.0,0.0,0.0,0.0,0.0,-0.006310439668595791,0.007947282865643501,-0.0,0.0,0.0,0.0,0.0003748481103684753,0.017620014026761055,-0.014638230204582214,16070.0,22246.0,13656.0,23703.0,0.5874269008636475,1.1578326225280762,0.41656240820884705,1.3202418088912964,0.0,0.0,0.0,0.0,0.0,0.0,0.0,0.0,3.480736255645752,0.010102425659535707,-0.12712078877393004,0.0029702127802663015,-0.06665434688329697,-0.04071309044957161,-0.0,-2.419595875835512e-05,0.001649171463213861,0.0
384,5,0.0012918658321723342,-2.5339077183161862e-05,0.002890670206397772,0.0172213576734066,0.0038412599824368954,0.007039819378405809,0.02021579071879387,-0.049105122685432434,-0.14274431765079498,0.0,0.0,0.0,0.0,0.0,0.0,-0.006310439668595791,0.007947282865643501,-0.0,0.0,0.0,0.0,-0.000276030448731035,0.019500037655234337,-0.014626589603722095,16173.0,22143.0,13674.0,23720.0,0.5953819751739502,1.1467704772949219,0.4177081286907196,1.3222031593322754,0.0,0.0,0.0,0.0,0.0,0.0,0.0,0.0,3.480736255645752,0.010102425659535707,-0.12712078877393004,0.0029702127802663015,-0.06665434688329697,-0.04071309044957161,-0.0,-0.0029881829395890236,0.004862052854150534,0.0
389,5,0.0013241433771327138,3.1344090530183166e-05,0.0027661961503326893,0.0172213576734066,0.0038412599824368954,0.007039819378405809,0.02021579071879387,-0.049105122685432434,-0.14274431765079498,0.0,0.0,0.0,0.0,0.0,0.0,-0.0022533214651048183,0.00855928286910057,-0.0,0.0,0.0,0.0,-0.000276030448731035,0.019500037655234337,-0.014626589603722095,16173.0,22143.0,13674.0,23720.0,0.5953819751739502,1.1467704772949219,0.4177081286907196,1.3222031593322754,0.0,0.0,0.0,0.0,0.0,0.0,0.0,0.0,3.4793221950531006,-0.0017809190921331845,-0.13036645087922002,0.004239509469441455,-0.0717591941356659,-0.01453201100230217,-0.0,-0.0029881829395890236,0.004862052854150534,0.0
395,5,0.0013241433771327138,3.1344090530183166e-05,0.0027661961503326893,0.0172213576734066,0.0038412599824368954,0.007039819378405809,0.02021579071879387,-0.049105122685432434,-0.14274431765079498,0.0,0.0,0.0,0.0,0.0,0.0,-0.0022533214651048183,0.00855928286910057,-0.0,0.0,0.0,0.0,-0.000276030448731035,0.019500037655234337,-0.014626589603722095,16173.0,22143.0,13674.0,23720.0,0.5953819751739502,1.1467704772949219,0.4177081286907196,1.3222031593322754,0.0,0.0,0.0,0.0,0.0,0.0,0.0,0.0,3.4793221950531006,-0.0017809190921331845,-0.13036645087922002,0.004239509469441455,-0.0717591941356659,-0.01453201100230217,-0.0,-0.0029881829395890236,0.004862052854150534,0.0
400,5,0.001371909980662167,9.055862028617412e-05,0.002895874436944723,0.012620536610484123,-0.005569239612668753,-0.012745457701385021,0.017630217596888542,-0.04940164089202881,-0.1427057534456253,0.0,0.0,0.0,0.0,0.0,0.0,-0.0022051213309168816,0.008581625297665596,-0.0,0.0,0.0,0.0,-0.0005347504047676921,0.017299385741353035,-0.015045229345560074,16011.0,22293.0,13733.0,23663.0,0.5829470157623291,1.162863850593567,0.4215376675128937,1.3156501054763794,0.0,0.0,0.0,0.0,0.0,0.0,0.0,0.0,3.4790735244750977,-0.0013222466426759257,-0.1314235628625493,0.005983425327322003,-0.07194136083126068,-0.014220143668353558,-0.0,-0.002907519694417715,0.00487540103495121,0.0
405,5,0.001371909980662167,9.055862028617412e-05,0.002895874436944723,0.012620536610484123,-0.005569239612668753,-0.012745457701385021,0.017630217596888542,-0.04940164089202881,-0.1427057534456253,0.0,0.0,0.0,0.0,0.0,0.0,-0.0022051213309168816,0.008581625297665596,-0.0,0.0,0.0,0.0,-0.0005347504047676921,0.017299385741353035,-0.015045229345560074,16011.0,22293.0,13733.0,23663.0,0.5829470157623291,1.162863850593567,0.4215376675128937,1.3156501054763794,0.0,0.0,0.0,0.0,0.0,0.0,0.0,0.0,3.4790735244750977,-0.0013222466426759257,-0.1314235628625493,0.005983425327322003,-0.07194136083126068,-0.014220143668353558,-0.0,-0.002907519694417715,0.00487540103495121,0.0
410,5,0.0014750262489542365,1.0378571460023522e-05,0.0028385703917592764,0.012620536610484123,-0.005569239612668753,-0.012745457701385021,0.013442945666611195,-0.04900920391082764,-0.14225108921527863,0.0,0.0,0.0,0.0,0.0,0.0,0.003320625051856041,0.0065611074678599834,-0.0,0.0,0.0,0.0,-0.00032977608498185873,0.01663169637322426,-0.014082642272114754,16255.0,22092.0,14126.0,23440.0,0.6017551422119141,1.1412887573242188,0.4475489854812622,1.290143370628357,0.0,0.0,0.0,0.0,0.0,0.0,0.0,0.0,3.476081609725952,-0.006277688368935523,-0.13212479405329605,0.004872214812772963,-0.05495579540729523,0.021395226940512657,0.0,-0.006310439668595791,0.007947282865643501,0.0
415,5,0.0014750262489542365,1.0378571460023522e-05,0.0028385703917592764,0.012620536610484123,-0.005569239612668753,-0.012745457701385021,0.013442945666611195,-0.04900920391082764,-0.14225108921527863,0.0,0.0,0.0,0.0,0.0,0.0,0.003320625051856041,0.0065611074678599834,-0.0,0.0,0.0,0.0,-0.00032977608498185873,0.01663169637322426,-0.014082642272114754,16255.0,22092.0,14126.0,23440.0,0.6017551422119141,1.1412887573242188,0.4475489854812622,1.290143370628357,0.0,0.0,0.0,0.0,0.0,0.0,0.0,0.0,3.476081609725952,-0.006277688368935523,-0.13212479405329605,0.004872214812772963,-0.05495579540729523,0.021395226940512657,0.0,-0.006310439668595791,0.007947282865643501,0.0
420,5,0.0015557380393147469,-2.2231430193642154e-05,0.0027743892278522253,0.012620536610484123,-0.005569239612668753,-0.012745457701385021,0.011144441552460194,-0.04836612939834595,-0.14189587533473969,0.0,0.0,0.0,0.0,0.0,0.0,0.003254358656704426,0.006633860990405083,-0.0,0.0,0.0,0.0,-0.00022201836691237986,0.01674077659845352,-0.014267523773014545,16197.0,22147.0,13992.0,23494.0,0.5972623229026794,1.1471717357635498,0.4385982155799866,1.2962899208068848,0.0,0.0,0.0,0.0,0.0,0.0,0.0,0.0,3.473761796951294,-0.012645508198122225,-0.13430868388063588,0.004741552812904297,-0.055528100579977036,0.020954273641109467,0.0,-0.0022533214651048183,0.00855928286910057,0.0
425,5,0.0015557380393147469,-2.2231430193642154e-05,0.0027743892278522253,0.012620536610484123,-0.005569239612668753,-0.012745457701385021,0.011144441552460194,-0.04836612939834595,-0.14189587533473969,0.0,0.0,0.0,0.0,0.0,0.0,0.003254358656704426,0.006633860990405083,-0.0,0.0,0.0,0.0,-0.00022201836691237986,0.01674077659845352,-0.014267523773014545,16197.0,22147.0,13992.0,23494.0,0.5972623229026794,1.1471717357635498,0.4385982155799866,1.2962899208068848,0.0,0.0,0.0,0.0,0.0,0.0,0.0,0.0,3.473761796951294,-0.012645508198122225,-0.13430868388063588,0.004741552812904297,-0.055528100579977036,0.020954273641109467,0.0,-0.0022533214651048183,0.00855928286910057,0.0
430,5,0.001550436019897461,0.00010839870810741559,0.0028858790174126625,0.012620536610484123,-0.005569239612668753,-0.012745457701385021,0.00974263809621334,-0.04824421927332878,-0.14129117131233215,0.0,0.0,0.0,0.0,0.0,0.0,0.003230193629860878,0.006695220246911049,-0.0,0.0,0.0,0.0,-0.002236741129308939,0.01773756556212902,-0.013908044435083866,16516.0,22035.0,14015.0,23365.0,0.6222050189971924,1.135176658630371,0.44010141491889954,1.281590461730957,0.0,0.0,0.0,0.0,0.0,0.0,0.0,0.0,3.4697799682617188,-0.00568780213561451,-0.132366353087921,0.007793928896805752,-0.055977459996938705,0.0207748394459486,0.0,-0.0022051213309168816,0.008581625297665596,0.0
435,5,0.001550436019897461,0.00010839870810741559,0.0028858790174126625,0.012620536610484123,-0.005569239612668753,-0.012745457701385021,0.00974263809621334,-0.04824421927332878,-0.14129117131233215,0.0,0.0,0.0,0.0,0.0,0.0,0.003230193629860878,0.006695220246911049,-0.0,0.0,0.0,0.0,-0.002236741129308939,0.01773756556212902,-0.013908044435083866,16516.0,22035.0,14015.0,23365.0,0.6222050189971924,1.135176658630371,0.44010141491889954,1.281590461730957,0.0,0.0,0.0,0.0,0.0,0.0,0.0,0.0,3.4697799682617188,-0.00568780213561451,-0.132366353087921,0.007793928896805752,-0.055977459996938705,0.0207748394459486,0.0,-0.0022051213309168816,0.008581625297665596,0.0
440,5,0.0013575851917266846,-4.805021671927534e-05,0.0028870885726064444,-0.018093878403306007,0.016546174883842468,-0.005243330728262663,0.010097302496433258,-0.04877727851271629,-0.14090177416801453,0.0,0.0,0.0,0.0,0.0,0.0,0.003230193629860878,0.006695220246911049,-0.0,0.0,0.0,0.0,-0.0034070119727402925,0.018367184326052666,-0.014033397659659386,16409.0,22197.0,13676.0,23456.0,0.61376953125,1.1525241136550903,0.4178372323513031,1.2919507026672363,0.0,0.0,0.0,0.0,0.0,0.0,0.0,0.0,3.4697799682617188,-0.016489885926759013,-0.13007802375826774,0.006772016253214384,-0.055977459996938705,0.0207748394459486,0.0,0.003254358656704426,0.006633860990405083,0.0
445,5,0.0013575851917266846,-4.805021671927534e-05,0.0028870885726064444,-0.018093878403306007,0.016546174883842468,-0.005243330728262663,0.010097302496433258,-0.04877727851271629,-0.14090177416801453,0.0,0.0,0.0,0.0,0.0,0.0,-0.009693821892142296,-0.0072159902192652225,-0.0,0.0,0.0,0.0,-0.0034070119727402925,0.018367184326052666,-0.014033397659659386,16409.0,22197.0,13676.0,23456.0,0.61376953125,1.1525241136550903,0.4178372323513031,1.2919507026672363,0.0,0.0,0.0,0.0,0.0,0.0,0.0,0.0,3.467350482940674,-0.016489885926759013,-0.13007802375826774,0.006772016253214384,0.060286685824394226,-0.06230013445019722,0.0,0.003254358656704426,0.006633860990405083,0.0
450,5,0.0014175191754475236,-5.110727943247184e-05,0.002809948055073619,-4.548336801235564e-05,0.006985317915678024,0.00715953204780817,0.01159950252622366,-0.0494297631084919,-0.14042097330093384,0.0,0.0,0.0,0.0,0.0,0.0,-0.009693821892142296,-0.0072159902192652225,-0.0,0.0,0.0,0.0,-0.0035992548801004887,0.017213013023138046,-0.013992827385663986,16516.0,22114.0,13830.0,23351.0,0.6222597360610962,1.143585443496704,0.42788681387901306,1.2800297737121582,0.0,0.0,0.0,0.0,0.0,0.0,0.0,0.0,3.467350482940674,-0.015526939798780384,-0.1303294044485734,0.006129250432555342,0.060286685824394226,-0.06230013445019722,0.0,0.003230193629860878,0.006695220246911049,0.0
456,5,0.0014175191754475236,-5.110727943247184e-05,0.002809948055073619,-4.548336801235564e-05,0.006985317915678024,0.00715953204780817,0.01159950252622366,-0.0494297631084919,-0.14042097330093384,0.0,0.0,0.0,0.0,0.0,0.0,-0.00412174453958869,0.0009260417427867651,-0.0,0.0,0.0,0.0,-0.0035992548801004887,0.017213013023138046,-0.013992827385663986,16516.0,22114.0,13830.0,23351.0,0.6222597360610962,1.143585443496704,0.42788681387901306,1.2800297737121582,0.0,0.0,0.0,0.0,0.0,0.0,0.0,0.0,3.4639108180999756,-0.015526939798780384,-0.1303294044485734,0.006129250432555342,-0.007729393430054188,-0.026463914662599564,-0.0,0.003230193629860878,0.006695220246911049,0.0
461,5,0.0013554859906435013,2.133282208660603e-07,0.0029709867667406797,-4.548336801235564e-05,0.006985317915678024,0.00715953204780817,0.012428025715053082,-0.04948927462100983,-0.14000284671783447,0.0,0.0,0.0,0.0,0.0,0.0,-0.00412174453958869,0.0009260417427867651,-0.0,0.0,0.0,0.0,-0.006286560092121363,0.010974062606692314,-0.014305083081126213,16092.0,22587.0,14040.0,23009.0,0.5891749858856201,1.1948845386505127,0.44178077578544617,1.2415101528167725,0.0,0.0,0.0,0.0,0.0,0.0,0.0,0.0,3.4639108180999756,-0.016425845488091083,-0.13641943248511496,0.010314182982095731,-0.007729393430054188,-0.026463914662599564,-0.0,-0.009693821892142296,-0.0072159902192652225,0.0
466,5,0.0013554859906435013,2.133282208660603e-07,0.0029709867667406797,-4.548336801235564e-05,0.006985317915678024,0.00715953204780817,0.012428025715053082,-0.04948927462100983,-0.14000284671783447,0.0,0.0,0.0,0.0,0.0,0.0,-0.004081103950738907,0.000886455294676125,-0.0,0.0,0.0,0.0,-0.006286560092121363,0.010974062606692314,-0.014305083081126213,16092.0,22587.0,14040.0,23009.0,0.5891749858856201,1.1948845386505127,0.44178077578544617,1.2415101528167725,0.0,0.0,0.0,0.0,0.0,0.0,0.0,0.0,3.4610908031463623,-0.016425845488091083,-0.13641943248511496,0.010314182982095731,-0.007392955012619495,-0.026181651279330254,-0.0,-0.009693821892142296,-0.0072159902192652225,0.0
471,5,0.001389392651617527,-5.8634308516047895e-05,0.00302400765940547,0.004050603602081537,0.009855843149125576,-0.003498696256428957,0.013561306521296501,-0.04849989339709282,-0.13952338695526123,0.0,0.0,0.0,0.0,0.0,0.0,-0.004081103950738907,0.000886455294676125,-0.0,0.0,0.0,0.0,-0.0044018724001944065,0.012811082415282726,-0.01416291855275631,16119.0,22458.0,13961.0,23133.0,0.5912618637084961,1.1807637214660645,0.4364983141422272,1.2553869485855103,0.0,0.0,0.0,0.0,0.0,0.0,0.0,0.0,3.4610908031463623,-0.01949159812721484,-0.13307775328436514,0.008208640689050308,-0.007392955012619495,-0.026181651279330254,-0.0,-0.00412174453958869,0.0009260417427867651,0.0
476,5,0.001389392651617527,-5.8634308516047895e-05,0.00302400765940547,0.004050603602081537,0.009855843149125576,-0.003498696256428957,0.013561306521296501,-0.04849989339709282,-0.13952338695526123,0.0,0.0,0.0,0.0,0.0,0.0,-0.005814948119223118,0.0027537706773728132,-0.0,0.0,0.0,0.0,-0.0044018724001944065,0.012811082415282726,-0.01416291855275631,16119.0,22458.0,13961.0,23133.0,0.5912618637084961,1.1807637214660645,0.4364983141422272,1.2553869485855103,0.0,0.0,0.0,0.0,0.0,0.0,0.0,0.0,3.4578752517700195,-0.01949159812721484,-0.13307775328436514,0.008208640689050308,-0.022944631054997444,-0.03726998716592789,0.0,-0.00412174453958869,0.0009260417427867651,0.0
481,5,0.00137898453976959,-0.00011370116408215836,0.0029789803083986044,0.00037126766983419657,0.010550360195338726,0.0040038046427071095,0.013508339412510395,-0.04755927994847298,-0.13922886550426483,0.0,0.0,0.0,0.0,0.0,0.0,-0.005814948119223118,0.0027537706773728132,-0.0,0.0,0.0,0.0,-0.003518890356644988,0.012926958501338959,-0.014329375699162483,16012.0,22443.0,13932.0,23212.0,0.5829946994781494,1.1791486740112305,0.4346119463443756,1.2643355131149292,0.0,0.0,0.0,0.0,0.0,0.0,0.0,0.0,3.4578752517700195,-0.0269083576244036,-0.13675405295034873,0.007758645242641856,-0.022944631054997444,-0.03726998716592789,0.0,-0.004081103950738907,0.000886455294676125,0.0
486,5,0.00137898453976959,-0.00011370116408215836,0.0029789803083986044,0.00037126766983419657,0.010550360195338726,0.0040038046427071095,0.013508339412510395,-0.04755927994847298,-0.13922886550426483,0.0,0.0,0.0,0.0,0.0,0.0,-0.0062722801230847836,0.001092167105525732,-0.0,0.0,0.0,0.0,-0.003518890356644988,0.012926958501338959,-0.014329375699162483,16012.0,22443.0,13932.0,23212.0,0.5829946994781494,1.1791486740112305,0.4346119463443756,1.2643355131149292,0.0,0.0,0.0,0.0,0.0,0.0,0.0,0.0,3.455860137939453,-0.0269083576244036,-0.13675405295034873,0.007758645242641856,-0.009094703011214733,-0.04017769172787666,-0.0,-0.004081103950738907,0.000886455294676125,0.0
491,5,0.0013639661483466625,2.975780489578028e-06,0.0030539382714778185,0.00037126766983419657,0.010550360195338726,0.0040038046427071095,0.013508339412510395,-0.04755927994847298,-0.13922886550426483,0.0,0.0,0.0,0.0,0.0,0.0,-0.0062722801230847836,0.001092167105525732,-0.0,0.0,0.0,0.0,-0.003518890356644988,0.012926958501338959,-0.014329375699162483,16012.0,22443.0,13932.0,23212.0,0.5829946994781494,1.1791486740112305,0.4346119463443756,1.2643355131149292,0.0,0.0,0.0,0.0,0.0,0.0,0.0,0.0,3.455860137939453,-0.015992008544228824,-0.13639895695772286,0.010942587533679549,-0.009094703011214733,-0.04017769172787666,-0.0,-0.004081103950738907,0.000886455294676125,0.0
496,5,0.0013639661483466625,2.975780489578028e-06,0.0030539382714778185,0.00037126766983419657,0.010550360195338726,0.0040038046427071095,0.013484816066920757,-0.04595469310879707,-0.13889208436012268,0.0,0.0,0.0,0.0,0.0,0.0,-0.006176235154271126,0.0010835466673597693,-0.0,0.0,0.0,0.0,-0.0038305276539176702,0.01384185440838337,-0.014983133412897587,15942.0,22495.0,13640.0,23350.0,0.5776239633560181,1.1848256587982178,0.4155064821243286,1.279919147491455,0.0,0.0,0.0,0.0,0.0,0.0,0.0,0.0,3.4535434246063232,-0.015992008544228824,-0.13639895695772286,0.010942587533679549,-0.009016875177621841,-0.03953595831990242,-0.0,-0.005814948119223118,0.0027537706773728132,0.0
