timestamp,dt,pos_x,pos_y,pos_z,vel_x,vel_y,vel_z,roll,pitch,yaw,agv_x,agv_y,agv_z,x_ref,y_ref,z_ref,roll_ref,pitch_ref,yaw_ref,x_vel_ref,y_vel_ref,z_vel_ref,x_torque,y_torque,z_torque,w0,w1,w2,w3,u0,u1,u2,u3,m0req,m1req,m2req,m3req,thrust0,thrust1,thrust2,thrust3,thrust_ref,roll_vicon,pitch_vicon,yaw_vicon,acc_x,acc_y,acc_z,roll_received,pitch_received,yaw_received
5,5,0.0,0.0,0.0,-0.002989688888192177,-0.0033237047027796507,-0.005293730180710554,-0.006446464918553829,-0.1391003131866455,0.0031069351825863123,0.003977217245846987,-0.003987478092312813,-0.0006932047544978559,0.0,0.0,0.0,0.004023951943963766,-0.0027842933777719736,-0.0,0.0,0.0,0.0,0.0,0.0,0.0,0.0,0.0,0.0,0.0,0.0,0.0,0.0,0.0,0.0,0.0,0.0,0.0,0.0,0.0,0.0,0.0,1.6710693836212158,0.04484281897711353,-0.009542715017057854,0.07796145801632955,0.01121133379638195,0.012463892810046673,0.0,0.0,0.0,0.0
33,28,0.0,0.0,0.0,-0.0022784259635955095,-0.0015199464978650212,-0.0018015875248238444,-0.006429140921682119,-0.13910634815692902,0.0030937721021473408,-0.002747353632003069,0.00503554055467248,-0.0013569558504968882,0.0,0.0,0.0,0.004023951943963766,-0.0027842933777719736,-0.0,0.0,0.0,0.0,0.0,0.0,0.0,0.0,0.0,0.0,0.0,0.0,0.0,0.0,0.0,0.0,0.0,0.0,0.0,0.0,0.0,0.0,0.0,1.6710693836212158,0.04338391452769138,-0.01065356121546835,0.07774360463765466,0.01121133379638195,0.012463892810046673,0.0,0.0,0.0,0.0
38,5,0.0,0.0,0.0,-0.001835371134802699,-0.0009921739110723138,-0.0018694207537919283,-0.006429140921682119,-0.13910634815692902,0.0030937721021473408,-0.002747353632003069,0.00503554055467248,-0.0013569558504968882,0.0,0.0,0.0,0.0018596429144963622,-0.0021443390287458897,-0.0,0.0,0.0,0.0,0.0,0.0,0.0,0.0,0.0,0.0,0.0,0.0,0.0,0.0,0.0,0.0,0.0,0.0,0.0,0.0,0.0,0.0,0.0,1.6535674333572388,0.04318810087913329,-0.011450855532342536,0.07790724750552916,0.008544097654521465,0.00569979939609766,0.0,0.0,0.0,0.0
43,5,0.0,0.0,0.0,-0.0022323662415146828,-0.0015257326886057854,5.745048952121579e-07,-0.006429140921682119,-0.13910634815692902,0.0030937721021473408,-0.002747353632003069,0.00503554055467248,-0.0013569558504968882,0.0,0.0,0.0,0.0018596429144963622,-0.0021443390287458897,-0.0,0.0,0.0,0.0,0.0,0.0,0.0,0.0,0.0,0.0,0.0,0.0,0.0,0.0,0.0,0.0,0.0,0.0,0.0,0.0,0.0,0.0,0.0,1.6535674333572388,0.042971906563504046,-0.011173563243134059,0.0777064950469064,0.008544097654521465,0.00569979939609766,0.0,0.0,0.0,0.0
48,5,9.359498108096886e-06,-9.603276339475997e-06,-2.1692458176403306e-05,0.00023019325453788042,0.000542100053280592,0.002603324828669429,-0.006426490843296051,-0.1391330361366272,0.003117598593235016,0.0018144081113860011,0.002991697285324335,0.003202068619430065,0.0,0.0,0.0,0.0018671216676011682,-0.002101439516991377,-0.0,0.0,0.0,0.0,0.0,0.0,0.0,0.0,0.0,0.0,0.0,0.0,0.0,0.0,0.0,0.0,0.0,0.0,0.0,0.0,0.0,0.0,0.0,1.6532137393951416,0.043410302100911825,-0.011237023549496367,0.0780078491843283,0.008371373638510704,0.0057214973494410515,0.0,0.0,0.0,0.0
53,5,3.106690428467118e-06,-1.0492492947378196e-05,7.311770332307788e-06,-0.0006582595524378121,0.0003235461190342903,-0.002439177595078945,-0.006426490843296051,-0.1391330361366272,0.003117598593235016,0.0018144081113860011,0.002991697285324335,0.003202068619430065,0.0,0.0,0.0,0.0018671216676011682,-0.002101439516991377,-0.0,0.0,0.0,0.0,0.0,0.0,0.0,0.0,0.0,0.0,0.0,0.0,0.0,0.0,0.0,0.0,0.0,0.0,0.0,0.0,0.0,0.0,0.0,1.6532137393951416,0.04313309537378453,-0.011414383555969894,0.07785556263841356,0.008371373638510704,0.0057214973494410515,0.0,0.0,0.0,0.0
58,5,6.188393854245078e-06,-1.109735148929758e-05,8.832978892314713e-06,0.00010650059266481549,0.00020200137805659324,-0.0011582160368561745,-0.006420094985514879,-0.1391534060239792,0.0031122940126806498,-0.0030792236793786287,0.00266638258472085,0.001428037416189909,0.0,0.0,0.0,-0.0004198571259621531,-0.000622884719632566,-0.0,0.0,0.0,0.0,0.0,0.0,0.0,0.0,0.0,0.0,0.0,0.0,0.0,0.0,0.0,0.0,0.0,0.0,0.0,0.0,0.0,0.0,0.0,1.6332411766052246,0.04311302561050439,-0.011190052919496516,0.0779178758072862,0.0024513755924999714,-0.0012710434384644032,0.0,0.0,0.0,0.0
63,5,5.260690613795305e-06,-1.532362512079999e-05,8.481125405523926e-06,-6.872416997794062e-05,0.0005879533709958196,-0.00042106403270736337,-0.006420094985514879,-0.1391534060239792,0.0031122940126806498,-0.0030792236793786287,0.00266638258472085,0.001428037416189909,0.0,0.0,0.0,-0.0004198571259621531,-0.000622884719632566,-0.0,0.0,0.0,0.0,0.0,0.0,0.0,0.0,0.0,0.0,0.0,0.0,0.0,0.0,0.0,0.0,0.0,0.0,0.0,0.0,0.0,0.0,0.0,1.6332411766052246,0.04384562146868158,-0.010609737637694983,0.07788596436189732,0.0024513755924999714,-0.0012710434384644032,0.0,0.0,0.0,0.0
68,5,1.3847591617377475e-05,-6.831945029261988e-06,2.2845286366646178e-05,0.0010029383702203631,-0.0007838202291168272,-0.0018921250011771917,-0.006419407203793526,-0.13922983407974243,0.003150692442432046,-0.00447608670219779,-0.0029404591768980026,-0.0004460032214410603,0.0,0.0,0.0,0.0009552323026582599,0.0009717262000776827,-0.0,0.0,0.0,0.0,0.0,0.0,0.0,0.0,0.0,0.0,0.0,0.0,0.0,0.0,0.0,0.0,0.0,0.0,0.0,0.0,0.0,0.0,0.0,1.6387982368469238,0.04311902986604706,-0.010904775728613265,0.07776401200541991,-0.0038372583221644163,0.002901635831221938,0.0,0.0,0.0,0.0
77,8,2.804504765663296e-05,-5.722863079427043e-06,1.2204658560222015e-05,0.001534643699415028,-0.00024152307014446706,0.0006630906136706471,-0.006419407203793526,-0.13922983407974243,0.003150692442432046,-0.00447608670219779,-0.0029404591768980026,-0.0004460032214410603,0.0,0.0,0.0,0.0009552323026582599,0.0009717262000776827,-0.0,0.0,0.0,0.0,0.0,0.0,0.0,0.0,0.0,0.0,0.0,0.0,0.0,0.0,0.0,0.0,0.0,0.0,0.0,0.0,0.0,0.0,0.0,1.6387982368469238,0.04324521342208565,-0.011118625487153536,0.0777747384131376,-0.0038372583221644163,0.002901635831221938,0.0,0.0,0.0,0.0
82,5,1.1427780009398703e-05,1.4882129306670322e-08,2.6080317184096202e-05,-0.0013802145840600133,-0.0007851386908441782,-0.0013998427893966436,-0.006419407203793526,-0.13922983407974243,0.003150692442432046,-0.00447608670219779,-0.0029404591768980026,-0.0004460032214410603,0.0,0.0,0.0,0.0009552323026582599,0.0009717262000776827,-0.0,0.0,0.0,0.0,0.0,0.0,0.0,0.0,0.0,0.0,0.0,0.0,0.0,0.0,0.0,0.0,0.0,0.0,0.0,0.0,0.0,0.0,0.0,1.6387982368469238,0.04332255876899367,-0.010999102175250306,0.07758666322731306,-0.0038372583221644163,0.002901635831221938,0.0,0.0,0.0,0.0
87,5,1.8016411559074186e-05,-8.696494660398457e-06,-7.321214070543647e-06,0.00023854996834415942,0.0007313098176382482,0.00344824674539268,-0.006432472728192806,-0.13923323154449463,0.003127227071672678,0.001996518112719059,0.002452354645356536,0.0009554495336487889,0.0,0.0,0.0,0.0009675153996795416,-0.0012924197362735868,-0.0,0.0,0.0,0.0,0.0,0.0,0.0,0.0,0.0,0.0,0.0,0.0,0.0,0.0,0.0,0.0,0.0,0.0,0.0,0.0,0.0,0.0,0.0,1.641748309135437,0.04366803229876632,-0.011247877694480487,0.07778217295084035,0.005112834274768829,0.0029442377854138613,0.0,0.0,0.0,0.0
92,5,1.587748010933865e-05,-1.8109592474502278e-06,-7.739301508991048e-06,-0.00016125191177707165,-0.0005337403854355216,0.0014294690918177366,-0.006432472728192806,-0.13923323154449463,0.003127227071672678,0.001996518112719059,0.002452354645356536,0.0009554495336487889,0.0,0.0,0.0,0.0009675153996795416,-0.0012924197362735868,-0.0,0.0,0.0,0.0,0.0,0.0,0.0,0.0,0.0,0.0,0.0,0.0,0.0,0.0,0.0,0.0,0.0,0.0,0.0,0.0,0.0,0.0,0.0,1.641748309135437,0.043256086518100964,-0.011115838757007643,0.0781725997189581,0.005112834274768829,0.0029442377854138613,0.0,0.0,0.0,0.0
97,5,1.2120589190089959e-06,-6.9201064434309956e-06,-1.504048577771755e-05,-0.0018243512604385614,0.00039960150024853647,0.0014479297678917646,-0.006426314357668161,-0.13922752439975739,0.0031134949531406164,0.0006774661014787853,-0.0011455690255388618,-0.0005968404002487659,0.0,0.0,0.0,0.00065859395544976,-0.00013157108332961798,-0.0,0.0,0.0,0.0,0.0,0.0,0.0,0.0,0.0,0.0,0.0,0.0,0.0,0.0,0.0,0.0,0.0,0.0,0.0,0.0,0.0,0.0,0.0,1.631331443786621,0.043242271325147345,-0.01099982779151052,0.0780129811575707,0.000517195207066834,0.001991445664316416,0.0,0.0,0.0,0.0
102,5,3.5125717658957e-06,-1.947237251442857e-05,-1.696491199254524e-05,-0.0004536789492703974,0.001666112570092082,0.0008101030252873898,-0.006426314357668161,-0.13922752439975739,0.0031134949531406164,0.0006774661014787853,-0.0011455690255388618,-0.0005968404002487659,0.0,0.0,0.0,0.00065859395544976,-0.00013157108332961798,-0.0,0.0,0.0,0.0,0.0,0.0,0.0,0.0,0.0,0.0,0.0,0.0,0.0,0.0,0.0,0.0,0.0,0.0,0.0,0.0,0.0,0.0,0.0,1.631331443786621,0.04343924397822857,-0.011296479302412815,0.07812750055258892,0.000517195207066834,0.001991445664316416,0.0,0.0,0.0,0.0
107,5,9.346514161734376e-06,-1.366227661492303e-05,-1.423692810931243e-05,0.0005186015041545033,-3.076646680710837e-05,-3.3168380468850955e-06,-0.006413447204977274,-0.1392405927181244,0.00311296246945858,-0.004455996677279472,0.003805928397923708,-0.0010948104318231344,0.0,0.0,0.0,-0.002086087828502059,-0.0004246507305651903,-0.0,0.0,0.0,0.0,0.0,0.0,0.0,0.0,0.0,0.0,0.0,0.0,0.0,0.0,0.0,0.0,0.0,0.0,0.0,0.0,0.0,0.0,0.0,1.6435739994049072,0.043267575890474426,-0.01126218709817726,0.07778562009235673,0.0016817912692204118,-0.006355208810418844,0.0,0.0,0.0,0.0
112,5,1.83012816705741e-05,-3.3221895137103274e-06,6.331924851110671e-06,0.001282012672163546,-0.0012531171087175608,-0.002469589002430439,-0.006413447204977274,-0.1392405927181244,0.00311296246945858,-0.004455996677279472,0.003805928397923708,-0.0010948104318231344,0.0,0.0,0.0,-0.002086087828502059,-0.0004246507305651903,-0.0,0.0,0.0,0.0,0.0,0.0,0.0,0.0,0.0,0.0,0.0,0.0,0.0,0.0,0.0,0.0,0.0,0.0,0.0,0.0,0.0,0.0,0.0,1.6435739994049072,0.04307939660431539,-0.01102189104245091,0.07790226462630619,0.0016817912692204118,-0.006355208810418844,0.0,0.0,0.0,0.0
117,5,2.47829120780807e-05,-1.3866359950043261e-05,9.59059707383858e-06,0.001290600746870041,0.0007640536641702056,-0.0013788763899356127,-0.00644852826371789,-0.13923729956150055,0.003097074804827571,-0.0007928995764814317,-0.0032009303104132414,-0.0007071412983350456,0.0,0.0,0.0,0.0015359107637777925,0.0012389543699100614,-0.0,0.0,0.0,0.0,0.0,0.0,0.0,0.0,0.0,0.0,0.0,0.0,0.0,0.0,0.0,0.0,0.0,0.0,0.0,0.0,0.0,0.0,0.0,1.6441376209259033,0.043087928166069205,-0.011029996462829804,0.07793590289025831,-0.004908454138785601,0.004680716898292303,0.0,0.0,0.0,0.0
123,5,2.0895418856525794e-05,-9.601127203495707e-06,2.7218746254220605e-05,4.9741141992853954e-05,-0.00020620653231162578,-0.0026669283397495747,-0.006451847031712532,-0.13924477994441986,0.003086583921685815,-4.854755388805643e-05,0.002663776744157076,0.0004018563195131719,0.0,0.0,0.0,0.00023860974761191756,7.690542406635359e-05,-0.0,0.0,0.0,0.0,0.0,0.0,0.0,0.0,0.0,0.0,0.0,0.0,0.0,0.0,0.0,0.0,0.0,0.0,0.0,0.0,0.0,0.0,0.0,1.6284600496292114,0.04363038751926733,-0.0104698692885734,0.0773386280794488,-0.00030177689041011035,0.0007202343549579382,0.0,0.0,0.0,0.0
130,8,3.351044506416656e-05,-1.0777065654110629e-05,1.3442324870993616e-06,0.0015336995711550117,5.8630019339034334e-05,0.002038170350715518,-0.006451847031712532,-0.13924477994441986,0.003086583921685815,-4.854755388805643e-05,0.002663776744157076,0.0004018563195131719,0.0,0.0,0.0,0.00023860974761191756,7.690542406635359e-05,-0.0,0.0,0.0,0.0,0.0,0.0,0.0,0.0,0.0,0.0,0.0,0.0,0.0,0.0,0.0,0.0,0.0,0.0,0.0,0.0,0.0,0.0,0.0,1.6284600496292114,0.04335964576074925,-0.010564653408750058,0.07754363513841271,-0.00030177689041011035,0.0007202343549579382,0.0,0.0,0.0,0.0
135,5,0.00018385739531368017,-0.00011395700130378827,-0.00024531438248232007,0.018655113875865936,0.01240504439920187,0.03041430003941059,-0.006451847031712532,-0.13924477994441986,0.003086583921685815,-4.854755388805643e-05,0.002663776744157076,0.0004018563195131719,0.0,0.0,0.0,0.00023860974761191756,7.690542406635359e-05,-0.0,0.0,0.0,0.0,0.0,0.0,0.0,0.0,0.0,0.0,0.0,0.0,0.0,0.0,0.0,0.0,0.0,0.0,0.0,0.0,0.0,0.0,0.0,1.6284600496292114,0.047740492637011515,-0.006081462438809038,0.0773857362402392,-0.00030177689041011035,0.0007202343549579382,0.0,0.0,0.0,0.0
140,5,0.00016897778550628573,-0.00011885738058481365,-0.00023772663553245366,0.005676493048667908,0.005550063215196133,0.011255191639065742,-0.006460211705416441,-0.1392400860786438,0.0030729053542017937,0.0031120828352868557,0.0006320162210613489,-0.0019027147209271789,0.0,0.0,0.0,-0.013741269707679749,0.015912488102912903,-0.0,0.0,0.0,0.0,0.0,0.0,0.0,0.0,0.0,0.0,0.0,0.0,0.0,0.0,0.0,0.0,0.0,0.0,0.0,0.0,0.0,0.0,0.0,1.8511309623718262,0.04773939118216526,-0.006273379863329179,0.07725732560847301,-0.070968858897686,-0.04714631289243698,0.0,0.0,0.0,0.0
145,5,0.0001637363457120955,-0.00011480931425467134,-0.0002368336427025497,0.0016416232101619244,0.0017342575592920184,0.004394917283207178,-0.006460211705416441,-0.1392400860786438,0.0030729053542017937,0.0031120828352868557,0.0006320162210613489,-0.0019027147209271789,0.0,0.0,0.0,-0.013741269707679749,0.015912488102912903,-0.0,0.0,0.0,0.0,0.0,0.0,0.0,0.0,0.0,0.0,0.0,0.0,0.0,0.0,0.0,0.0,0.0,0.0,0.0,0.0,0.0,0.0,0.0,1.8511309623718262,0.04696918637738638,-0.006381140039682778,0.07728424577103082,-0.070968858897686,-0.04714631289243698,0.0,0.0,0.0,0.0
151,5,0.0001712687808321789,-0.00010994526383001357,-0.0002599618455860764,0.0015605416847392917,0.00011001716484315693,0.004533352330327034,-0.006442640442401171,-0.13924787938594818,0.0030517838895320892,-0.0047684963792562485,0.005927549209445715,-0.00205124425701797,0.0,0.0,0.0,-0.0023290987592190504,0.0017720902105793357,-0.0,0.0,0.0,0.0,0.0,0.0,0.0,0.0,0.0,0.0,0.0,0.0,0.0,0.0,0.0,0.0,0.0,0.0,0.0,0.0,0.0,0.0,0.0,1.652936577796936,0.0475990273909628,-0.006329106217311334,0.07744265062220872,-0.007058176212012768,-0.007135951891541481,0.0,0.0,0.0,0.0
156,5,0.0001657146931393072,-0.00010509607091080397,-0.0002657465520314872,-4.227311001159251e-05,-0.0005378968780860305,0.002507505239918828,-0.006442640442401171,-0.13924787938594818,0.0030517838895320892,-0.0047684963792562485,0.005927549209445715,-0.00205124425701797,0.0,0.0,0.0,-0.0023290987592190504,0.0017720902105793357,-0.0,0.0,0.0,0.0,0.0,0.0,0.0,0.0,0.0,0.0,0.0,0.0,0.0,0.0,0.0,0.0,0.0,0.0,0.0,0.0,0.0,0.0,0.0,1.652936577796936,0.04741171977412587,-0.0067234173544225935,0.07763767141260343,-0.007058176212012768,-0.007135951891541481,0.0,0.0,0.0,0.0
161,5,0.0001688175689196214,-0.00012275016342755407,-0.00027015001978725195,0.0003554358845576644,0.0019033326534554362,0.0015314168995246291,-0.006452903151512146,-0.13927584886550903,0.003278434509411454,-0.00010370051313657314,0.002286258852109313,0.03672740235924721,0.0,0.0,0.0,0.00047580141108483076,0.000192212377442047,-0.0,0.0,0.0,0.0,0.0,0.0,0.0,0.0,0.0,0.0,0.0,0.0,0.0,0.0,0.0,0.0,0.0,0.0,0.0,0.0,0.0,0.0,0.0,1.6301542520523071,0.04740199718021107,-0.006700101560062265,0.07706039489560695,-0.0007550260052084923,0.0014376824256032705,0.0,0.0,0.0,0.0
166,5,0.0001508954883320257,-0.00010974684118991718,-0.00023671076633036137,-0.0020084751304239035,-0.0007990658050402999,-0.003400141838937998,-0.006452903151512146,-0.13927584886550903,0.003278434509411454,-0.00010370051313657314,0.002286258852109313,0.03672740235924721,0.0,0.0,0.0,0.00047580141108483076,0.000192212377442047,-0.0,0.0,0.0,0.0,0.0,0.0,0.0,0.0,0.0,0.0,0.0,0.0,0.0,0.0,0.0,0.0,0.0,0.0,0.0,0.0,0.0,0.0,0.0,1.6301542520523071,0.04736287216976123,-0.007026483362653042,0.07717906400107019,-0.0007550260052084923,0.0014376824256032705,0.0,0.0,0.0,0.0
171,5,0.00017094239592552185,-9.472335659665987e-05,-0.00025155089679174125,0.001602238044142723,-0.0021224443335086107,0.00042075684177689254,-0.0064770933240652084,-0.13925309479236603,0.0027179738972336054,0.004272949881851673,0.0006194764864630997,-0.033537931740283966,0.0,0.0,0.0,0.0007841794285923243,-0.001690042787231505,-0.0,0.0,0.0,0.0,0.0,0.0,0.0,0.0,0.0,0.0,0.0,0.0,0.0,0.0,0.0,0.0,0.0,0.0,0.0,0.0,0.0,0.0,0.0,1.6450316905975342,0.04725157165910236,-0.007231603939029408,0.07872804207758222,0.006699209101498127,0.0023911024909466505,0.0,0.0,0.0,0.0
176,5,0.00015365271246992052,-9.122343180933967e-05,-0.00020283149206079543,-0.001433866680599749,-0.0012689685681834817,-0.005678024608641863,-0.0064770933240652084,-0.13925309479236603,0.0027179738972336054,0.004272949881851673,0.0006194764864630997,-0.033537931740283966,0.0,0.0,0.0,0.0007841794285923243,-0.001690042787231505,-0.0,0.0,0.0,0.0,0.0,0.0,0.0,0.0,0.0,0.0,0.0,0.0,0.0,0.0,0.0,0.0,0.0,0.0,0.0,0.0,0.0,0.0,0.0,1.6450316905975342,0.046918731304385536,-0.006990459514119517,0.07759303778700773,0.006699209101498127,0.0023911024909466505,0.0,0.0,0.0,0.0
181,5,0.00012985168723389506,-8.530300692655146e-05,-0.00017274361744057387,-0.0025223142001777887,-0.002439077477902174,-0.004567679017782211,-0.006343624088913202,-0.139224112033844,0.0037539475597441196,-0.010846753604710102,0.001693116850219667,-0.018660541623830795,0.0,0.0,0.0,0.001397459302097559,-0.0011441768147051334,-0.0,0.0,0.0,0.0,0.0,0.0,0.0,0.0,0.0,0.0,0.0,0.0,0.0,0.0,0.0,0.0,0.0,0.0,0.0,0.0,0.0,0.0,0.0,1.6425985097885132,0.04674090072307596,-0.007865410336623654,0.07773373819862482,0.004528725054115057,0.004254797473549843,0.0,0.0,0.0,0.0
186,5,0.00011983589502051473,-5.61940687475726e-05,-0.0001373774721287191,-0.002210820559412241,-0.004468703642487526,-0.006071007810533047,-0.006343624088913202,-0.139224112033844,0.0037539475597441196,-0.010846753604710102,0.001693116850219667,-0.018660541623830795,0.0,0.0,0.0,0.001397459302097559,-0.0011441768147051334,-0.0,0.0,0.0,0.0,0.0,0.0,0.0,0.0,0.0,0.0,0.0,0.0,0.0,0.0,0.0,0.0,0.0,0.0,0.0,0.0,0.0,0.0,0.0,1.6425985097885132,0.04585275964652809,-0.008424122072844258,0.07831197897087519,0.004528725054115057,0.004254797473549843,0.0,0.0,0.0,0.0
191,5,8.796726615400985e-05,-6.5183499827981e-05,-9.060932643478736e-05,-0.004708563443273306,-0.0007087494595907629,-0.008040581829845905,-0.0065066819079220295,-0.13930848240852356,0.0023220283910632133,0.0024902906734496355,0.0027369693852961063,0.11382017284631729,0.0,0.0,0.0,0.005298032891005278,-0.001890210434794426,-0.0,0.0,0.0,0.0,0.0,0.0,0.0,0.0,0.0,0.0,0.0,0.0,0.0,0.0,0.0,0.0,0.0,0.0,0.0,0.0,0.0,0.0,0.0,1.6747417449951172,0.04545216932812319,-0.008361852959697675,0.07696076397928063,0.007627875078469515,0.016446268185973167,0.0,0.0,0.0,0.0
196,5,6.348227907437831e-05,-5.741870336350985e-05,-6.333260535029694e-05,-0.004821624141186476,-0.0012152757262811065,-0.006489438936114311,-0.0065066819079220295,-0.13930848240852356,0.0023220283910632133,0.0024902906734496355,0.0027369693852961063,0.11382017284631729,0.0,0.0,0.0,0.005298032891005278,-0.001890210434794426,-0.0,0.0,0.0,0.0,0.0,0.0,0.0,0.0,0.0,0.0,0.0,0.0,0.0,0.0,0.0,0.0,0.0,0.0,0.0,0.0,0.0,0.0,0.0,1.6747417449951172,0.045198480873018414,-0.009053928071905703,0.07726303510151852,0.007627875078469515,0.016446268185973167,0.0,0.0,0.0,0.0
201,5,6.348227907437831e-05,-5.741870336350985e-05,-6.333260535029694e-05,-0.004821624141186476,-0.0012152757262811065,-0.006489438936114311,-0.006412569899111986,-0.13927696645259857,0.0031598566565662622,0.012046649120748043,0.02731846459209919,-0.2018977254629135,0.0,0.0,0.0,0.001365332631394267,-0.004392360802739859,-0.0,0.0,0.0,0.0,0.0,0.0,0.0,0.0,0.0,0.0,0.0,0.0,0.0,0.0,0.0,0.0,0.0,0.0,0.0,0.0,0.0,0.0,0.0,1.674998164176941,0.045198480873018414,-0.009053928071905703,0.07726303510151852,0.017728110775351524,0.004238977562636137,0.0,0.0,0.0,0.0
206,5,4.626327063306235e-05,-4.712685404228978e-05,-3.1918602871883195e-06,-0.00278631248511374,-0.0009472430101595819,-0.00590126495808363,-0.006412569899111986,-0.13927696645259857,0.0031598566565662622,0.012046649120748043,0.02731846459209919,-0.2018977254629135,0.0,0.0,0.0,0.001365332631394267,-0.004392360802739859,-0.0,0.0,0.0,0.0,0.0,0.0,0.0,0.0,0.0,0.0,0.0,0.0,0.0,0.0,0.0,0.0,0.0,0.0,0.0,0.0,0.0,0.0,0.0,1.674998164176941,0.04412787181161519,-0.009862205036723812,0.0772407137911102,0.017728110775351524,0.004238977562636137,0.0,0.0,0.0,0.0
211,5,4.639981852960773e-05,-3.411009311093949e-05,1.3982251402921975e-05,-0.0010981393279507756,-0.0019409084925428033,-0.004421399440616369,-0.006261288188397884,-0.13972415030002594,0.0026300535537302494,0.02153877168893814,0.005589051637798548,0.12316189706325531,0.0,0.0,0.0,0.0010727404151111841,-0.002555649261921644,-0.0,0.0,0.0,0.0,0.0,0.0,0.0,0.0,0.0,0.0,0.0,0.0,0.0,0.0,0.0,0.0,0.0,0.0,0.0,0.0,0.0,0.0,0.0,1.654747724533081,0.043941549716499544,-0.010549826423569943,0.0773700557231242,0.010190235450863838,0.003290295135229826,0.0,0.0,0.0,0.0
217,5,4.639981852960773e-05,-3.411009311093949e-05,1.3982251402921975e-05,-0.0010981393279507756,-0.0019409084925428033,-0.004421399440616369,-0.006261288188397884,-0.13972415030002594,0.0026300535537302494,0.02153877168893814,0.005589051637798548,0.12316189706325531,0.0,0.0,0.0,0.0010727404151111841,-0.002555649261921644,-0.0,0.0,0.0,0.0,0.0,0.0,0.0,0.0,0.0,0.0,0.0,0.0,0.0,0.0,0.0,0.0,0.0,0.0,0.0,0.0,0.0,0.0,0.0,1.654747724533081,0.043941549716499544,-0.010549826423569943,0.0773700557231242,0.010190235450863838,0.003290295135229826,0.0,0.0,0.0,0.0
222,5,1.65114088304108e-05,-2.7238260372541845e-05,7.940115756355226e-05,-0.0027915281243622303,-0.0006046149064786732,-0.0058806706219911575,-0.006261288188397884,-0.13972415030002594,0.0026300535537302494,0.02153877168893814,0.005589051637798548,0.12316189706325531,0.0,0.0,0.0,0.002320914063602686,-0.0009719179361127317,-0.0,0.0,0.0,0.0,0.0,0.0,0.0,0.0,0.0,0.0,0.0,0.0,0.0,0.0,0.0,0.0,0.0,0.0,0.0,0.0,0.0,0.0,0.0,1.6476221084594727,0.04444200422833141,-0.011808398981417719,0.07740999031848864,0.00385867222212255,0.007088013458997011,0.0,0.0,0.0,0.0
227,5,-1.6447005691588856e-05,-2.786254117381759e-05,0.00016055551532190293,-0.005071621388196945,-0.00016693226643837988,-0.012090791016817093,-0.006093268748372793,-0.1395280659198761,0.0024014778900891542,0.03345903754234314,-0.012547042220830917,-0.062208667397499084,0.0,0.0,0.0,0.002320914063602686,-0.0009719179361127317,-0.0,0.0,0.0,0.0,0.0,0.0,0.0,0.0,0.0,0.0,0.0,0.0,0.0,0.0,0.0,0.0,0.0,0.0,0.0,0.0,0.0,0.0,0.0,1.6476221084594727,0.044184349207665584,-0.013099890288132203,0.07677155872587652,0.00385867222212255,0.007088013458997011,0.0,0.0,0.0,0.0
232,5,-4.045626337756403e-05,-2.9013293897151016e-05,0.00025504271616227925,-0.004909758921712637,7.131738675525412e-05,-0.016174782067537308,-0.0056940182112157345,-0.1394415944814682,0.0024500114377588034,0.06363389641046524,-0.11384335905313492,0.03635518625378609,0.0,0.0,0.0,0.00015112543769646436,-0.004726796876639128,-0.0,0.0,0.0,0.0,0.0,0.0,0.0,0.0,0.0,0.0,0.0,0.0,0.0,0.0,0.0,0.0,0.0,0.0,0.0,0.0,0.0,0.0,0.0,1.6773687601089478,0.04511079856020842,-0.015241889664625861,0.07685807324877679,0.01910494454205036,0.00046986667439341545,0.0,0.0,0.0,0.0
237,5,-8.21654757601209e-05,-4.04655838792678e-05,0.00039515443495474756,-0.006969009526073933,0.0014028018340468407,-0.023283319547772408,-0.0056940182112157345,-0.1394415944814682,0.0024500114377588034,0.06363389641046524,-0.11384335905313492,0.03635518625378609,0.0,0.0,0.0,0.00015112543769646436,-0.004726796876639128,-0.0,0.0,0.0,0.0,0.0,0.0,0.0,0.0,0.0,0.0,0.0,0.0,0.0,0.0,0.0,0.0,0.0,0.0,0.0,0.0,0.0,0.0,0.0,1.6773687601089478,0.04539504784289612,-0.019143662488790722,0.07719472993140916,0.01910494454205036,0.00046986667439341545,0.0,0.0,0.0,0.0
242,5,-0.0001757302670739591,-5.5013737437548116e-05,0.0005876906798221171,-0.01401537749916315,0.0023068992886692286,-0.032417673617601395,-0.004925652872771025,-0.13653600215911865,0.0021813970524817705,0.07575611025094986,-0.4374425709247589,0.03047521784901619,0.0,0.0,0.0,-0.0017421786906197667,-0.006493445951491594,-0.0,0.0,0.0,0.0,0.0,0.0,0.0,0.0,0.0,0.0,0.0,0.0,0.0,0.0,0.0,0.0,0.0,0.0,0.0,0.0,0.0,0.0,0.0,1.6988788843154907,0.046441685046262116,-0.023615195738920923,0.07692876210415496,0.026581889018416405,-0.005486094392836094,0.0,0.0,0.0,0.0
247,5,-0.00029953138437122107,-4.981786332791671e-05,0.0008421440725214779,-0.020462287589907646,0.00029925478156656027,-0.04350147768855095,-0.004925652872771025,-0.13653600215911865,0.0021813970524817705,0.07575611025094986,-0.4374425709247589,0.03047521784901619,0.0,0.0,0.0,-0.0017421786906197667,-0.006493445951491594,-0.0,0.0,0.0,0.0,0.0,0.0,0.0,0.0,0.0,0.0,0.0,0.0,0.0,0.0,0.0,0.0,0.0,0.0,0.0,0.0,0.0,0.0,0.0,1.6988788843154907,0.04765591646432892,-0.030425980799306158,0.07748142256156823,0.026581889018416405,-0.005486094392836094,0.0,0.0,0.0,0.0
252,5,-0.0004399771278258413,-3.455658952589147e-05,0.0010678237304091454,-0.025038402527570724,-0.0017116509843617678,-0.04448215663433075,-0.004925652872771025,-0.13653600215911865,0.0021813970524817705,0.07575611025094986,-0.4374425709247589,0.03047521784901619,0.0,0.0,0.0,-0.00041176725062541664,-0.017741214483976364,-0.0,0.0,0.0,0.0,0.0,0.0,0.0,0.0,0.0,0.0,0.0,0.0,0.0,0.0,0.0,0.0,0.0,0.0,0.0,0.0,0.0,0.0,0.0,1.8335092067718506,0.048082683825949823,-0.03804536649619989,0.0780606432266741,0.07837824523448944,-0.0013994050677865744,0.0,0.0,0.0,0.0
257,5,-0.0003231849696021527,-0.0001789255766198039,0.000785869371611625,0.00399969844147563,0.016639618203043938,0.016041666269302368,-0.004190347157418728,-0.13143765926361084,0.0026054696645587683,0.0812511071562767,-0.9445372223854065,-0.03825683519244194,0.0,0.0,0.0,-0.00041176725062541664,-0.017741214483976364,-0.0,0.0,0.0,0.0,0.0,0.0,0.0,0.0,0.0,0.0,0.0,0.0,0.0,0.0,0.0,0.0,0.0,0.0,0.0,0.0,0.0,0.0,0.0,1.8335092067718506,0.055262752694937516,-0.040792874361860514,0.07823849245301702,0.07837824523448944,-0.0013994050677865744,0.0,0.0,0.0,0.0
262,5,-0.0005246663931757212,-0.00017091602785512805,0.0010196197545155883,-0.022577891126275063,0.00569470040500164,-0.021633382886648178,-0.004190347157418728,-0.13143765926361084,0.0026054696645587683,0.0812511071562767,-0.9445372223854065,-0.03825683519244194,0.0,0.0,0.0,-0.0190188679844141,0.003052148036658764,-0.0,0.0,0.0,0.0,0.0,0.0,0.0,0.0,0.0,0.0,0.0,0.0,0.0,0.0,0.0,0.0,0.0,0.0,0.0,0.0,0.0,0.0,0.0,1.7982538938522339,0.056607708440133506,-0.05068029963362324,0.07858118436504025,-0.013222978450357914,-0.06338648498058319,-0.0,0.0,0.0,0.0
267,5,-0.0005246663931757212,-0.00017091602785512805,0.0010196197545155883,-0.022577891126275063,0.00569470040500164,-0.021633382886648178,-0.0032053610775619745,-0.11700435727834702,0.002385135041549802,0.06030808761715889,-1.5429364442825317,0.03099624626338482,0.0,0.0,0.0,-0.0190188679844141,0.003052148036658764,-0.0,0.0,0.0,0.0,0.0,0.0,0.0,0.0,0.0,0.0,0.0,0.0,0.0,0.0,0.0,0.0,0.0,0.0,0.0,0.0,0.0,0.0,0.0,1.7982538938522339,0.056607708440133506,-0.05068029963362324,0.07858118436504025,-0.013222978450357914,-0.06338648498058319,-0.0,0.0,0.0,0.0
273,5,-0.0009510699892416596,-0.00016597264038864523,0.0014786565443500876,-0.040758803486824036,0.0006043004686944187,-0.042618751525878906,-0.0032053610775619745,-0.11700435727834702,0.002385135041549802,0.06030808761715889,-1.5429364442825317,0.03099624626338482,0.0,0.0,0.0,-0.006453302688896656,-0.01949143223464489,-0.0,0.0,0.0,0.0,0.0,0.0,0.0,0.0,0.0,0.0,0.0,0.0,0.0,0.0,0.0,0.0,0.0,0.0,0.0,0.0,0.0,0.0,0.0,1.8642826080322266,0.05723674497395505,-0.0735174216185397,0.07983189464690504,0.08755296468734741,-0.022299589589238167,0.0,0.0,0.0,0.0
278,5,-0.001179980463348329,-0.0001549278968013823,0.0017210814403370023,-0.043772775679826736,-0.0010836502769961953,-0.04613848775625229,-0.0034616191405802965,-0.07564062625169754,0.0023917171638458967,-0.07844960689544678,-2.450164318084717,-0.0065069361589848995,0.0,0.0,0.0,-0.006453302688896656,-0.01949143223464489,-0.0,0.0,0.0,0.0,0.0,0.0,0.0,0.0,0.0,0.0,0.0,0.0,0.0,0.0,0.0,0.0,0.0,0.0,0.0,0.0,0.0,0.0,0.0,1.8642826080322266,0.05922476115369037,-0.08631587792699214,0.08083186504885206,0.08755296468734741,-0.022299589589238167,0.0,0.0,0.0,0.0
283,5,-0.0014234777772799134,-0.00015136065485421568,0.0019505346426740289,-0.046728793531656265,-0.0008615277474746108,-0.045989781618118286,-0.0034616191405802965,-0.07564062625169754,0.0023917171638458967,-0.07844960689544678,-2.450164318084717,-0.0065069361589848995,0.0,0.0,0.0,0.0008379971841350198,-0.034310232847929,-0.0,0.0,0.0,0.0,0.0,0.0,0.0,0.0,0.0,0.0,0.0,0.0,0.0,0.0,0.0,0.0,0.0,0.0,0.0,0.0,0.0,0.0,0.0,2.064410448074341,0.059653268464626534,-0.09854999522894889,0.08198922971118668,0.17064213752746582,0.0032066169660538435,0.0,0.0,0.0,0.0
288,5,-0.0016589550068601966,-0.0001242251746589318,0.0022015045396983624,-0.046948786824941635,-0.003600869793444872,-0.0485122911632061,-0.0043624755926430225,-0.05551784113049507,0.002403418766334653,-0.15378087759017944,-2.5227153301239014,-0.014204057864844799,0.0,0.0,0.0,0.0008379971841350198,-0.034310232847929,-0.0,0.0,0.0,0.0,0.0,0.0,0.0,0.0,0.0,0.0,0.0,0.0,0.0,0.0,0.0,0.0,0.0,0.0,0.0,0.0,0.0,0.0,0.0,2.064410448074341,0.05945778903048564,-0.11070173917729385,0.082532999201711,0.17064213752746582,0.0032066169660538435,0.0,0.0,0.0,0.0
293,5,-0.00186441233381629,-9.408410551259294e-05,0.0024111177772283554,-0.04343438521027565,-0.005057276226580143,-0.044558506458997726,-0.0043624755926430225,-0.05551784113049507,0.002403418766334653,-0.15378087759017944,-2.5227153301239014,-0.014204057864844799,0.0,0.0,0.0,0.0032914455514401197,-0.036598097532987595,-0.0,0.0,0.0,0.0,0.0,0.0,0.0,0.0,0.0,0.0,0.0,0.0,0.0,0.0,0.0,0.0,0.0,0.0,0.0,0.0,0.0,0.0,0.0,2.1004481315612793,0.06009132659195938,-0.12160010215044442,0.08325598299299018,0.18519234657287598,0.01281462050974369,0.0,0.0,0.0,0.0
298,5,-0.002072237664833665,-6.665109685854986e-05,0.0026291583199054003,-0.042312804609537125,-0.0053148712031543255,-0.04398827254772186,-0.006464941427111626,-0.026227343827486038,0.0028203388210386038,-0.21349164843559265,-2.3290064334869385,0.04350758343935013,0.0,0.0,0.0,0.0032914455514401197,-0.036598097532987595,-0.0,0.0,0.0,0.0,0.0,0.0,0.0,0.0,0.0,0.0,0.0,0.0,0.0,0.0,0.0,0.0,0.0,0.0,0.0,0.0,0.0,0.0,0.0,2.1004481315612793,0.05957232844993471,-0.13192861271722658,0.08362854465369568,0.18519234657287598,0.01281462050974369,0.0,0.0,0.0,0.0
303,5,-0.002240183297544718,-5.4583990277023986e-05,0.002774355700239539,-0.037078578025102615,-0.003574001369997859,-0.035018980503082275,-0.006464941427111626,-0.026227343827486038,0.0028203388210386038,-0.21349164843559265,-2.3290064334869385,0.04350758343935013,0.0,0.0,0.0,0.005108109675347805,-0.034177470952272415,-0.0,0.0,0.0,0.0,0.0,0.0,0.0,0.0,0.0,0.0,0.0,0.0,0.0,0.0,0.0,0.0,0.0,0.0,0.0,0.0,0.0,0.0,0.0,2.0657196044921875,0.060693124452802366,-0.13937831066856907,0.08365058531336535,0.17008772492408752,0.019558550789952278,0.0,0.0,0.0,0.0
308,5,-0.002392021706327796,-2.5397291665285593e-06,0.002949873683974147,-0.03305206447839737,-0.007674911990761757,-0.035069771111011505,-0.008047572337090969,-0.009119290858507156,0.002846774645149708,-0.22185170650482178,-1.8038363456726074,-0.025913851335644722,0.0,0.0,0.0,0.005108109675347805,-0.034177470952272415,-0.0,0.0,0.0,0.0,0.0,0.0,0.0,0.0,0.0,0.0,0.0,0.0,0.0,0.0,0.0,0.0,0.0,0.0,0.0,0.0,0.0,0.0,0.0,2.0657196044921875,0.06088921993214399,-0.14618041923281855,0.08466040067259374,0.17008772492408752,0.019558550789952278,0.0,0.0,0.0,0.0
313,5,-0.0025090230628848076,4.402429476613179e-05,0.0031261276453733444,-0.02726096473634243,-0.008657647296786308,-0.03517835959792137,-0.008047572337090969,-0.009119290858507156,0.002846774645149708,-0.22185170650482178,-1.8038363456726074,-0.025913851335644722,0.0,0.0,0.0,0.007798996288329363,-0.02860715053975582,-0.0,0.0,0.0,0.0,0.0,0.0,0.0,0.0,0.0,0.0,0.0,0.0,0.0,0.0,0.0,0.0,0.0,0.0,0.0,0.0,0.0,0.0,0.0,1.9896162748336792,0.05953738512353931,-0.15156359203076916,0.08484840501270358,0.1371271312236786,0.028761306777596474,0.0,0.0,0.0,0.0
318,5,-0.0025944893714040518,0.00010940085485344753,0.0032909116707742214,-0.02116035670042038,-0.011308246292173862,-0.0338454507291317,-0.010636767372488976,0.008902349509298801,0.0033229757100343704,-0.22268985211849213,-1.084304690361023,0.04202753305435181,0.0,0.0,0.0,0.007798996288329363,-0.02860715053975582,-0.0,0.0,0.0,0.0,0.0,0.0,0.0,0.0,0.0,0.0,0.0,0.0,0.0,0.0,0.0,0.0,0.0,0.0,0.0,0.0,0.0,0.0,0.0,1.9896162748336792,0.05799394789078287,-0.15629305220883985,0.08526242996087892,0.1371271312236786,0.028761306777596474,0.0,0.0,0.0,0.0
323,5,-0.002638074802234769,0.00018680359062273055,0.003390140598639846,-0.01369439996778965,-0.01381162740290165,-0.02544565126299858,-0.010636767372488976,0.008902349509298801,0.0033229757100343704,-0.22268985211849213,-1.084304690361023,0.04202753305435181,0.0,0.0,0.0,0.012231944128870964,-0.020494535565376282,-0.0,0.0,0.0,0.0,0.0,0.0,0.0,0.0,0.0,0.0,0.0,0.0,0.0,0.0,0.0,0.0,0.0,0.0,0.0,0.0,0.0,0.0,0.0,1.8967407941818237,0.05560020914265301,-0.15887731348958162,0.08542744251088005,0.09365588426589966,0.04300236701965332,0.0,0.0,0.0,0.0
328,5,-0.002642496721819043,0.00027713304734788835,0.0034759731497615576,-0.006008378230035305,-0.016364185139536858,-0.02047816663980484,-0.010636767372488976,0.008902349509298801,0.0033229757100343704,-0.22268985211849213,-1.084304690361023,0.04202753305435181,0.0,0.0,0.0,0.012231944128870964,-0.020494535565376282,-0.0,0.0,0.0,0.0,0.0,0.0,0.0,0.0,0.0,0.0,0.0,0.0,0.0,0.0,0.0,0.0,0.0,0.0,0.0,0.0,0.0,0.0,0.0,1.8967407941818237,0.054448466981410336,-0.15914200217254956,0.08581422496030545,0.09365588426589966,0.04300236701965332,0.0,0.0,0.0,0.0
333,5,-0.0026301585603505373,0.0003672941238619387,0.003556083654984832,-0.0009227808914147317,-0.017365003004670143,-0.01780451089143753,-0.012230177409946918,0.01508979219943285,0.0031515532173216343,-0.1997222900390625,-0.33015012741088867,-0.011318977922201157,0.0,0.0,0.0,0.018645739182829857,-0.008464512415230274,-0.0,0.0,0.0,0.0,0.0,0.0,0.0,0.0,0.0,0.0,0.0,0.0,0.0,0.0,0.0,0.0,0.0,0.0,0.0,0.0,0.0,0.0,0.0,1.8197386264801025,0.052360093335214825,-0.1577543704246284,0.08565134895585498,0.03710925206542015,0.06288563460111618,0.0,0.0,0.0,0.0
338,5,-0.002577811712399125,0.0004378838639240712,0.0035708409268409014,0.005912513472139835,-0.015416770242154598,-0.00889268796890974,-0.012230177409946918,0.01508979219943285,0.0031515532173216343,-0.1997222900390625,-0.33015012741088867,-0.011318977922201157,0.0,0.0,0.0,0.018645739182829857,-0.008464512415230274,-0.0,0.0,0.0,0.0,0.0,0.0,0.0,0.0,0.0,0.0,0.0,0.0,0.0,0.0,0.0,0.0,0.0,0.0,0.0,0.0,0.0,0.0,0.0,1.8197386264801025,0.049627688070669425,-0.15525630196422485,0.08524569270871327,0.03710925206542015,0.06288563460111618,0.0,0.0,0.0,0.0
343,5,-0.0025131714064627886,0.0005237135337665677,0.003601348726078868,0.01012185588479042,-0.01646626740694046,-0.007218003273010254,-0.014659225009381771,0.014965337701141834,0.0037635343614965677,-0.19665589928627014,0.4444919526576996,0.047544363886117935,0.0,0.0,0.0,0.018174074590206146,0.001843630918301642,-0.0,0.0,0.0,0.0,0.0,0.0,0.0,0.0,0.0,0.0,0.0,0.0,0.0,0.0,0.0,0.0,0.0,0.0,0.0,0.0,0.0,0.0,0.0,1.7877732515335083,0.04726552248659175,-0.15141055026876848,0.08503325386509428,-0.007940838113427162,0.06021849066019058,0.0,0.0,0.0,0.0
348,5,-0.0024365910794585943,0.0006115524447523057,0.003572780406102538,0.013238366693258286,-0.017127180472016335,0.0005409994046203792,-0.014659225009381771,0.014965337701141834,0.0037635343614965677,-0.19665589928627014,0.4444919526576996,0.047544363886117935,0.0,0.0,0.0,0.018174074590206146,0.001843630918301642,-0.0,0.0,0.0,0.0,0.0,0.0,0.0,0.0,0.0,0.0,0.0,0.0,0.0,0.0,0.0,0.0,0.0,0.0,0.0,0.0,0.0,0.0,0.0,1.7877732515335083,0.04550758177408745,-0.14719108100838124,0.08523230956298812,-0.007940838113427162,0.06021849066019058,0.0,0.0,0.0,0.0
353,5,-0.00232428009621799,0.000667351414449513,0.003470114665105939,0.018772661685943604,-0.013546746224164963,0.012536297552287579,-0.016009746119379997,0.00933948066085577,0.003565458348020911,-0.11957811564207077,0.9777397513389587,0.0031541972421109676,0.0,0.0,0.0,0.01993722654879093,0.008210301399230957,-0.0,0.0,0.0,0.0,0.0,0.0,0.0,0.0,0.0,0.0,0.0,0.0,0.0,0.0,0.0,0.0,0.0,0.0,0.0,0.0,0.0,0.0,0.0,1.829196810722351,0.044116859112365715,-0.14222778202582448,0.08494930575578472,-0.036180973052978516,0.06758984923362732,-0.0,0.0,0.0,0.0
359,5,-0.002227154327556491,0.0007357788272202015,0.003368169767782092,0.019164150580763817,-0.013629984110593796,0.017247900366783142,-0.016009746119379997,0.00933948066085577,0.003565458348020911,-0.11957811564207077,0.9777397513389587,0.0031541972421109676,0.0,0.0,0.0,0.01993722654879093,0.008210301399230957,-0.0,0.0,0.0,0.0,0.0,0.0,0.0,0.0,0.0,0.0,0.0,0.0,0.0,0.0,0.0,0.0,0.0,0.0,0.0,0.0,0.0,0.0,0.0,1.829196810722351,0.04186501179973463,-0.1377840724413619,0.08461160487579848,-0.036180973052978516,0.06758984923362732,-0.0,0.0,0.0,0.0
364,5,-0.002118338830769062,0.0008031436009332538,0.0032610795460641384,0.02072354033589363,-0.013535769656300545,0.019749967381358147,-0.017035074532032013,-0.0036518643610179424,0.003749236697331071,-0.05039681866765022,1.2061684131622314,0.014014732092618942,0.0,0.0,0.0,0.016168056055903435,0.01342686265707016,-0.0,0.0,0.0,0.0,0.0,0.0,0.0,0.0,0.0,0.0,0.0,0.0,0.0,0.0,0.0,0.0,0.0,0.0,0.0,0.0,0.0,0.0,0.0,1.8407785892486572,0.04072138108981141,-0.13266589392962636,0.08428763359923575,-0.05954676866531372,0.05516118183732033,-0.0,0.0,0.0,0.0
369,5,-0.0020279439631849527,0.0008744260994717479,0.0031660599634051323,0.019136788323521614,-0.013968206942081451,0.019302336499094963,-0.017035074532032013,-0.0036518643610179424,0.003749236697331071,-0.05039681866765022,1.2061684131622314,0.014014732092618942,0.0,0.0,0.0,0.016168056055903435,0.01342686265707016,-0.0,0.0,0.0,0.0,0.0,0.0,0.0,0.0,0.0,0.0,0.0,0.0,0.0,0.0,0.0,0.0,0.0,0.0,0.0,0.0,0.0,0.0,0.0,1.8407785892486572,0.039707100730697234,-0.12871062364997019,0.08391512946074421,-0.05954676866531372,0.05516118183732033,-0.0,0.0,0.0,0.0
374,5,-0.001949782483279705,0.0009395248489454389,0.0030579231679439545,0.01703408919274807,-0.013399134390056133,0.02069736458361149,-0.017129557207226753,-0.013459683395922184,0.0034176495391875505,0.03198865428566933,1.17411470413208,-0.007794588338583708,0.0,0.0,0.0,0.016714902594685555,0.013609085232019424,-0.0,0.0,0.0,0.0,0.0,0.0,0.0,0.0,0.0,0.0,0.0,0.0,0.0,0.0,0.0,0.0,0.0,0.0,0.0,0.0,0.0,0.0,0.0,1.8462200164794922,0.039995639423370734,-0.12479624122625535,0.08327864449493068,-0.06053272262215614,0.057195134460926056,-0.0,0.0,0.0,0.0
379,5,-0.0018915784312412143,0.0009938072180375457,0.0029868166893720627,0.013798125088214874,-0.011873536743223667,0.016811730340123177,-0.017129557207226753,-0.013459683395922184,0.0034176495391875505,0.03198865428566933,1.17411470413208,-0.007794588338583708,0.0,0.0,0.0,0.016714902594685555,0.013609085232019424,-0.0,0.0,0.0,0.0,0.0,0.0,0.0,0.0,0.0,0.0,0.0,0.0,0.0,0.0,0.0,0.0,0.0,0.0,0.0,0.0,0.0,0.0,0.0,1.8462200164794922,0.040125628832765985,-0.12204723389478252,0.08288935960751846,-0.06053272262215614,0.057195134460926056,-0.0,0.0,0.0,0.0
384,5,-0.0018789159366860986,0.0010415153810754418,0.0029489409644156694,0.00703874696046114,-0.010474400594830513,0.011269773356616497,-0.016404487192630768,-0.025885771960020065,0.003215784439817071,0.09876464307308197,0.8410112261772156,-0.02645672857761383,0.0,0.0,0.0,0.016714902594685555,0.013609085232019424,-0.0,0.0,0.0,0.0,0.0,0.0,0.0,0.0,0.0,0.0,0.0,0.0,0.0,0.0,0.0,0.0,0.0,0.0,0.0,0.0,0.0,0.0,0.0,1.8462200164794922,0.040523559389812974,-0.12019055977912034,0.0824818306421028,-0.06053272262215614,0.057195134460926056,-0.0,0.0,0.0,0.0
389,5,-0.0018978981534019113,0.0010891719721257687,0.0029655895195901394,0.0005376437911763787,-0.009908543899655342,0.002510075457394123,-0.016404487192630768,-0.025885771960020065,0.003215784439817071,0.09876464307308197,0.8410112261772156,-0.02645672857761383,0.0,0.0,0.0,0.013849504292011261,0.003781532170251012,-0.0,0.0,0.0,0.0,0.0,0.0,0.0,0.0,0.0,0.0,0.0,0.0,0.0,0.0,0.0,0.0,0.0,0.0,0.0,0.0,0.0,0.0,0.0,1.7536758184432983,0.04100980404288372,-0.12016186763741475,0.08235457391501473,-0.015978144481778145,0.04501599818468094,-0.0,0.0,0.0,0.0
394,5,-0.0019480768823996186,0.0010959049686789513,0.002987865824252367,-0.005806399509310722,-0.0047713760286569595,-0.001669126097112894,-0.015104209072887897,-0.031027421355247498,0.0027344883419573307,0.19667838513851166,0.3490835130214691,-0.011115115135908127,0.0,0.0,0.0,0.013849504292011261,0.003781532170251012,-0.0,0.0,0.0,0.0,0.0,0.0,0.0,0.0,0.0,0.0,0.0,0.0,0.0,0.0,0.0,0.0,0.0,0.0,0.0,0.0,0.0,0.0,0.0,1.7536758184432983,0.04218536329259414,-0.1210958428563997,0.08229400339618465,-0.015978144481778145,0.04501599818468094,-0.0,0.0,0.0,0.0
399,5,-0.0020378506742417812,0.0011549800401553512,0.003082320559769869,-0.013095398433506489,-0.008997565135359764,-0.012002207338809967,-0.015104209072887897,-0.031027421355247498,0.0027344883419573307,0.19667838513851166,0.3490835130214691,-0.011115115135908127,0.0,0.0,0.0,0.00744532560929656,-0.007796293590217829,-0.0,0.0,0.0,0.0,0.0,0.0,0.0,0.0,0.0,0.0,0.0,0.0,0.0,0.0,0.0,0.0,0.0,0.0,0.0,0.0,0.0,0.0,0.0,1.7342255115509033,0.04304125151748329,-0.1240175294231189,0.08191754189211731,0.03257836028933525,0.02393263578414917,0.0,0.0,0.0,0.0
404,5,-0.002145257545635104,0.0011942179407924414,0.00320820533670485,-0.018126996234059334,-0.00830757524818182,-0.01990705356001854,-0.01274837739765644,-0.03245678171515465,0.002403835067525506,0.195474311709404,-0.1579955667257309,-0.052023258060216904,0.0,0.0,0.0,0.00744532560929656,-0.007796293590217829,-0.0,0.0,0.0,0.0,0.0,0.0,0.0,0.0,0.0,0.0,0.0,0.0,0.0,0.0,0.0,0.0,0.0,0.0,0.0,0.0,0.0,0.0,0.0,1.7342255115509033,0.043711177412507754,-0.12772767716096767,0.08220828866480298,0.03257836028933525,0.02393263578414917,0.0,0.0,0.0,0.0
410,5,-0.002252695383504033,0.0012249177088961005,0.003315120004117489,-0.02014334127306938,-0.007007002830505371,-0.020792577415704727,-0.01274837739765644,-0.03245678171515465,0.002403835067525506,0.195474311709404,-0.1579955667257309,-0.052023258060216904,0.0,0.0,0.0,0.01095146220177412,-0.01783108338713646,-0.0,0.0,0.0,0.0,0.0,0.0,0.0,0.0,0.0,0.0,0.0,0.0,0.0,0.0,0.0,0.0,0.0,0.0,0.0,0.0,0.0,0.0,0.0,1.8591620922088623,0.04461182229407592,-0.13252610490915714,0.08217546408715896,0.07987260073423386,0.03773828223347664,0.0,0.0,0.0,0.0
415,5,-0.002378578530624509,0.0012517162831500173,0.0034228928852826357,-0.0231633260846138,-0.0060186199843883514,-0.021249782294034958,-0.011291424743831158,-0.029302025213837624,0.0020091370679438114,0.13594911992549896,-0.715498149394989,-0.027691718190908432,0.0,0.0,0.0,0.01095146220177412,-0.01783108338713646,-0.0,0.0,0.0,0.0,0.0,0.0,0.0,0.0,0.0,0.0,0.0,0.0,0.0,0.0,0.0,0.0,0.0,0.0,0.0,0.0,0.0,0.0,0.0,1.8591620922088623,0.046008721780571554,-0.13754875676199776,0.08248436343831618,0.07987260073423386,0.03773828223347664,0.0,0.0,0.0,0.0
420,5,-0.0025421397294849157,0.0012885910691693425,0.003564276732504368,-0.02889266051352024,-0.006832427810877562,-0.025465985760092735,-0.011291424743831158,-0.029302025213837624,0.0020091370679438114,0.13594911992549896,-0.715498149394989,-0.027691718190908432,0.0,0.0,0.0,0.00837018247693777,-0.02185709960758686,-0.0,0.0,0.0,0.0,0.0,0.0,0.0,0.0,0.0,0.0,0.0,0.0,0.0,0.0,0.0,0.0,0.0,0.0,0.0,0.0,0.0,0.0,0.0,1.899871826171875,0.0466113967359267,-0.14321089666400688,0.08216216524106915,0.1000504270195961,0.029475321993231773,0.0,0.0,0.0,0.0
425,5,-0.002698809141293168,0.00129798986017704,0.0036327093839645386,-0.03035738132894039,-0.0038608259055763483,-0.018398312851786613,-0.010379823856055737,-0.01032275054603815,0.0009495955309830606,-0.02715722657740116,-1.1290838718414307,-0.05726572498679161,0.0,0.0,0.0,0.00837018247693777,-0.02185709960758686,-0.0,0.0,0.0,0.0,0.0,0.0,0.0,0.0,0.0,0.0,0.0,0.0,0.0,0.0,0.0,0.0,0.0,0.0,0.0,0.0,0.0,0.0,0.0,1.899871826171875,0.045974468716580945,-0.14862096522931417,0.08200290504050062,0.1000504270195961,0.029475321993231773,0.0,0.0,0.0,0.0
430,5,-0.0028755972161889076,0.0013416430447250605,0.0037197440396994352,-0.03335753455758095,-0.006782710552215576,-0.01780346967279911,-0.010379823856055737,-0.01032275054603815,0.0009495955309830606,-0.02715722657740116,-1.1290838718414307,-0.05726572498679161,0.0,0.0,0.0,0.00593913346529007,-0.027191799134016037,-0.0,0.0,0.0,0.0,0.0,0.0,0.0,0.0,0.0,0.0,0.0,0.0,0.0,0.0,0.0,0.0,0.0,0.0,0.0,0.0,0.0,0.0,0.0,1.9659990072250366,0.04611124981747722,-0.15374958570213945,0.08191206732542528,0.12879884243011475,0.021642642095685005,0.0,0.0,0.0,0.0
435,5,-0.003023136407136917,0.001366993528790772,0.0037671446334570646,-0.031047718599438667,-0.005755141377449036,-0.012809469364583492,-0.011140648275613785,0.0027587711811065674,0.0005051397019997239,-0.059584714472293854,-1.0276299715042114,-0.04725193604826927,0.0,0.0,0.0,0.00593913346529007,-0.027191799134016037,-0.0,0.0,0.0,0.0,0.0,0.0,0.0,0.0,0.0,0.0,0.0,0.0,0.0,0.0,0.0,0.0,0.0,0.0,0.0,0.0,0.0,0.0,0.0,1.9659990072250366,0.045183701670634416,-0.15855963915652957,0.08190325700531703,0.12879884243011475,0.021642642095685005,0.0,0.0,0.0,0.0
440,5,-0.0031581211369484663,0.0013941123615950346,0.003826608182862401,-0.028617246076464653,-0.0055563244968652725,-0.01225941814482212,-0.011140648275613785,0.0027587711811065674,0.0005051397019997239,-0.059584714472293854,-1.0276299715042114,-0.04725193604826927,0.0,0.0,0.0,0.007936515845358372,-0.027915406972169876,-0.0,0.0,0.0,0.0,0.0,0.0,0.0,0.0,0.0,0.0,0.0,0.0,0.0,0.0,0.0,0.0,0.0,0.0,0.0,0.0,0.0,0.0,0.0,1.9802485704421997,0.045199350974326515,-0.1626931711056901,0.0818139877842595,0.13318198919296265,0.02913063019514084,0.0,0.0,0.0,0.0
445,5,-0.0032543193083256483,0.0013860998442396522,0.003839018288999796,-0.02299068495631218,-0.001261028228327632,-0.00639297952875495,-0.011140648275613785,0.0027587711811065674,0.0005051397019997239,-0.059584714472293854,-1.0276299715042114,-0.04725193604826927,0.0,0.0,0.0,0.007936515845358372,-0.027915406972169876,-0.0,0.0,0.0,0.0,0.0,0.0,0.0,0.0,0.0,0.0,0.0,0.0,0.0,0.0,0.0,0.0,0.0,0.0,0.0,0.0,0.0,0.0,0.0,1.9802485704421997,0.04546333403958058,-0.16540689714729212,0.08130624528481196,0.13318198919296265,0.02913063019514084,0.0,0.0,0.0,0.0
450,5,-0.003341204719617963,0.001387337688356638,0.0038835916202515364,-0.01962251402437687,-0.0006529487436637282,-0.0079059898853302,-0.011792197823524475,0.01032762136310339,0.00022925512166693807,-0.05354514345526695,-0.7836530804634094,-0.04659324511885643,0.0,0.0,0.0,0.003514526877552271,-0.02275378815829754,-0.0,0.0,0.0,0.0,0.0,0.0,0.0,0.0,0.0,0.0,0.0,0.0,0.0,0.0,0.0,0.0,0.0,0.0,0.0,0.0,0.0,0.0,0.0,1.901581048965454,0.04511482648581466,-0.16863524955066536,0.08139692217513492,0.10425101220607758,0.012387641705572605,0.0,0.0,0.0,0.0
455,5,-0.0034210574813187122,0.0014026365242898464,0.003918964881449938,-0.017431337386369705,-0.002097036689519882,-0.007407170254737139,-0.011792197823524475,0.01032762136310339,0.00022925512166693807,-0.05354514345526695,-0.7836530804634094,-0.04659324511885643,0.0,0.0,0.0,0.003514526877552271,-0.02275378815829754,-0.0,0.0,0.0,0.0,0.0,0.0,0.0,0.0,0.0,0.0,0.0,0.0,0.0,0.0,0.0,0.0,0.0,0.0,0.0,0.0,0.0,0.0,0.0,1.901581048965454,0.045006626358264704,-0.16988330341176353,0.08104500951101136,0.10425101220607758,0.012387641705572605,0.0,0.0,0.0,0.0
460,5,-0.003479971783235669,0.0013866681838408113,0.003960847854614258,-0.01404225267469883,0.0010773810790851712,-0.007988857105374336,-0.012534542009234428,0.01742488518357277,-0.0001901613868540153,-0.04480927810072899,-0.39231234788894653,-0.029360033571720123,0.0,0.0,0.0,0.004548537544906139,-0.018893426284193993,-0.0,0.0,0.0,0.0,0.0,0.0,0.0,0.0,0.0,0.0,0.0,0.0,0.0,0.0,0.0,0.0,0.0,0.0,0.0,0.0,0.0,0.0,0.0,1.8525190353393555,0.04519898520571321,-0.17013178151501765,0.0812401202182755,0.08433249592781067,0.01561853475868702,0.0,0.0,0.0,0.0
465,5,-0.0035029901191592216,0.0013628510059788823,0.0039456505328416824,-0.008379111997783184,0.0032890154980123043,-0.0013718681875616312,-0.012534542009234428,0.01742488518357277,-0.0001901613868540153,-0.04480927810072899,-0.39231234788894653,-0.029360033571720123,0.0,0.0,0.0,0.004548537544906139,-0.018893426284193993,-0.0,0.0,0.0,0.0,0.0,0.0,0.0,0.0,0.0,0.0,0.0,0.0,0.0,0.0,0.0,0.0,0.0,0.0,0.0,0.0,0.0,0.0,0.0,1.8525190353393555,0.04438666119647892,-0.1701126215577886,0.08114532595998063,0.08433249592781067,0.01561853475868702,0.0,0.0,0.0,0.0
470,5,-0.0035467136185616255,0.001368268160149455,0.004003619309514761,-0.008598461747169495,0.0006655499455519021,-0.007505004294216633,-0.013147913850843906,0.018727855756878853,-0.0002770047285594046,-0.06255992501974106,0.06665121018886566,-0.010218879207968712,0.0,0.0,0.0,-0.0014673529658466578,-0.011974633671343327,-0.0,0.0,0.0,0.0,0.0,0.0,0.0,0.0,0.0,0.0,0.0,0.0,0.0,0.0,0.0,0.0,0.0,0.0,0.0,0.0,0.0,0.0,0.0,1.7623157501220703,0.04429280557814404,-0.16915004036326864,0.08140262278684259,0.050849538296461105,-0.004793211352080107,0.0,0.0,0.0,0.0
476,5,-0.003531733527779579,0.00136001652572304,0.004006456583738327,-0.0016417702427133918,0.0012564145727083087,-0.0033424333669245243,-0.013147913850843906,0.018727855756878853,-0.0002770047285594046,-0.06255992501974106,0.06665121018886566,-0.010218879207968712,0.0,0.0,0.0,-0.0014673529658466578,-0.011974633671343327,-0.0,0.0,0.0,0.0,0.0,0.0,0.0,0.0,0.0,0.0,0.0,0.0,0.0,0.0,0.0,0.0,0.0,0.0,0.0,0.0,0.0,0.0,0.0,1.7623157501220703,0.043159251057217365,-0.16728814561661287,0.08098864732635852,0.050849538296461105,-0.004793211352080107,0.0,0.0,0.0,0.0
481,5,-0.003503280458971858,0.0013497762847691774,0.0039734626188874245,0.0027576663997024298,0.00173140037804842,0.0026222628075629473,-0.014045302756130695,0.01539524644613266,-0.00045456690713763237,-0.08610859513282776,0.4624641537666321,-0.010415935888886452,0.0,0.0,0.0,0.0008966986206360161,-0.006303665228188038,-0.0,0.0,0.0,0.0,0.0,0.0,0.0,0.0,0.0,0.0,0.0,0.0,0.0,0.0,0.0,0.0,0.0,0.0,0.0,0.0,0.0,0.0,0.0,1.6955820322036743,0.04308240119530089,-0.164012675494412,0.0809607988625183,0.025754956528544426,0.0028182126116007566,0.0,0.0,0.0,0.0
486,5,-0.003467090427875519,0.0013318454148247838,0.003913820721209049,0.005445846356451511,0.0028442672919481993,0.008205937221646309,-0.014045302756130695,0.01539524644613266,-0.00045456690713763237,-0.08610859513282776,0.4624641537666321,-0.010415935888886452,0.0,0.0,0.0,0.0008966986206360161,-0.006303665228188038,-0.0,0.0,0.0,0.0,0.0,0.0,0.0,0.0,0.0,0.0,0.0,0.0,0.0,0.0,0.0,0.0,0.0,0.0,0.0,0.0,0.0,0.0,0.0,1.6955820322036743,0.04251250726527996,-0.1613691934572038,0.08117910464093603,0.025754956528544426,0.0028182126116007566,0.0,0.0,0.0,0.0
491,5,-0.0034061637707054615,0.0012984505156055093,0.003812509123235941,0.00948953628540039,0.0051450845785439014,0.015439779497683048,-0.014607956632971764,0.010624377988278866,-0.0004281039291527122,-0.07002020627260208,0.7068336606025696,-0.0024329866282641888,0.0,0.0,0.0,-0.0010843095369637012,0.0002961748978123069,-0.0,0.0,0.0,0.0,0.0,0.0,0.0,0.0,0.0,0.0,0.0,0.0,0.0,0.0,0.0,0.0,0.0,0.0,0.0,0.0,0.0,0.0,0.0,1.63521146774292,0.042374051751625876,-0.15698137040893692,0.08050292471282476,-0.0011670079547911882,-0.003286514664068818,-0.0,0.0,0.0,0.0
496,5,-0.003371232422068715,0.0012674372410401702,0.0037194164469838142,0.007987596094608307,0.00577963562682271,0.017347045242786407,-0.014607956632971764,0.010624377988278866,-0.0004281039291527122,-0.07002020627260208,0.7068336606025696,-0.0024329866282641888,0.0,0.0,0.0,-0.0010843095369637012,0.0002961748978123069,-0.0,0.0,0.0,0.0,0.0,0.0,0.0,0.0,0.0,0.0,0.0,0.0,0.0,0.0,0.0,0.0,0.0,0.0,0.0,0.0,0.0,0.0,0.0,1.63521146774292,0.04213182120400233,-0.15362673844097516,0.08073439504646426,-0.0011670079547911882,-0.003286514664068818,-0.0,0.0,0.0,0.0
501,5,-0.0033007338643074036,0.0012180780759081244,0.003499598940834403,0.006504558026790619,0.0053991107270121574,0.02128111757338047,-0.01514391042292118,0.0015463238814845681,-0.0009453212842345238,-0.023409361019730568,0.8127846717834473,-0.028098100796341896,0.0,0.0,0.0,-0.004715044051408768,0.0027774523478001356,-0.0,0.0,0.0,0.0,0.0,0.0,0.0,0.0,0.0,0.0,0.0,0.0,0.0,0.0,0.0,0.0,0.0,0.0,0.0,0.0,0.0,0.0,0.0,1.6755870580673218,0.041920909586368765,-0.14644680540232374,0.08041073440251317,-0.011213988997042179,-0.014643955044448376,-0.0,0.0,0.0,0.0
506,5,-0.003289669519290328,0.0011721911141648889,0.003387376433238387,0.003929540514945984,0.007666075136512518,0.02197914384305477,-0.01514391042292118,0.0015463238814845681,-0.0009453212842345238,-0.023409361019730568,0.8127846717834473,-0.028098100796341896,0.0,0.0,0.0,-0.004715044051408768,0.0027774523478001356,-0.0,0.0,0.0,0.0,0.0,0.0,0.0,0.0,0.0,0.0,0.0,0.0,0.0,0.0,0.0,0.0,0.0,0.0,0.0,0.0,0.0,0.0,0.0,1.6755870580673218,0.04271730580413687,-0.1428916651092964,0.08035317836949436,-0.011213988997042179,-0.014643955044448376,-0.0,0.0,0.0,0.0
511,5,-0.003284927923232317,0.001130492426455021,0.0032856189645826817,0.0021408081520348787,0.008070277981460094,0.021002553403377533,-0.015220662578940392,-0.004205460660159588,-0.0010061440989375114,0.001116272178478539,0.7067641615867615,0.009972196072340012,0.0,0.0,0.0,-0.0071136984042823315,-0.0008776523754931986,-0.0,0.0,0.0,0.0,0.0,0.0,0.0,0.0,0.0,0.0,0.0,0.0,0.0,0.0,0.0,0.0,0.0,0.0,0.0,0.0,0.0,0.0,0.0,1.6865357160568237,0.04293794907926201,-0.1406052388578208,0.07994478493658753,0.0035666371695697308,-0.022237854078412056,-0.0,0.0,0.0,0.0
516,5,-0.0032990234903991222,0.0010906708193942904,0.0032083236146718264,-0.0008351508877240121,0.008006705902516842,0.017676472663879395,-0.015220662578940392,-0.004205460660159588,-0.0010061440989375114,0.001116272178478539,0.7067641615867615,0.009972196072340012,0.0,0.0,0.0,-0.0071136984042823315,-0.0008776523754931986,-0.0,0.0,0.0,0.0,0.0,0.0,0.0,0.0,0.0,0.0,0.0,0.0,0.0,0.0,0.0,0.0,0.0,0.0,0.0,0.0,0.0,0.0,0.0,1.6865357160568237,0.04197647807767913,-0.13921602823028223,0.07997803488491662,0.0035666371695697308,-0.022237854078412056,-0.0,0.0,0.0,0.0
521,5,-0.0033635790459811687,0.0010536375921219587,0.0032175390515476465,-0.008080720901489258,0.007646665908396244,0.005964739713817835,-0.01527142059057951,-0.01126070600003004,-0.0012747251894325018,-0.017558608204126358,0.48534753918647766,-0.034597791731357574,0.0,0.0,0.0,-0.0071136984042823315,-0.0008776523754931986,-0.0,0.0,0.0,0.0,0.0,0.0,0.0,0.0,0.0,0.0,0.0,0.0,0.0,0.0,0.0,0.0,0.0,0.0,0.0,0.0,0.0,0.0,0.0,1.6865357160568237,0.0414231336389632,-0.13910712427787852,0.07969327110267325,0.04902339354157448,-0.022813426330685616,-0.0,0.0,0.0,0.0
526,5,-0.0034349141642451286,0.0010078190825879574,0.003263665596023202,-0.011792502366006374,0.00855688564479351,-0.003149278461933136,-0.01527142059057951,-0.01126070600003004,-0.0012747251894325018,-0.017558608204126358,0.48534753918647766,-0.034597791731357574,0.0,0.0,0.0,-0.006952876225113869,-0.011493378318846226,-0.0,0.0,0.0,0.0,0.0,0.0,0.0,0.0,0.0,0.0,0.0,0.0,0.0,0.0,0.0,0.0,0.0,0.0,0.0,0.0,0.0,0.0,0.0,1.770206093788147,0.04160848086036319,-0.13985444324824345,0.07919716989730279,0.04902339354157448,-0.022813426330685616,-0.0,0.0,0.0,0.0
531,5,-0.003504351247102022,0.0009750170283950865,0.003306654980406165,-0.013049461878836155,0.0073590027168393135,-0.006418456323444843,-0.015580124221742153,-0.013507247902452946,-0.0014019440859556198,-0.05423936992883682,0.14724040031433105,-0.004320282954722643,0.0,0.0,0.0,-0.006952876225113869,-0.011493378318846226,-0.0,0.0,0.0,0.0,0.0,0.0,0.0,0.0,0.0,0.0,0.0,0.0,0.0,0.0,0.0,0.0,0.0,0.0,0.0,0.0,0.0,0.0,0.0,1.770206093788147,0.041022117507299394,-0.14107498106610294,0.07951363278604097,0.04902339354157448,-0.022813426330685616,-0.0,0.0,0.0,0.0
536,5,-0.0036014635115861893,0.0009800357511267066,0.003412105841562152,-0.016873253509402275,0.002341354265809059,-0.015221482142806053,-0.015580124221742153,-0.013507247902452946,-0.0014019440859556198,-0.05423936992883682,0.14724040031433105,-0.004320282954722643,0.0,0.0,0.0,-0.006581486202776432,-0.015634607523679733,-0.0,0.0,0.0,0.0,0.0,0.0,0.0,0.0,0.0,0.0,0.0,0.0,0.0,0.0,0.0,0.0,0.0,0.0,0.0,0.0,0.0,0.0,0.0,1.8168338537216187,0.039928332147016604,-0.14344882577676768,0.07921489518243927,0.0684426799416542,-0.022163689136505127,0.0,0.0,0.0,0.0
542,5,-0.003713366109877825,0.0009299060329794884,0.0035071626771241426,-0.020177602767944336,0.006952110677957535,-0.0174954142421484,-0.016226721927523613,-0.012925880029797554,-0.0017338301986455917,-0.0615050308406353,-0.21637128293514252,-0.04547373950481415,0.0,0.0,0.0,-0.006581486202776432,-0.015634607523679733,-0.0,0.0,0.0,0.0,0.0,0.0,0.0,0.0,0.0,0.0,0.0,0.0,0.0,0.0,0.0,0.0,0.0,0.0,0.0,0.0,0.0,0.0,0.0,1.8168338537216187,0.03945225204754285,-0.14614329226905554,0.07909548109688222,0.0684426799416542,-0.022163689136505127,0.0,0.0,0.0,0.0
547,5,-0.0038286084309220314,0.000893786025699228,0.0035693214740604162,-0.021900134161114693,0.007115242537111044,-0.0144572164863348,-0.016226721927523613,-0.012925880029797554,-0.0017338301986455917,-0.0615050308406353,-0.21637128293514252,-0.04547373950481415,0.0,0.0,0.0,-0.005975908599793911,-0.02120787836611271,-0.0,0.0,0.0,0.0,0.0,0.0,0.0,0.0,0.0,0.0,0.0,0.0,0.0,0.0,0.0,0.0,0.0,0.0,0.0,0.0,0.0,0.0,0.0,1.885292887687683,0.03905378371632929,-0.1499773487166325,0.07932883517965691,0.09633579105138779,-0.020882699638605118,0.0,0.0,0.0,0.0
552,5,-0.003959020134061575,0.0008759201155044138,0.0036650917027145624,-0.024409456178545952,0.004990006797015667,-0.017275312915444374,-0.01662030629813671,-0.010016587562859058,-0.001858578179962933,-0.06904860585927963,-0.47775208950042725,-0.01673363707959652,0.0,0.0,0.0,-0.005975908599793911,-0.02120787836611271,-0.0,0.0,0.0,0.0,0.0,0.0,0.0,0.0,0.0,0.0,0.0,0.0,0.0,0.0,0.0,0.0,0.0,0.0,0.0,0.0,0.0,0.0,0.0,1.885292887687683,0.03846922276728512,-0.1530924721092331,0.07907019732415749,0.09633579105138779,-0.020882699638605118,0.0,0.0,0.0,0.0
557,5,-0.0040834988467395306,0.0008346926770173013,0.003714555874466896,-0.024701237678527832,0.006943294778466225,-0.012845838442444801,-0.01662030629813671,-0.010016587562859058,-0.001858578179962933,-0.06904860585927963,-0.47775208950042725,-0.01673363707959652,0.0,0.0,0.0,-0.003872017841786146,-0.024481434375047684,-0.0,0.0,0.0,0.0,0.0,0.0,0.0,0.0,0.0,0.0,0.0,0.0,0.0,0.0,0.0,0.0,0.0,0.0,0.0,0.0,0.0,0.0,0.0,1.9254056215286255,0.03791411569287018,-0.15567068244209434,0.07881901355555773,0.1135701909661293,-0.013818667270243168,0.0,0.0,0.0,0.0
562,5,-0.004199426155537367,0.0008077342645265162,0.0037698494270443916,-0.023791780695319176,0.0060123237781226635,-0.011773544363677502,-0.01765243522822857,-0.0034006107598543167,-0.0020944641437381506,-0.08999412506818771,-0.5849809050559998,-0.02696234919130802,0.0,0.0,0.0,-0.003872017841786146,-0.024481434375047684,-0.0,0.0,0.0,0.0,0.0,0.0,0.0,0.0,0.0,0.0,0.0,0.0,0.0,0.0,0.0,0.0,0.0,0.0,0.0,0.0,0.0,0.0,0.0,1.9254056215286255,0.039294010062019644,-0.15811083577633028,0.07874446974066202,0.1135701909661293,-0.013818667270243168,0.0,0.0,0.0,0.0
567,5,-0.004325092304497957,0.0007990080630406737,0.0038150749169290066,-0.024596642702817917,0.003452075645327568,-0.010136482305824757,-0.01765243522822857,-0.0034006107598543167,-0.0020944641437381506,-0.08999412506818771,-0.5849809050559998,-0.02696234919130802,0.0,0.0,0.0,-0.005053055007010698,-0.02428254298865795,-0.0,0.0,0.0,0.0,0.0,0.0,0.0,0.0,0.0,0.0,0.0,0.0,0.0,0.0,0.0,0.0,0.0,0.0,0.0,0.0,0.0,0.0,0.0,1.9244437217712402,0.038428349549582984,-0.15986879311236324,0.07861228044361492,0.11259084194898605,-0.01802455075085163,0.0,0.0,0.0,0.0
572,5,-0.0044265734031796455,0.000786585093010217,0.0038173296488821507,-0.02201634645462036,0.002871589967980981,-0.004325157962739468,-0.01765243522822857,-0.0034006107598543167,-0.0020944641437381506,-0.08999412506818771,-0.5849809050559998,-0.02696234919130802,0.0,0.0,0.0,-0.005053055007010698,-0.02428254298865795,-0.0,0.0,0.0,0.0,0.0,0.0,0.0,0.0,0.0,0.0,0.0,0.0,0.0,0.0,0.0,0.0,0.0,0.0,0.0,0.0,0.0,0.0,0.0,1.9244437217712402,0.03863104574694254,-0.16174352179640428,0.07868743999178548,0.11259084194898605,-0.01802455075085163,0.0,0.0,0.0,0.0
577,5,-0.0045036873780190945,0.0007709250785410404,0.0038254689425230026,-0.0180602315813303,0.0030278339982032776,-0.00270678848028183,-0.01829143799841404,0.0014071186305955052,-0.002175569999963045,-0.06977303326129913,-0.5297903418540955,-0.02932698093354702,0.0,0.0,0.0,-0.0017987551400437951,-0.02332232892513275,-0.0,0.0,0.0,0.0,0.0,0.0,0.0,0.0,0.0,0.0,0.0,0.0,0.0,0.0,0.0,0.0,0.0,0.0,0.0,0.0,0.0,0.0,0.0,1.90766441822052,0.03778229080449697,-0.16261577952316306,0.07849217682142427,0.10719776898622513,-0.006360366940498352,0.0,0.0,0.0,0.0
