timestamp,dt,pos_x,pos_y,pos_z,vel_x,vel_y,vel_z,roll,pitch,yaw,agv_x,agv_y,agv_z,x_ref,y_ref,z_ref,roll_ref,pitch_ref,yaw_ref,x_vel_ref,y_vel_ref,z_vel_ref,x_torque,y_torque,z_torque,w0,w1,w2,w3,u0,u1,u2,u3,m0req,m1req,m2req,m3req,thrust0,thrust1,thrust2,thrust3,thrust_ref,roll_vicon,pitch_vicon,yaw_vicon,acc_x,acc_y,acc_z,roll_received,pitch_received,yaw_received
5,5,0.0,0.0,0.0,-0.0002818938228301704,-0.0007629570318385959,0.0016731754876673222,-0.005344117060303688,-0.04747142642736435,-0.033627767115831375,0.003095668740570545,0.0028059205505996943,-0.0006453159730881453,0.0,0.0,0.0,0.0007338895811699331,-0.00020858012430835515,-0.0,0.0,0.0,0.0,0.0012079151347279549,0.014179597608745098,-0.0034819492138922215,1495.0,1495.0,1495.0,1495.0,0.0,0.0,0.0,0.0,0.0,0.0,0.0,0.0,1495.0,1495.0,1495.0,1495.0,2.1032559871673584,0.04070953697227681,-0.10113690110424066,-0.01952215062117856,0.0010571018792688847,0.002861088840290904,0.0,0.0,0.0,0.0
48,43,0.0,0.0,0.0,-0.000606242916546762,0.000383304082788527,-0.0014503459678962827,-0.005344117060303688,-0.04747142642736435,-0.033627767115831375,0.003095668740570545,0.0028059205505996943,-0.0006453159730881453,0.0,0.0,0.0,0.0007338895811699331,-0.00020858012430835515,-0.0,0.0,0.0,0.0,0.0012079151347279549,0.014179597608745098,-0.0034819492138922215,1495.0,1495.0,1495.0,1495.0,0.0,0.0,0.0,0.0,0.0,0.0,0.0,0.0,1495.0,1495.0,1495.0,1495.0,2.1032559871673584,0.03897357625559508,-0.10173792027005535,-0.01990680558754429,0.0010571018792688847,0.002861088840290904,0.0,0.0,0.0,0.0
53,5,0.0,0.0,0.0,-0.0012370503973215818,0.0015302107203751802,0.0007616180810146034,-0.005331455729901791,-0.04745953157544136,-0.03365355357527733,4.323772736825049e-05,-0.0029289524536579847,-0.00428616302087903,0.0,0.0,0.0,0.0007338895811699331,-0.00020858012430835515,-0.0,0.0,0.0,0.0,0.0012182504869997501,0.014183657243847847,-0.003479809034615755,1495.0,1495.0,1495.0,1495.0,0.0,0.0,0.0,0.0,0.0,0.0,0.0,0.0,1495.0,1495.0,1495.0,1495.0,2.1032559871673584,0.03848917225085195,-0.10232544007795641,-0.019632553856093613,0.004638939164578915,-0.005738290026783943,0.0,0.0,0.0,0.0
58,5,0.0,0.0,0.0,-0.001127800322137773,-0.0002691666013561189,0.000794963794760406,-0.005331455729901791,-0.04745953157544136,-0.03365355357527733,4.323772736825049e-05,-0.0029289524536579847,-0.00428616302087903,0.0,0.0,0.0,-0.0014715725556015968,-0.0009151130798272789,-0.0,0.0,0.0,0.0,0.0012182504869997501,0.014183657243847847,-0.003479809034615755,1495.0,1495.0,1495.0,1495.0,0.0,0.0,0.0,0.0,0.0,0.0,0.0,0.0,1495.0,1495.0,1495.0,1495.0,2.1037423610687256,0.0384614309010298,-0.10251826188734502,-0.019835749534073632,0.004638939164578915,-0.005738290026783943,0.0,0.0,0.0,0.0
66,8,0.0,0.0,0.0,-0.0002574412210378796,2.6452446036273614e-05,0.00012889347271993756,-0.005331455729901791,-0.04745953157544136,-0.03365355357527733,4.323772736825049e-05,-0.0029289524536579847,-0.00428616302087903,0.0,0.0,0.0,0.00025885217473842204,-0.0008342949440702796,-0.0,0.0,0.0,0.0,0.0012182504869997501,0.014183657243847847,-0.003479809034615755,1495.0,1495.0,1495.0,1495.0,0.0,0.0,0.0,0.0,0.0,0.0,0.0,0.0,1495.0,1495.0,1495.0,1495.0,2.1037399768829346,0.037915142840295686,-0.10248147826079086,-0.019745559302793557,0.00422925129532814,0.0010093747405335307,0.0,0.0,0.0,0.0
71,5,0.0,0.0,0.0,0.0005155719118192792,-0.0047592646442353725,0.001101324800401926,-0.005357726011425257,-0.04737652465701103,-0.03373245894908905,-0.0037318686954677105,0.004375835414975882,-0.005250184331089258,0.0,0.0,0.0,0.00025885217473842204,-0.0008342949440702796,-0.0,0.0,0.0,0.0,0.0012036212719976902,0.014209057204425335,-0.0034927281085401773,14854.0,15486.0,13064.0,17267.0,0.4977244436740875,0.543444812297821,0.3790654242038727,0.6830212473869324,0.0,0.0,0.0,0.0,14869.0,15473.0,13076.0,17257.0,2.1037399768829346,0.04036123923412,-0.10099645049010997,-0.019578175145103276,0.00422925129532814,0.0010093747405335307,0.0,0.0,0.0,0.0
76,5,8.563684787077364e-06,-9.490958291280549e-06,6.5332451413269155e-06,0.0012338709784671664,-0.0007647908059880137,-0.0003434595128055662,-0.005357726011425257,-0.04737652465701103,-0.03373245894908905,-0.0037318686954677105,0.004375835414975882,-0.005250184331089258,0.0,0.0,0.0,0.004573655314743519,0.00038112839683890343,-0.0,0.0,0.0,0.0,0.0012036212719976902,0.014209057204425335,-0.0034927281085401773,14854.0,15486.0,13064.0,17267.0,0.4977244436740875,0.543444812297821,0.3790654242038727,0.6830212473869324,0.0,0.0,0.0,0.0,14869.0,15473.0,13076.0,17257.0,2.105241060256958,0.04036848389518982,-0.10107936772365782,-0.019426070029466013,-0.0019333946984261274,0.017847241833806038,0.0,0.0,0.0,0.0
81,5,1.5833616998861544e-05,-1.226443509949604e-05,3.229465437470935e-05,0.0013659403193742037,2.6900912416749634e-05,-0.003228752873837948,-0.005336680915206671,-0.0474129356443882,-0.033789634704589844,0.000566089351195842,8.929449541028589e-05,0.002441622782498598,0.0,0.0,0.0,-4.3126263335580006e-05,0.0010263797594234347,-0.0,0.0,0.0,0.0,0.0019927145913243294,0.014435771852731705,-0.003478267230093479,14864.0,15400.0,13146.0,17297.0,0.49838802218437195,0.5371139049530029,0.38416725397109985,0.6855717897415161,0.0,0.0,0.0,0.0,14862.0,15489.0,13095.0,17241.0,2.1063432693481445,0.041097108145278345,-0.10068371166958638,-0.01949801354016043,-0.00520941661670804,-0.00016837574366945773,0.0,0.0,0.0,0.0
88,8,1.6866344594745897e-05,-2.338598460482899e-05,3.507626024656929e-05,-0.00023389255511574447,0.0005700000911019742,-0.0014789823908358812,-0.005336680915206671,-0.0474129356443882,-0.033789634704589844,0.000566089351195842,8.929449541028589e-05,0.002441622782498598,0.0,0.0,0.0,-4.3126263335580006e-05,0.0010263797594234347,-0.0,0.0,0.0,0.0,0.0019927145913243294,0.014435771852731705,-0.003478267230093479,14864.0,15400.0,13146.0,17297.0,0.49838802218437195,0.5371139049530029,0.38416725397109985,0.6855717897415161,0.0,0.0,0.0,0.0,14862.0,15489.0,13095.0,17241.0,2.1063432693481445,0.04030140413126397,-0.10080628429903493,-0.019266359517649947,-0.00520941661670804,-0.00016837574366945773,0.0,0.0,0.0,0.0
93,5,1.6770418369560502e-05,-2.5672692572697997e-05,1.7652379028731957e-05,-0.00010506808030186221,0.0005024050478823483,0.0014992729993537068,-0.005350250750780106,-0.047415439039468765,-0.033826712518930435,0.0006241030641831458,0.0011162833543494344,-0.002663134131580591,0.0,0.0,0.0,-0.0005187683855183423,-5.9434511058498174e-05,-0.0,0.0,0.0,0.0,0.0010588294826447964,0.01454476173967123,-0.0034248807933181524,14927.0,15456.0,13072.0,17263.0,0.502848207950592,0.5411717295646667,0.37959611415863037,0.6827272772789001,0.0,0.0,0.0,0.0,14866.0,15398.0,13153.0,17293.0,2.1062912940979004,0.040464702981375014,-0.10113699820596009,-0.01913171448292004,0.0003016538976226002,-0.0020253516267985106,-0.0,0.0,0.0,0.0
100,7,1.7443893739255145e-05,-6.685538210149389e-06,1.3721225968765793e-06,3.8789665268268436e-05,-0.002077496377751231,0.0025533398147672415,-0.005350250750780106,-0.047415439039468765,-0.033826712518930435,0.0006241030641831458,0.0011162833543494344,-0.002663134131580591,0.0,0.0,0.0,-0.0005187683855183423,-5.9434511058498174e-05,-0.0,0.0,0.0,0.0,0.0010588294826447964,0.01454476173967123,-0.0034248807933181524,14927.0,15456.0,13072.0,17263.0,0.502848207950592,0.5411717295646667,0.37959611415863037,0.6827272772789001,0.0,0.0,0.0,0.0,14866.0,15398.0,13153.0,17293.0,2.1062912940979004,0.04061405247687946,-0.10122870610134867,-0.01932274542748149,0.0003016538976226002,-0.0020253516267985106,-0.0,0.0,0.0,0.0
105,5,1.0578475666989107e-05,-1.3830746866005939e-05,-4.1075800254475325e-06,-0.0008083342690952122,2.6426463591633365e-05,0.0016789002111181617,-0.005350250750780106,-0.047415439039468765,-0.033826712518930435,0.0006241030641831458,0.0011162833543494344,-0.002663134131580591,0.0,0.0,0.0,-0.0005187683855183423,-5.9434511058498174e-05,-0.0,0.0,0.0,0.0,0.0010588294826447964,0.01454476173967123,-0.0034248807933181524,14927.0,15456.0,13072.0,17263.0,0.502848207950592,0.5411717295646667,0.37959611415863037,0.6827272772789001,0.0,0.0,0.0,0.0,14866.0,15398.0,13153.0,17293.0,2.1062912940979004,0.04078641925823284,-0.10140620401860768,-0.01937502656402023,0.0003016538976226002,-0.0020253516267985106,-0.0,0.0,0.0,0.0
111,5,-4.651757080864627e-06,-7.191218173829839e-06,7.251803708641091e-06,-0.0021509616635739803,-0.0007861728663556278,-0.0006915659760124981,-0.005342897959053516,-0.0474231131374836,-0.033849358558654785,-0.0001598151575308293,0.006159031763672829,-0.004576796665787697,0.0,0.0,0.0,-4.489876300795004e-05,-0.0005855577765032649,-0.0,0.0,0.0,0.0,0.0009662866941653192,0.01426625344902277,-0.0034628852736204863,14896.0,15495.0,13064.0,17259.0,0.5006939172744751,0.5441107749938965,0.3791011571884155,0.6823854446411133,0.0,0.0,0.0,0.0,14933.0,15449.0,13075.0,17261.0,2.1069862842559814,0.040216110593922515,-0.10140185546821866,-0.019441145074871193,0.0029729206580668688,-0.00017534953076392412,0.0,0.0,0.0,0.0
116,5,-3.6149768334325927e-07,-1.0037604624812957e-05,-2.3294729544431902e-05,-0.0003455535043030977,2.7097203201265074e-05,0.0033889575861394405,-0.005342897959053516,-0.0474231131374836,-0.033849358558654785,-0.0001598151575308293,0.006159031763672829,-0.004576796665787697,0.0,0.0,0.0,-4.489876300795004e-05,-0.0005855577765032649,-0.0,0.0,0.0,0.0,0.0009662866941653192,0.01426625344902277,-0.0034628852736204863,14896.0,15495.0,13064.0,17259.0,0.5006939172744751,0.5441107749938965,0.3791011571884155,0.6823854446411133,0.0,0.0,0.0,0.0,14933.0,15449.0,13075.0,17261.0,2.1069862842559814,0.03996957702363613,-0.10141037672652668,-0.019552066708287068,0.0012976640136912465,-0.00015703766257502139,0.0,0.0,0.0,0.0
121,5,-2.632099494803697e-06,-2.3063033950165845e-05,1.6145589825100615e-06,-0.00041069361031986773,0.0015738903312012553,-0.0016335315303876996,-0.005332021974027157,-0.04739374667406082,-0.03382600471377373,0.0011288432870060205,-0.005082141607999802,-0.0008926690206862986,0.0,0.0,0.0,-4.020186315756291e-05,-0.0002555414102971554,-0.0,0.0,0.0,0.0,0.0009542561019770801,0.014212082140147686,-0.003370952792465687,14927.0,15467.0,13111.0,17223.0,0.5028881430625916,0.5420098900794983,0.38195833563804626,0.6794349551200867,0.0,0.0,0.0,0.0,14929.0,15462.0,13103.0,17231.0,2.107410192489624,0.039870802932740576,-0.10140998853721782,-0.019517900608258483,0.0012976640136912465,-0.00015703766257502139,0.0,0.0,0.0,0.0
126,5,2.6281534246663796e-06,-1.228434393851785e-05,1.2180203157186043e-05,0.0004669529153034091,-0.0006638866034336388,-0.0019212899496778846,-0.005332021974027157,-0.04739374667406082,-0.03382600471377373,0.0011288432870060205,-0.005082141607999802,-0.0008926690206862986,0.0,0.0,0.0,0.000620100530795753,0.00034777872497215867,-0.0,0.0,0.0,0.0,0.0009542561019770801,0.014212082140147686,-0.003370952792465687,14927.0,15467.0,13111.0,17223.0,0.5028881430625916,0.5420098900794983,0.38195833563804626,0.6794349551200867,0.0,0.0,0.0,0.0,14929.0,15462.0,13103.0,17231.0,2.106973171234131,0.04106714001961317,-0.10074813077769268,-0.01927273835586882,-0.0017656873678788543,0.002421751618385315,0.0,0.0,0.0,0.0
131,5,7.796267709636595e-06,-1.1867576176882721e-05,3.498805017443374e-05,0.000806954805739224,-0.00031556672183796763,-0.003505457891151309,-0.005332021974027157,-0.04739374667406082,-0.03382600471377373,0.0011288432870060205,-0.005082141607999802,-0.0008926690206862986,0.0,0.0,0.0,0.000620100530795753,0.00034777872497215867,-0.0,0.0,0.0,0.0,0.0009542561019770801,0.014212082140147686,-0.003370952792465687,14927.0,15467.0,13111.0,17223.0,0.5028881430625916,0.5420098900794983,0.38195833563804626,0.6794349551200867,0.0,0.0,0.0,0.0,14929.0,15462.0,13103.0,17231.0,2.106973171234131,0.040783529903229976,-0.10092783204295483,-0.01947855376856911,-0.0017656873678788543,0.002421751618385315,0.0,0.0,0.0,0.0
136,5,2.5025170543813147e-05,-1.0513211236684583e-05,2.8511800337582827e-05,0.0023902500979602337,-0.00028875048155896366,-0.0006250328733585775,-0.0053344848565757275,-0.047362178564071655,-0.0338471382856369,0.0013821381144225597,0.0012224981328472495,-0.0010172704933211207,0.0,0.0,0.0,0.000620100530795753,0.00034777872497215867,-0.0,0.0,0.0,0.0,0.0010517301270738244,0.014101146720349789,-0.003368877340108156,14918.0,15469.0,13128.0,17224.0,0.5022130012512207,0.5422011613845825,0.38306334614753723,0.6795088052749634,0.0,0.0,0.0,0.0,14857.0,15523.0,13069.0,17273.0,2.106973171234131,0.04078641115561111,-0.10084038449270784,-0.019448270873312978,-0.0017656873678788543,0.002421751618385315,0.0,0.0,0.0,0.0
141,5,2.8173939426778816e-05,-1.1433282452344429e-05,1.8470998838893138e-05,0.0013339524157345295,-5.091633283882402e-06,0.0009548829402774572,-0.005352448672056198,-0.04734847694635391,-0.033869318664073944,-0.00022478967730421573,0.00012876573600806296,-0.0043038963340222836,0.0,0.0,0.0,0.0002623282780405134,0.0017923038685694337,-0.0,0.0,0.0,0.0,0.0010806710924953222,0.014208351261913776,-0.003502852516248822,14881.0,15505.0,13074.0,17270.0,0.4995994567871094,0.5448066592216492,0.3797186613082886,0.6832853555679321,0.0,0.0,0.0,0.0,14880.0,15505.0,13073.0,17271.0,2.1073720455169678,0.040201943694543975,-0.10093859664738025,-0.019343649189721836,-0.0091013228520751,0.0010246955789625645,0.0,0.0,0.0,0.0
147,6,3.223821840947494e-05,-1.261628494830802e-05,1.7430627849535085e-05,0.0010212943889200687,0.0001399236498400569,0.000506797747220844,-0.005352448672056198,-0.04734847694635391,-0.033869318664073944,-0.00022478967730421573,0.00012876573600806296,-0.0043038963340222836,0.0,0.0,0.0,0.0002623282780405134,0.0017923038685694337,-0.0,0.0,0.0,0.0,0.0010806710924953222,0.014208351261913776,-0.003502852516248822,14881.0,15505.0,13074.0,17270.0,0.4995994567871094,0.5448066592216492,0.3797186613082886,0.6832853555679321,0.0,0.0,0.0,0.0,14880.0,15505.0,13073.0,17271.0,2.1073720455169678,0.040134048379027155,-0.10076348175893075,-0.019415034763294793,-0.0091013228520751,0.0010246955789625645,0.0,0.0,0.0,0.0
152,5,1.758928192430176e-05,2.46250397140102e-06,1.3005246728425846e-05,-0.0013493545120581985,-0.001753485295921564,0.0007337648421525955,-0.005352448672056198,-0.04734847694635391,-0.033869318664073944,-0.00022478967730421573,0.00012876573600806296,-0.0043038963340222836,0.0,0.0,0.0,-0.000152151333168149,0.0007890381384640932,-0.0,0.0,0.0,0.0,0.0010806710924953222,0.014208351261913776,-0.003502852516248822,14881.0,15505.0,13074.0,17270.0,0.4995994567871094,0.5448066592216492,0.3797186613082886,0.6832853555679321,0.0,0.0,0.0,0.0,14880.0,15505.0,13073.0,17271.0,2.1077847480773926,0.04059755666299026,-0.101179559034022,-0.01934410026999273,-0.004007523879408836,-0.0005944435251876712,-0.0,0.0,0.0,0.0
158,5,1.2948492440045811e-05,-8.394864380534273e-06,-6.233668500499334e-06,-0.0010966365225613117,0.0006014900282025337,0.002602175809442997,-0.005342752207070589,-0.047342874109745026,-0.03389532119035721,0.0008190456428565085,0.00510762445628643,-0.0014068869641050696,0.0,0.0,0.0,-0.000152151333168149,0.0007890381384640932,-0.0,0.0,0.0,0.0,0.0011957311071455479,0.014414690434932709,-0.0034068813547492027,14917.0,15454.0,13100.0,17260.0,0.5021454691886902,0.5410310626029968,0.381294310092926,0.6825023293495178,0.0,0.0,0.0,0.0,14902.0,15477.0,13010.0,17324.0,2.1077847480773926,0.040554275649643784,-0.10133463182464318,-0.0195268959608259,-0.004007523879408836,-0.0005944435251876712,-0.0,0.0,0.0,0.0
163,5,5.495544428413268e-06,-1.0961992302327417e-05,-1.4821195691183675e-05,-0.0013330084038898349,0.0005486514419317245,0.0020713736303150654,-0.005339316092431545,-0.04733746871352196,-0.03392539918422699,0.0014433040050789714,0.002080423291772604,-0.0006930609233677387,0.0,0.0,0.0,-0.00058910739608109,-0.0007953992462716997,-0.0,0.0,0.0,0.0,0.0011223681503906846,0.014861110597848892,-0.0035050292499363422,14935.0,15447.0,13047.0,17295.0,0.5034674406051636,0.54054856300354,0.37800565361976624,0.6853504180908203,0.0,0.0,0.0,0.0,14908.0,15483.0,13061.0,17281.0,2.1082723140716553,0.04075958986918672,-0.10091239411885232,-0.01930664420911683,0.004040765576064587,-0.002302129054442048,0.0,0.0,0.0,0.0
168,5,3.0080036594881676e-07,-1.8145412468584254e-05,-1.2106596841476858e-05,-1.472485382691957e-05,0.00016168763977475464,0.00010898451000684872,-0.005339316092431545,-0.04733746871352196,-0.03392539918422699,0.0014433040050789714,0.002080423291772604,-0.0006930609233677387,0.0,0.0,0.0,-0.00058910739608109,-0.0007953992462716997,-0.0,0.0,0.0,0.0,0.0011223681503906846,0.014861110597848892,-0.0035050292499363422,14935.0,15447.0,13047.0,17295.0,0.5034674406051636,0.54054856300354,0.37800565361976624,0.6853504180908203,0.0,0.0,0.0,0.0,14908.0,15483.0,13061.0,17281.0,2.1082723140716553,0.04059024180924201,-0.10089308804463273,-0.018830443313072917,0.004040765576064587,-0.002302129054442048,0.0,0.0,0.0,0.0
173,5,6.481551736214897e-06,6.978746114327805e-07,7.69251801102655e-06,0.0007358001894317567,-0.0021965194027870893,-0.0023322999477386475,-0.005407755263149738,-0.04725269228219986,-0.0340706966817379,-0.00918550230562687,-0.00946233794093132,-0.03028854727745056,0.0,0.0,0.0,-0.00018075857951771468,-1.0461010788276326e-05,-0.0,0.0,0.0,0.0,0.0010964794782921672,0.014458337798714638,-0.003915135748684406,14686.0,15688.0,12819.0,17462.0,0.4859023094177246,0.558478593826294,0.36408746242523193,0.6993163824081421,0.0,0.0,0.0,0.0,15051.0,15336.0,13246.0,17148.0,2.108834743499756,0.0408008919637418,-0.10084115086553641,-0.019058115637487653,5.315793168847449e-05,-0.0007065615500323474,0.0,0.0,0.0,0.0
178,5,7.3099163273582235e-06,-2.586908703960944e-05,1.7879612641991116e-05,0.00039372386527247727,0.0023094278294593096,-0.002155371243134141,-0.005407755263149738,-0.04725269228219986,-0.0340706966817379,-0.00918550230562687,-0.00946233794093132,-0.03028854727745056,0.0,0.0,0.0,-0.00018075857951771468,-1.0461010788276326e-05,-0.0,0.0,0.0,0.0,0.0010964794782921672,0.014458337798714638,-0.003915135748684406,14686.0,15688.0,12819.0,17462.0,0.4859023094177246,0.558478593826294,0.36408746242523193,0.6993163824081421,0.0,0.0,0.0,0.0,15051.0,15336.0,13246.0,17148.0,2.108834743499756,0.04075779333119071,-0.10121625970958126,-0.019788070508477234,5.315793168847449e-05,-0.0007065615500323474,0.0,0.0,0.0,0.0
183,5,7.3099163273582235e-06,-2.586908703960944e-05,1.7879612641991116e-05,0.00039372386527247727,0.0023094278294593096,-0.002155371243134141,-0.005405238829553127,-0.04717022925615311,-0.03351689502596855,0.005946113262325525,0.0033058300614356995,0.0004762844182550907,0.0,0.0,0.0,-0.0022491952404379845,0.00029816734604537487,-0.0,0.0,0.0,0.0,0.0009922231547534466,0.013951756060123444,-0.0011607687920331955,15376.0,15033.0,13653.0,16816.0,0.5353501439094543,0.5104181170463562,0.41635337471961975,0.6461506485939026,0.0,0.0,0.0,0.0,13355.0,16853.0,11272.0,18459.0,2.111560106277466,0.04075779333119071,-0.10121625970958126,-0.019788070508477234,-0.0015171004924923182,-0.008803158067166805,0.0,0.0,0.0,0.0
190,7,2.8290947739151306e-05,1.6225769286393188e-05,7.4092799877689686e-06,0.002108729677274823,-0.0031856836285442114,-0.0002003196277655661,-0.005405238829553127,-0.04717022925615311,-0.03351689502596855,0.005946113262325525,0.0033058300614356995,0.0004762844182550907,0.0,0.0,0.0,-0.0022491952404379845,0.00029816734604537487,-0.0,0.0,0.0,0.0,0.0009922231547534466,0.013951756060123444,-0.0011607687920331955,15376.0,15033.0,13653.0,16816.0,0.5353501439094543,0.5104181170463562,0.41635337471961975,0.6461506485939026,0.0,0.0,0.0,0.0,13355.0,16853.0,11272.0,18459.0,2.111560106277466,0.041339705486817716,-0.10058836023313159,-0.018492867933011622,-0.0015171004924923182,-0.008803158067166805,0.0,0.0,0.0,0.0
195,5,2.0614983441191725e-05,-8.59591807511606e-07,2.347165354876779e-05,-7.762380846543238e-05,0.0007759699947200716,-0.0020076127257198095,-0.005348460748791695,-0.047264233231544495,-0.034181028604507446,-0.0060005527921020985,-0.00961876567453146,0.11043502390384674,0.0,0.0,0.0,0.0030901336576789618,0.0015926816267892718,-0.0,0.0,0.0,0.0,0.0006083855405449867,0.014522502198815346,-0.0025602420791983604,15186.0,15219.0,13411.0,17019.0,0.5214570164680481,0.5238648056983948,0.40084517002105713,0.6626676917076111,0.0,0.0,0.0,0.0,17096.0,13006.0,15570.0,15092.0,2.101186990737915,0.041138939093887876,-0.10091042301420243,-0.019205422303806743,-0.008063866756856441,0.012035088613629341,0.0,0.0,0.0,0.0
200,5,1.0424045285617467e-05,-1.826294101192616e-05,-2.6550981147011044e-06,-0.0012539621675387025,0.0023987898603081703,0.002332165138795972,-0.005348460748791695,-0.047264233231544495,-0.034181028604507446,-0.0060005527921020985,-0.00961876567453146,0.11043502390384674,0.0,0.0,0.0,0.0030901336576789618,0.0015926816267892718,-0.0,0.0,0.0,0.0,0.0006083855405449867,0.014522502198815346,-0.0025602420791983604,15186.0,15219.0,13411.0,17019.0,0.5214570164680481,0.5238648056983948,0.40084517002105713,0.6626676917076111,0.0,0.0,0.0,0.0,17096.0,13006.0,15570.0,15092.0,2.101186990737915,0.04004749395810114,-0.10079370075782007,-0.0198253402064988,-0.008063866756856441,0.012035088613629341,0.0,0.0,0.0,0.0
205,5,7.574583378300304e-06,-6.876277439005207e-06,2.4847188342391746e-06,-0.000843520276248455,-0.0004068836278747767,0.00031608802964910865,-0.005348460748791695,-0.047264233231544495,-0.034181028604507446,-0.0060005527921020985,-0.00961876567453146,0.11043502390384674,0.0,0.0,0.0,-0.002321857726201415,-0.0009119194583036005,-0.0,0.0,0.0,0.0,0.0006083855405449867,0.014522502198815346,-0.0025602420791983604,15186.0,15219.0,13411.0,17019.0,0.5214570164680481,0.5238648056983948,0.40084517002105713,0.6626676917076111,0.0,0.0,0.0,0.0,17096.0,13006.0,15570.0,15092.0,2.1136252880096436,0.04105730949275736,-0.10084542217281636,-0.019287462415923287,0.004644459113478661,-0.009096438996493816,0.0,0.0,0.0,0.0
210,5,7.782012289681006e-06,-1.4553785149473697e-05,-1.8332650142838247e-05,-0.00031251669861376286,0.0007585474522784352,0.0026245194021612406,-0.005345203448086977,-0.047284748405218124,-0.03294413536787033,0.00932641327381134,0.006706901825964451,-0.14295989274978638,0.0,0.0,0.0,-0.002321857726201415,-0.0009119194583036005,-0.0,0.0,0.0,0.0,0.0018307702848687768,0.014119480736553669,-0.005291687324643135,14454.0,15985.0,12462.0,17683.0,0.46981632709503174,0.5809527635574341,0.34280285239219666,0.717988133430481,0.0,0.0,0.0,0.0,12542.0,17504.0,10233.0,19030.0,2.1136252880096436,0.04115548128861757,-0.1012207747189705,-0.018946971758129285,0.004644459113478661,-0.009096438996493816,0.0,0.0,0.0,0.0
215,5,-2.7158198463439476e-06,-3.613850276451558e-05,2.4371824110858142e-05,-0.001384746516123414,0.0028935850132256746,-0.004074729047715664,-0.005432504694908857,-0.04702728986740112,-0.0344330370426178,-0.0008001052192412317,-0.07260417193174362,0.04566168785095215,0.0,0.0,0.0,-0.0007549430592916906,-0.0002240454195998609,-0.0,0.0,0.0,0.0,0.0003039156727027148,0.013949660584330559,-0.0047470624558627605,15202.0,15071.0,13556.0,16929.0,0.522608757019043,0.513168215751648,0.4100686311721802,0.655341386795044,0.0,0.0,0.0,0.0,15951.0,14306.0,14309.0,16275.0,2.0904030799865723,0.04082898110296587,-0.10204309347962719,-0.01971765926699975,0.001128542353399098,-0.002925180597230792,0.0,0.0,0.0,0.0
221,5,-1.8429069314152002e-05,-3.210575596312992e-05,4.5099350245436653e-05,-0.0024394886568188667,0.0006735044298693538,-0.004117194563150406,-0.005432504694908857,-0.04702728986740112,-0.0344330370426178,-0.0008001052192412317,-0.07260417193174362,0.04566168785095215,0.0,0.0,0.0,-0.0007549430592916906,-0.0002240454195998609,-0.0,0.0,0.0,0.0,0.0003039156727027148,0.013949660584330559,-0.0047470624558627605,15202.0,15071.0,13556.0,16929.0,0.522608757019043,0.513168215751648,0.4100686311721802,0.655341386795044,0.0,0.0,0.0,0.0,15951.0,14306.0,14309.0,16275.0,2.0904030799865723,0.04078292935287306,-0.10310345940225671,-0.019237565046735183,0.001128542353399098,-0.002925180597230792,0.0,0.0,0.0,0.0
226,5,-4.019485641038045e-05,-3.913700857083313e-05,9.114316344494e-05,-0.0035876897163689137,0.0011131520150229335,-0.007172135170549154,-0.0050233760848641396,-0.04673286899924278,-0.034092407673597336,0.04475126788020134,-0.03690561652183533,-0.1325899064540863,0.0,0.0,0.0,-0.0006883832975290716,-0.001811945578083396,-0.0,0.0,0.0,0.0,0.0007031593122519553,0.012864009477198124,-0.0016168721485882998,14034.0,16399.0,12048.0,17944.0,0.44137418270111084,0.6130263209342957,0.31890225410461426,0.740322470664978,0.0,0.0,0.0,0.0,13846.0,16560.0,11979.0,17987.0,2.1183316707611084,0.03983957436946634,-0.10408373142460818,-0.019466032392110852,0.009248912334442139,-0.0027029174380004406,0.0,0.0,0.0,0.0
231,5,-6.636441685259342e-05,-6.178319017635658e-05,0.0001289765496039763,-0.004575422964990139,0.0031628026627004147,-0.007408861070871353,-0.0050233760848641396,-0.04673286899924278,-0.034092407673597336,0.04475126788020134,-0.03690561652183533,-0.1325899064540863,0.0,0.0,0.0,-0.0006883832975290716,-0.001811945578083396,-0.0,0.0,0.0,0.0,0.0007031593122519553,0.012864009477198124,-0.0016168721485882998,14034.0,16399.0,12048.0,17944.0,0.44137418270111084,0.6130263209342957,0.31890225410461426,0.740322470664978,0.0,0.0,0.0,0.0,13846.0,16560.0,11979.0,17987.0,2.1183316707611084,0.04017704539319957,-0.10503694805573413,-0.020040936384777545,0.009248912334442139,-0.0027029174380004406,0.0,0.0,0.0,0.0
236,5,-0.00012001819413853809,-5.025554492021911e-05,0.0002150841901311651,-0.008268622681498528,-0.0001181964689749293,-0.013296461664140224,-0.0050233760848641396,-0.04673286899924278,-0.034092407673597336,0.04475126788020134,-0.03690561652183533,-0.1325899064540863,0.0,0.0,0.0,-0.0031167767010629177,-0.0034431633539497852,-0.0,0.0,0.0,0.0,0.0007031593122519553,0.012864009477198124,-0.0016168721485882998,14034.0,16399.0,12048.0,17944.0,0.44137418270111084,0.6130263209342957,0.31890225410461426,0.740322470664978,0.0,0.0,0.0,0.0,13846.0,16560.0,11979.0,17987.0,2.1119837760925293,0.04008860690882671,-0.10717491356693329,-0.020387800081277968,0.017522543668746948,-0.012201228179037571,0.0,0.0,0.0,0.0
241,5,-0.0001832484849728644,-7.915326568763703e-05,0.0003079144807998091,-0.010895083658397198,0.00342044816352427,-0.016458218917250633,-0.004718332085758448,-0.04598183184862137,-0.034258559346199036,0.005988635588437319,-0.11465516686439514,0.03126712515950203,0.0,0.0,0.0,-0.0031167767010629177,-0.0034431633539497852,-0.0,0.0,0.0,0.0,0.0007031593122519553,0.012864009477198124,-0.0016168721485882998,15301.0,15013.0,13699.0,16642.0,0.5298181772232056,0.5090428590774536,0.41929998993873596,0.6322420835494995,0.0,0.0,0.0,0.0,13918.0,16298.0,12272.0,17706.0,2.1119837760925293,0.04104319123630574,-0.10969289404786603,-0.020007659891303854,0.017522543668746948,-0.012201228179037571,0.0,0.0,0.0,0.0
246,5,-0.0002732913999352604,-8.887443254934624e-05,0.00045638467418029904,-0.015163182280957699,0.002534719416871667,-0.024399712681770325,-0.004718332085758448,-0.04598183184862137,-0.034258559346199036,0.005988635588437319,-0.11465516686439514,0.03126712515950203,0.0,0.0,0.0,-0.0033829854801297188,-0.008214151486754417,-0.0,0.0,0.0,0.0,0.0007031593122519553,0.012864009477198124,-0.0016168721485882998,15301.0,15013.0,13699.0,16642.0,0.5298181772232056,0.5090428590774536,0.41929998993873596,0.6322420835494995,0.0,0.0,0.0,0.0,13918.0,16298.0,12272.0,17706.0,2.1151516437530518,0.04131338385341547,-0.1145637722618955,-0.020027154579150996,0.041864775121212006,-0.013263210654258728,0.0,0.0,0.0,0.0
251,5,-0.00037067901575937867,-0.00012418236292432994,0.0005919151590205729,-0.01775178872048855,0.005250838585197926,-0.026023544371128082,-0.004281040746718645,-0.04335610195994377,-0.034684620797634125,0.07375627011060715,-0.36510634422302246,-0.010032269172370434,0.0,0.0,0.0,-0.0033829854801297188,-0.008214151486754417,-0.0,0.0,0.0,0.0,0.0003791496274061501,0.010285737924277782,-0.004044131375849247,14567.0,15960.0,13340.0,17053.0,0.47758418321609497,0.5790230631828308,0.3963330388069153,0.6653913855552673,0.0,0.0,0.0,0.0,13918.0,16298.0,12272.0,17706.0,2.1151516437530518,0.04327097351151087,-0.11930914685717561,-0.020100738522623507,0.0686095803976059,-0.020375270396471024,0.0,0.0,0.0,0.0
256,5,-0.0005251277470961213,-0.00015085756604094058,0.0007741347071714699,-0.025634560734033585,0.005301360506564379,-0.032275762408971786,-0.004281040746718645,-0.04335610195994377,-0.034684620797634125,0.07375627011060715,-0.36510634422302246,-0.010032269172370434,0.0,0.0,0.0,-0.005177249200642109,-0.01341073028743267,-0.0,0.0,0.0,0.0,0.0003791496274061501,0.010285737924277782,-0.004044131375849247,14567.0,15960.0,13340.0,17053.0,0.47758418321609497,0.5790230631828308,0.3963330388069153,0.6653913855552673,0.0,0.0,0.0,0.0,13918.0,16298.0,12272.0,17706.0,2.1232409477233887,0.045615354206172874,-0.12695381985087925,-0.01991512483546751,0.0686095803976059,-0.020375270396471024,0.0,0.0,0.0,0.0
261,5,-0.0007374400738626719,-0.0001916043838718906,0.001034384360536933,-0.03573130816221237,0.007010162808001041,-0.04414026066660881,-0.003255310468375683,-0.039190758019685745,-0.03467365726828575,0.2475685030221939,-0.7790005803108215,-0.03751905634999275,0.0,0.0,0.0,-0.005177249200642109,-0.01341073028743267,-0.0,0.0,0.0,0.0,-0.0007361462921835482,0.0047300150617957115,-0.003253099974244833,14206.0,16420.0,13513.0,16702.0,0.45291587710380554,0.6146948933601379,0.4073438346385956,0.637029230594635,0.0,0.0,0.0,0.0,13934.0,16722.0,13639.0,16529.0,2.1232409477233887,0.048400762483889026,-0.13576490911542155,-0.01967697962166771,0.0686095803976059,-0.020375270396471024,0.0,0.0,0.0,0.0
266,5,-0.0009884157916530967,-0.00026081714895553887,0.0012997230514883995,-0.0444096140563488,0.011109597980976105,-0.04949675127863884,-0.003255310468375683,-0.039190758019685745,-0.03467365726828575,0.2475685030221939,-0.7790005803108215,-0.03751905634999275,0.0,0.0,0.0,-0.006946759298443794,-0.026982024312019348,-0.0,0.0,0.0,0.0,-0.0007361462921835482,0.0047300150617957115,-0.003253099974244833,14206.0,16420.0,13513.0,16702.0,0.45291587710380554,0.6146948933601379,0.4073438346385956,0.637029230594635,0.0,0.0,0.0,0.0,13934.0,16722.0,13639.0,16529.0,2.1236414909362793,0.05220392473178463,-0.14621583155035098,-0.019146966939200146,0.1380525529384613,-0.027344226837158203,0.0,0.0,0.0,0.0
272,5,-0.0012820796109735966,-0.0003493495169095695,0.0016180132515728474,-0.053003497421741486,0.015067721717059612,-0.05799352005124092,0.000830741657409817,-0.026450445875525475,-0.0348685123026371,0.4924476444721222,-1.4363652467727661,-0.004744891542941332,0.0,0.0,0.0,-0.006946759298443794,-0.026982024312019348,-0.0,0.0,0.0,0.0,-0.0032895919866859913,-0.005750186741352081,-0.003717015963047743,13656.0,17159.0,14246.0,15827.0,0.4165399372577667,0.6741120219230652,0.4555993378162384,0.5689002871513367,0.0,0.0,0.0,0.0,13934.0,16722.0,13639.0,16529.0,2.1236414909362793,0.05555485071272288,-0.1584916115707644,-0.018328917870912464,0.1380525529384613,-0.027344226837158203,0.0,0.0,0.0,0.0
277,5,-0.001593892928212881,-0.00041042902739718556,0.001956358551979065,-0.058619000017642975,0.013356628827750683,-0.06379883736371994,0.000830741657409817,-0.026450445875525475,-0.0348685123026371,0.4924476444721222,-1.4363652467727661,-0.004744891542941332,0.0,0.0,0.0,-0.014543064869940281,-0.03941939398646355,-0.0,0.0,0.0,0.0,-0.0032895919866859913,-0.005750186741352081,-0.003717015963047743,13656.0,17159.0,14246.0,15827.0,0.4165399372577667,0.6741120219230652,0.4555993378162384,0.5689002871513367,0.0,0.0,0.0,0.0,13934.0,16722.0,13639.0,16529.0,2.167659282684326,0.060649458068917125,-0.17095092495557399,-0.01788127147594791,0.20582325756549835,-0.058428894728422165,0.0,0.0,0.0,0.0
282,5,-0.0019106381805613637,-0.0004789188096765429,0.0022357774432748556,-0.06145703047513962,0.013561424799263477,-0.059049803763628006,0.0059594810009002686,-0.012939680367708206,-0.034734245389699936,0.8162588477134705,-2.0617666244506836,0.034997209906578064,0.0,0.0,0.0,-0.014543064869940281,-0.03941939398646355,-0.0,0.0,0.0,0.0,-0.006973471492528915,-0.01762133650481701,-0.0024139757733792067,13657.0,17501.0,15171.0,14538.0,0.41658225655555725,0.702578067779541,0.5204077959060669,0.475583553314209,0.0,0.0,0.0,0.0,13571.0,17355.0,14587.0,15369.0,2.167659282684326,0.06673605376809646,-0.18461104450384214,-0.016318203202735464,0.20582325756549835,-0.058428894728422165,0.0,0.0,0.0,0.0
287,5,-0.00226414343342185,-0.0005470957839861512,0.002524256706237793,-0.06700344383716583,0.013605805113911629,-0.05823745205998421,0.0059594810009002686,-0.012939680367708206,-0.034734245389699936,0.8162588477134705,-2.0617666244506836,0.034997209906578064,0.0,0.0,0.0,-0.012862695381045341,-0.04458942636847496,-0.0,0.0,0.0,0.0,-0.006973471492528915,-0.01762133650481701,-0.0024139757733792067,13657.0,17501.0,15171.0,14538.0,0.41658225655555725,0.702578067779541,0.5204077959060669,0.475583553314209,0.0,0.0,0.0,0.0,13571.0,17355.0,14587.0,15369.0,2.243835687637329,0.07172869853893103,-0.198119156740928,-0.015073914834946753,0.24098777770996094,-0.053494587540626526,0.0,0.0,0.0,0.0
292,5,-0.002620543586090207,-0.0006226147525012493,0.0027857127133756876,-0.06956940144300461,0.014504601247608662,-0.05466970056295395,0.017198456451296806,0.014427382498979568,-0.034710366278886795,1.0565301179885864,-2.5521504878997803,0.03556627780199051,0.0,0.0,0.0,-0.013437795452773571,-0.04923905059695244,-0.0,0.0,0.0,0.0,-0.014446703717112541,-0.045351095497608185,-0.002179765375331044,12884.0,18540.0,15843.0,13278.0,0.368038535118103,0.792611300945282,0.5701630115509033,0.39242810010910034,0.0,0.0,0.0,0.0,12497.0,18976.0,16309.0,12428.0,2.3216426372528076,0.07766325621151109,-0.2121018252302576,-0.013238505521972704,0.275322824716568,-0.05782400816679001,0.0,0.0,0.0,0.0
297,5,-0.0029483800753951073,-0.0006843638839200139,0.0029600674752146006,-0.06716812402009964,0.013211733661592007,-0.042790453881025314,0.017198456451296806,0.014427382498979568,-0.034710366278886795,1.0565301179885864,-2.5521504878997803,0.03556627780199051,0.0,0.0,0.0,-0.013437795452773571,-0.04923905059695244,-0.0,0.0,0.0,0.0,-0.014446703717112541,-0.045351095497608185,-0.002179765375331044,12884.0,18540.0,15843.0,13278.0,0.368038535118103,0.792611300945282,0.5701630115509033,0.39242810010910034,0.0,0.0,0.0,0.0,12497.0,18976.0,16309.0,12428.0,2.3216426372528076,0.08197024899225518,-0.224512217467731,-0.011844670676070444,0.275322824716568,-0.05782400816679001,0.0,0.0,0.0,0.0
302,5,-0.0032535558566451073,-0.0007270529167726636,0.0031071549747139215,-0.06348833441734314,0.010407380759716034,-0.03476666659116745,0.02625211887061596,0.035427700728178024,-0.034785639494657516,1.1563491821289062,-2.7248523235321045,0.06679531186819077,0.0,0.0,0.0,-0.013437795452773571,-0.04923905059695244,-0.0,0.0,0.0,0.0,-0.017679085955023766,-0.05422256514430046,-0.001020409632474184,12481.0,19705.0,17482.0,10202.0,0.3438965380191803,0.8999874591827393,0.7009592652320862,0.22281596064567566,0.0,0.0,0.0,0.0,12323.0,19670.0,16985.0,11272.0,2.3216426372528076,0.0863403709064865,-0.23540370357424367,-0.010729164762556469,0.275322824716568,-0.05782400816679001,0.0,0.0,0.0,0.0
307,5,-0.003548509906977415,-0.000764746917411685,0.0032048739958554506,-0.06078984588384628,0.008686235174536705,-0.025632958859205246,0.02625211887061596,0.035427700728178024,-0.034785639494657516,1.1563491821289062,-2.7248523235321045,0.06679531186819077,0.0,0.0,0.0,-0.010215860791504383,-0.046765223145484924,-0.0,0.0,0.0,0.0,-0.017679085955023766,-0.05422256514430046,-0.001020409632474184,12481.0,19705.0,17482.0,10202.0,0.3438965380191803,0.8999874591827393,0.7009592652320862,0.22281596064567566,0.0,0.0,0.0,0.0,12323.0,19670.0,16985.0,11272.0,2.272824764251709,0.08905212576070717,-0.24373206784048151,-0.009364706370980028,0.2560117542743683,-0.043036382645368576,0.0,0.0,0.0,0.0
312,5,-0.0037968847900629044,-0.0007621884578838944,0.003304483136162162,-0.054120924323797226,0.0031674723140895367,-0.022206278517842293,0.03988265246152878,0.06707622110843658,-0.034796301275491714,1.0701522827148438,-2.5153205394744873,0.1176559329032898,0.0,0.0,0.0,-0.010215860791504383,-0.046765223145484924,-0.0,0.0,0.0,0.0,-0.018085477873682976,-0.05885665863752365,-0.00041124600102193654,12742.0,19877.0,17881.0,10417.0,0.35945865511894226,0.916379988193512,0.7348766922950745,0.23312044143676758,0.0,0.0,0.0,0.0,12701.0,19964.0,17902.0,10258.0,2.272824764251709,0.09162551912805823,-0.2503781952440713,-0.008154968856750914,0.2560117542743683,-0.043036382645368576,0.0,0.0,0.0,0.0
317,5,-0.004133887123316526,-0.0007652112399227917,0.003382480936124921,-0.03496178612112999,-0.00022330268984660506,-0.010532776825129986,0.03988265246152878,0.06707622110843658,-0.034796301275491714,1.0701522827148438,-2.5153205394744873,0.1176559329032898,0.0,0.0,0.0,-0.003958108369261026,-0.04239792004227638,-0.0,0.0,0.0,0.0,-0.018085477873682976,-0.05885665863752365,-0.00041124600102193654,12742.0,19877.0,17881.0,10417.0,0.35945865511894226,0.916379988193512,0.7348766922950745,0.23312044143676758,0.0,0.0,0.0,0.0,12701.0,19964.0,17902.0,10258.0,2.1921143531799316,0.0934551083106473,-0.258394035838254,-0.007265894334518811,0.22388558089733124,-0.01608264073729515,0.0,0.0,0.0,0.0
322,5,-0.004234033171087503,-0.0007360150921158493,0.0033920006826519966,-0.02600226365029812,-0.003592858789488673,-0.005355479661375284,0.04748408496379852,0.0851735770702362,-0.034591060131788254,0.7713538408279419,-1.9036962985992432,0.11936426162719727,0.0,0.0,0.0,-0.003958108369261026,-0.04239792004227638,-0.0,0.0,0.0,0.0,-0.01617107354104519,-0.05734313651919365,-0.0014865180710330606,12425.0,20309.0,17837.0,11556.0,0.3406009376049042,0.958306074142456,0.7311224937438965,0.2916131317615509,0.0,0.0,0.0,0.0,12884.0,20156.0,18083.0,10915.0,2.1921143531799316,0.09294999744711102,-0.25874379657764845,-0.0069190646500904,0.22388558089733124,-0.01608264073729515,0.0,0.0,0.0,0.0
328,5,-0.004234033171087503,-0.0007360150921158493,0.0033920006826519966,-0.02600226365029812,-0.003592858789488673,-0.005355479661375284,0.04748408496379852,0.0851735770702362,-0.034591060131788254,0.7713538408279419,-1.9036962985992432,0.11936426162719727,0.0,0.0,0.0,0.002392549067735672,-0.023640217259526253,-0.0,0.0,0.0,0.0,-0.01617107354104519,-0.05734313651919365,-0.0014865180710330606,12425.0,20309.0,17837.0,11556.0,0.3406009376049042,0.958306074142456,0.7311224937438965,0.2916131317615509,0.0,0.0,0.0,0.0,12884.0,20156.0,18083.0,10915.0,2.121875762939453,0.09294999744711102,-0.25874379657764845,-0.0069190646500904,0.12085973471403122,0.009409978054463863,0.0,0.0,0.0,0.0
333,5,-0.0042598736472427845,-0.0006704050465486944,0.0034012622199952602,-0.013501773588359356,-0.009310348890721798,-0.0032535623759031296,0.05503583326935768,0.10983003675937653,-0.03416918218135834,-0.21314620971679688,-0.08954785764217377,0.10522788017988205,0.0,0.0,0.0,0.002392549067735672,-0.023640217259526253,-0.0,0.0,0.0,0.0,-0.012529026716947556,-0.0499453991651535,-0.0012996753212064505,13002.0,19341.0,17650.0,12009.0,0.3752778470516205,0.8657270669937134,0.7151340246200562,0.31668582558631897,0.0,0.0,0.0,0.0,12429.0,20207.0,17625.0,12057.0,2.121875762939453,0.09054178737282931,-0.2562560896291924,-0.006839750621737729,0.12085973471403122,0.009409978054463863,0.0,0.0,0.0,0.0
338,5,-0.004227095283567905,-0.0005864829872734845,0.003407306969165802,-0.001467263326048851,-0.013794786296784878,-0.0020268091466277838,0.05503583326935768,0.10983003675937653,-0.03416918218135834,-0.21314620971679688,-0.08954785764217377,0.10522788017988205,0.0,0.0,0.0,0.007965990342199802,-0.014557556249201298,-0.0,0.0,0.0,0.0,-0.012529026716947556,-0.0499453991651535,-0.0012996753212064505,13002.0,19341.0,17650.0,12009.0,0.3752778470516205,0.8657270669937134,0.7151340246200562,0.31668582558631897,0.0,0.0,0.0,0.0,12429.0,20207.0,17625.0,12057.0,2.1136882305145264,0.08530241233156656,-0.2512176460426092,-0.007210397038436278,0.07413993030786514,0.031209075823426247,0.0,0.0,0.0,0.0
343,5,-0.004037843085825443,-0.0003933189145755023,0.0032978402450680733,0.01790492981672287,-0.01917942240834236,0.00931173749268055,0.05503583326935768,0.10983003675937653,-0.03416918218135834,-0.21314620971679688,-0.08954785764217377,0.10522788017988205,0.0,0.0,0.0,0.007965990342199802,-0.014557556249201298,-0.0,0.0,0.0,0.0,-0.012529026716947556,-0.0499453991651535,-0.0012996753212064505,13002.0,19341.0,17650.0,12009.0,0.3752778470516205,0.8657270669937134,0.7151340246200562,0.31668582558631897,0.0,0.0,0.0,0.0,12429.0,20207.0,17625.0,12057.0,2.1136882305145264,0.0766172724722996,-0.2356120718609031,-0.009587757153342475,0.07413993030786514,0.031209075823426247,0.0,0.0,0.0,0.0
348,5,-0.004037843085825443,-0.0003933189145755023,0.0032978402450680733,0.01790492981672287,-0.01917942240834236,0.00931173749268055,0.04966990277171135,0.1056293472647667,-0.03328680992126465,-0.7209464907646179,0.92546147108078,0.005173609126359224,0.0,0.0,0.0,0.017941772937774658,0.008874754421412945,-0.0,0.0,0.0,0.0,-0.007138834800571203,-0.0379246287047863,-0.003139035776257515,12192.0,18890.0,16230.0,14029.0,0.3270919620990753,0.8241444826126099,0.5998544692993164,0.44102343916893005,0.0,0.0,0.0,0.0,12598.0,18886.0,17076.0,12587.0,2.097271680831909,0.0766172724722996,-0.2356120718609031,-0.009587757153342475,-0.04484224319458008,0.06974069774150848,-0.0,0.0,0.0,0.0
353,5,-0.003841501660645008,-0.0002639079175423831,0.003185787471011281,0.030722927302122116,-0.02320108935236931,0.017171021550893784,0.04966990277171135,0.1056293472647667,-0.03328680992126465,-0.7209464907646179,0.92546147108078,0.005173609126359224,0.0,0.0,0.0,0.017941772937774658,0.008874754421412945,-0.0,0.0,0.0,0.0,-0.007138834800571203,-0.0379246287047863,-0.003139035776257515,12192.0,18890.0,16230.0,14029.0,0.3270919620990753,0.8241444826126099,0.5998544692993164,0.44102343916893005,0.0,0.0,0.0,0.0,12598.0,18886.0,17076.0,12587.0,2.097271680831909,0.0694355892779127,-0.2244413328694756,-0.010807288825443356,-0.04484224319458008,0.06974069774150848,-0.0,0.0,0.0,0.0
358,5,-0.003348850179463625,1.3323233361006714e-05,0.0027664629742503166,0.04681680351495743,-0.026186591014266014,0.03953973203897476,0.042268019169569016,0.09496886283159256,-0.03275495395064354,-1.1583234071731567,1.8546513319015503,-0.03368784114718437,0.0,0.0,0.0,0.025249294936656952,0.0310518741607666,-0.0,0.0,0.0,0.0,-0.0012204897357150912,-0.018605178222060204,-0.0036785625852644444,12670.0,17636.0,15008.0,15496.0,0.3551275134086609,0.7139480710029602,0.5086690783500671,0.5441311001777649,0.0,0.0,0.0,0.0,12762.0,17374.0,14617.0,16080.0,2.0997745990753174,0.055596671620763746,-0.19638643808220538,-0.013703772512670334,-0.15703777968883514,0.09825319051742554,-0.0,0.0,0.0,0.0
363,5,-0.003348850179463625,1.3323233361006714e-05,0.0027664629742503166,0.04681680351495743,-0.026186591014266014,0.03953973203897476,0.042268019169569016,0.09496886283159256,-0.03275495395064354,-1.1583234071731567,1.8546513319015503,-0.03368784114718437,0.0,0.0,0.0,0.025249294936656952,0.0310518741607666,-0.0,0.0,0.0,0.0,-0.0012204897357150912,-0.018605178222060204,-0.0036785625852644444,12670.0,17636.0,15008.0,15496.0,0.3551275134086609,0.7139480710029602,0.5086690783500671,0.5441311001777649,0.0,0.0,0.0,0.0,12762.0,17374.0,14617.0,16080.0,2.0997745990753174,0.055596671620763746,-0.19638643808220538,-0.013703772512670334,-0.15703777968883514,0.09825319051742554,-0.0,0.0,0.0,0.0
368,5,-0.00308653200045228,0.0001551093882881105,0.0025169237051159143,0.05020489543676376,-0.02748897485435009,0.04576060548424721,0.026422254741191864,0.06878436356782913,-0.03234391659498215,-1.4872733354568481,2.6293351650238037,-0.028663190081715584,0.0,0.0,0.0,0.02625788003206253,0.0332818478345871,-0.0,0.0,0.0,0.0,0.01062690932303667,0.019398963078856468,-0.0036270618438720703,13503.0,16273.0,14140.0,16930.0,0.4066680073738098,0.6031970381736755,0.4484313130378723,0.6553918719291687,0.0,0.0,0.0,0.0,13801.0,15846.0,13848.0,17330.0,2.135556697845459,0.04970172194380957,-0.18157485556643982,-0.014338902610996655,-0.17117507755756378,0.10391749441623688,-0.0,0.0,0.0,0.0
373,5,-0.0024729277938604355,0.0004716837720479816,0.0019327800255268812,0.05954769253730774,-0.030794208869338036,0.056624021381139755,0.026422254741191864,0.06878436356782913,-0.03234391659498215,-1.4872733354568481,2.6293351650238037,-0.028663190081715584,0.0,0.0,0.0,0.02625788003206253,0.0332818478345871,-0.0,0.0,0.0,0.0,0.01062690932303667,0.019398963078856468,-0.0036270618438720703,13503.0,16273.0,14140.0,16930.0,0.4066680073738098,0.6031970381736755,0.4484313130378723,0.6553918719291687,0.0,0.0,0.0,0.0,13801.0,15846.0,13848.0,17330.0,2.135556697845459,0.0326992163552694,-0.1481411075564162,-0.01517799447752218,-0.17117507755756378,0.10391749441623688,-0.0,0.0,0.0,0.0
378,5,-0.002173367189243436,0.0006087115616537631,0.0016427814261987805,0.059766341000795364,-0.028761019930243492,0.05744943767786026,0.014348803088068962,0.04586617276072502,-0.03211376816034317,-1.5744918584823608,3.1481332778930664,0.004855383187532425,0.0,0.0,0.0,0.02625788003206253,0.0332818478345871,-0.0,0.0,0.0,0.0,0.015254708006978035,0.03617994114756584,-0.0012174096191301942,14693.0,14446.0,13392.0,17964.0,0.4864040017127991,0.4692678153514862,0.39959555864334106,0.7420043349266052,0.0,0.0,0.0,0.0,15278.0,13607.0,13544.0,18015.0,2.135556697845459,0.027623849846754017,-0.13148613410739093,-0.015379862375414406,-0.17117507755756378,0.10391749441623688,-0.0,0.0,0.0,0.0
384,5,-0.0019198545487597585,0.0007419479661621153,0.0013580471277236938,0.054328061640262604,-0.02749277651309967,0.05714789032936096,0.014348803088068962,0.04586617276072502,-0.03211376816034317,-1.5744918584823608,3.1481332778930664,0.004855383187532425,0.0,0.0,0.0,0.026940179988741875,0.03953815996646881,-0.0,0.0,0.0,0.0,0.015254708006978035,0.03617994114756584,-0.0012174096191301942,14693.0,14446.0,13392.0,17964.0,0.4864040017127991,0.4692678153514862,0.39959555864334106,0.7420043349266052,0.0,0.0,0.0,0.0,15278.0,13607.0,13544.0,18015.0,2.227055549621582,0.021573506276739807,-0.11487198943763831,-0.016286033627383633,-0.21204529702663422,0.11118460446596146,-0.0,0.0,0.0,0.0
389,5,-0.0017056011129170656,0.0008540989365428686,0.0010843880008906126,0.047441646456718445,-0.024455221369862556,0.055698249489068985,-0.004174827132374048,0.0067190551199018955,-0.03131315857172012,-1.536895990371704,3.351569175720215,0.08504927903413773,0.0,0.0,0.0,0.026940179988741875,0.03953815996646881,-0.0,0.0,0.0,0.0,0.018412575125694275,0.047415923327207565,-0.001693020691163838,16355.0,11680.0,13175.0,18687.0,0.6095994114875793,0.298400342464447,0.38597726821899414,0.8057975172996521,0.0,0.0,0.0,0.0,16592.0,11142.0,13120.0,18837.0,2.227055549621582,0.015053779149552329,-0.10045848068349587,-0.016599459258499722,-0.21204529702663422,0.11118460446596146,-0.0,0.0,0.0,0.0
394,5,-0.001519729383289814,0.0009585191146470606,0.0008117303950712085,0.04128125309944153,-0.02231251448392868,0.054998211562633514,-0.004174827132374048,0.0067190551199018955,-0.03131315857172012,-1.536895990371704,3.351569175720215,0.08504927903413773,0.0,0.0,0.0,0.024525366723537445,0.03296825662255287,-0.0,0.0,0.0,0.0,0.018412575125694275,0.047415923327207565,-0.001693020691163838,16355.0,11680.0,13175.0,18687.0,0.6095994114875793,0.298400342464447,0.38597726821899414,0.8057975172996521,0.0,0.0,0.0,0.0,16592.0,11142.0,13120.0,18837.0,2.120748519897461,0.008864863867337255,-0.08805436665919968,-0.01561047496506577,-0.16839443147182465,0.09639047831296921,-0.0,0.0,0.0,0.0
399,5,-0.001357132801786065,0.0010542572708800435,0.0006463045720010996,0.036024101078510284,-0.020413586869835854,0.041850388050079346,-0.016130946576595306,-0.019379999488592148,-0.030937815085053444,-1.4322057962417603,3.1694154739379883,0.02965548262000084,0.0,0.0,0.0,0.021634908393025398,0.025773443281650543,-0.0,0.0,0.0,0.0,0.01863175444304943,0.05202865973114967,-0.003038091817870736,16485.0,11546.0,12525.0,19475.0,0.6198022961616516,0.29106470942497253,0.3464788496494293,0.8782108426094055,0.0,0.0,0.0,0.0,16279.0,11801.0,11941.0,19852.0,2.053539514541626,0.0048728642869252025,-0.07641821311439195,-0.01503329038149887,-0.12749046087265015,0.08233891427516937,-0.0,0.0,0.0,0.0
404,5,-0.0012441498693078756,0.001125103561207652,0.0004969570436514914,0.027967583388090134,-0.016666989773511887,0.03466185927391052,-0.016130946576595306,-0.019379999488592148,-0.030937815085053444,-1.4322057962417603,3.1694154739379883,0.02965548262000084,0.0,0.0,0.0,0.021634908393025398,0.025773443281650543,-0.0,0.0,0.0,0.0,0.01863175444304943,0.05202865973114967,-0.003038091817870736,16485.0,11546.0,12525.0,19475.0,0.6198022961616516,0.29106470942497253,0.3464788496494293,0.8782108426094055,0.0,0.0,0.0,0.0,16279.0,11801.0,11941.0,19852.0,2.053539514541626,0.002460724159212093,-0.06795285914396046,-0.014022528600302194,-0.12749046087265015,0.08233891427516937,-0.0,0.0,0.0,0.0
409,5,-0.0011967653408646584,0.0011474103666841984,0.0004327365313656628,0.016873188316822052,-0.009343606419861317,0.02157120406627655,-0.03180484473705292,-0.05445544794201851,-0.03163843974471092,-1.100114107131958,2.621890068054199,0.0473429411649704,0.0,0.0,0.0,0.021634908393025398,0.025773443281650543,-0.0,0.0,0.0,0.0,0.018021970987319946,0.05043312907218933,0.0021482796873897314,17849.0,9165.0,13921.0,18380.0,0.732165515422821,0.17633318901062012,0.4338594973087311,0.7783902883529663,0.0,0.0,0.0,0.0,17716.0,10265.0,13255.0,19595.0,2.053539514541626,0.002068614909969252,-0.0623585975848354,-0.013572866562336422,-0.12749046087265015,0.08233891427516937,-0.0,0.0,0.0,0.0
414,5,-0.0011807011906057596,0.0011535342782735825,0.00042059828410856426,0.008676963858306408,-0.004472317174077034,0.010085069574415684,-0.03180484473705292,-0.05445544794201851,-0.03163843974471092,-1.100114107131958,2.621890068054199,0.0473429411649704,0.0,0.0,0.0,0.010796548798680305,0.011360866948962212,-0.0,0.0,0.0,0.0,0.018021970987319946,0.05043312907218933,0.0021482796873897314,17849.0,9165.0,13921.0,18380.0,0.732165515422821,0.17633318901062012,0.4338594973087311,0.7783902883529663,0.0,0.0,0.0,0.0,17716.0,10265.0,13255.0,19595.0,2.0659611225128174,0.0025614751117309584,-0.059667685971290074,-0.013340263388603921,-0.056552376598119736,0.041342843323946,-0.0,0.0,0.0,0.0
419,5,-0.001200315891765058,0.0012148239184170961,0.00048318851622752845,0.001117020146921277,-0.00914368499070406,-0.0034768003970384598,-0.03866765648126602,-0.07259286195039749,-0.03092796355485916,-0.5699849724769592,1.7428429126739502,0.20654943585395813,0.0,0.0,0.0,0.010796548798680305,0.011360866948962212,-0.0,0.0,0.0,0.0,0.013721689581871033,0.04204308241605759,-0.0025476033333688974,15929.0,12316.0,11897.0,18979.0,0.5766445398330688,0.3342738449573517,0.31039145588874817,0.832229733467102,0.0,0.0,0.0,0.0,17389.0,10296.0,13367.0,18647.0,2.0659611225128174,0.001759609281442878,-0.05954578845901048,-0.012044210894289614,-0.056552376598119736,0.041342843323946,-0.0,0.0,0.0,0.0
424,5,-0.0012730173766613007,0.0012315328931435943,0.0005664285854436457,-0.008277363143861294,-0.00566254835575819,-0.011379526928067207,-0.03866765648126602,-0.07259286195039749,-0.03092796355485916,-0.5699849724769592,1.7428429126739502,0.20654943585395813,0.0,0.0,0.0,0.01076987199485302,-0.0005170807708054781,-0.0,0.0,0.0,0.0,0.013721689581871033,0.04204308241605759,-0.0025476033333688974,15929.0,12316.0,11897.0,18979.0,0.5766445398330688,0.3342738449573517,0.31039145588874817,0.832229733467102,0.0,0.0,0.0,0.0,17389.0,10296.0,13367.0,18647.0,2.0523085594177246,0.0027732754975933736,-0.061380220873121616,-0.011542100626896269,0.0025569824501872063,0.040968164801597595,0.0,0.0,0.0,0.0
429,5,-0.0014250362291932106,0.0011505135335028172,0.0006553287385031581,-0.02155320532619953,0.007457305211573839,-0.015219827182590961,-0.04123108834028244,-0.08934270590543747,-0.030024083331227303,0.409218966960907,-0.4646110534667969,0.07670576125383377,0.0,0.0,0.0,0.01076987199485302,-0.0005170807708054781,-0.0,0.0,0.0,0.0,0.008155240677297115,0.02801276184618473,-0.0015088507207110524,15822.0,13347.0,13270.0,17575.0,0.5685217380523682,0.39673516154289246,0.3919066786766052,0.7087974548339844,0.0,0.0,0.0,0.0,15717.0,12790.0,12053.0,18749.0,2.0523085594177246,0.006758276604551156,-0.0668212957125818,-0.012017277930114771,0.0025569824501872063,0.040968164801597595,0.0,0.0,0.0,0.0
434,5,-0.0015997948357835412,0.0010843811323866248,0.0007929183775559068,-0.02959231287240982,0.01091880351305008,-0.022598693147301674,-0.04123108834028244,-0.08934270590543747,-0.030024083331227303,0.409218966960907,-0.4646110534667969,0.07670576125383377,0.0,0.0,0.0,-0.005735006649047136,-0.01811022125184536,-0.0,0.0,0.0,0.0,0.008155240677297115,0.02801276184618473,-0.0015088507207110524,15822.0,13347.0,13270.0,17575.0,0.5685217380523682,0.39673516154289246,0.3919066786766052,0.7087974548339844,0.0,0.0,0.0,0.0,15717.0,12790.0,12053.0,18749.0,2.035276174545288,0.011866693622791932,-0.07461996361772946,-0.01186766700763333,0.08881127834320068,-0.021635228767991066,0.0,0.0,0.0,0.0
439,5,-0.0018358968663960695,0.0010338168358430266,0.0009551890543662012,-0.04016917943954468,0.010435243137180805,-0.028511954471468925,-0.03436724469065666,-0.07876323908567429,-0.028663361445069313,0.7686153650283813,-1.4534467458724976,0.042341604828834534,0.0,0.0,0.0,-0.005735006649047136,-0.01811022125184536,-0.0,0.0,0.0,0.0,0.004749765619635582,0.012834012508392334,-0.0011432971805334091,14963.0,14689.0,14113.0,16413.0,0.5054084658622742,0.48610660433769226,0.4466622471809387,0.6141311526298523,0.0,0.0,0.0,0.0,15890.0,13458.0,13837.0,16988.0,2.035276174545288,0.015911839153410226,-0.08326706934160856,-0.012811092750147024,0.08881127834320068,-0.021635228767991066,0.0,0.0,0.0,0.0
444,5,-0.0021084132604300976,0.0009666535770520568,0.001102343900129199,-0.04876963049173355,0.012233690358698368,-0.02906336449086666,-0.03436724469065666,-0.07876323908567429,-0.028663361445069313,0.7686153650283813,-1.4534467458724976,0.042341604828834534,0.0,0.0,0.0,-0.008804942481219769,-0.032592155039310455,-0.0,0.0,0.0,0.0,0.004749765619635582,0.012834012508392334,-0.0011432971805334091,14963.0,14689.0,14113.0,16413.0,0.5054084658622742,0.48610660433769226,0.4466622471809387,0.6141311526298523,0.0,0.0,0.0,0.0,15890.0,13458.0,13837.0,16988.0,2.0490407943725586,0.020026914251775645,-0.09311734015266268,-0.013077701880471224,0.16088734567165375,-0.03344070911407471,0.0,0.0,0.0,0.0
449,5,-0.002454156521707773,0.0009009449859149754,0.001277755480259657,-0.06099706143140793,0.012778506614267826,-0.03267473354935646,-0.02782745286822319,-0.0648910254240036,-0.02857806161046028,0.8816782236099243,-2.1200203895568848,-0.10696811974048615,0.0,0.0,0.0,-0.01033567450940609,-0.04488125815987587,-0.0,0.0,0.0,0.0,0.0025004451163113117,-0.0007515454199165106,-0.005440100096166134,12476.0,17237.0,13357.0,16408.0,0.34361928701400757,0.6805382966995239,0.3973971903324127,0.613721489906311,0.0,0.0,0.0,0.0,14057.0,15650.0,13837.0,16557.0,2.2422618865966797,0.023910969414197066,-0.10528033205780984,-0.012999596410536012,0.2424009144306183,-0.042955588549375534,0.0,0.0,0.0,0.0
455,5,-0.0028507187962532043,0.0008386122644878924,0.001460681320168078,-0.07198628783226013,0.012591326609253883,-0.035020992159843445,-0.02782745286822319,-0.0648910254240036,-0.02857806161046028,0.8816782236099243,-2.1200203895568848,-0.10696811974048615,0.0,0.0,0.0,-0.01033567450940609,-0.04488125815987587,-0.0,0.0,0.0,0.0,0.0025004451163113117,-0.0007515454199165106,-0.005440100096166134,12476.0,17237.0,13357.0,16408.0,0.34361928701400757,0.6805382966995239,0.3973971903324127,0.613721489906311,0.0,0.0,0.0,0.0,14057.0,15650.0,13837.0,16557.0,2.2422618865966797,0.028781631235799923,-0.11853275045300043,-0.01353528206334582,0.2424009144306183,-0.042955588549375534,0.0,0.0,0.0,0.0
460,5,-0.003253802191466093,0.000778968445956707,0.001631669350899756,-0.07716452330350876,0.012193786911666393,-0.034526970237493515,-0.01754605397582054,-0.037610407918691635,-0.029044179245829582,0.8517362475395203,-2.577876567840576,-0.06472884863615036,0.0,0.0,0.0,-0.01033567450940609,-0.04488125815987587,-0.0,0.0,0.0,0.0,-0.0021072672680020332,-0.016123756766319275,-0.0050902278162539005,11912.0,17822.0,14373.0,15304.0,0.3112076222896576,0.7297966480255127,0.4642212390899658,0.5300506353378296,0.0,0.0,0.0,0.0,12078.0,17568.0,13606.0,16144.0,2.2422618865966797,0.03265749051263508,-0.1326166309943116,-0.01324377176197818,0.2424009144306183,-0.042955588549375534,0.0,0.0,0.0,0.0
465,5,-0.0036337003111839294,0.0007442187052220106,0.0018240074859932065,-0.0764535665512085,0.009047487750649452,-0.036891352385282516,-0.01754605397582054,-0.037610407918691635,-0.029044179245829582,0.8517362475395203,-2.577876567840576,-0.06472884863615036,0.0,0.0,0.0,-0.009371515363454819,-0.05351968854665756,-0.0,0.0,0.0,0.0,-0.0021072672680020332,-0.016123756766319275,-0.0050902278162539005,11912.0,17822.0,14373.0,15304.0,0.3112076222896576,0.7297966480255127,0.4642212390899658,0.5300506353378296,0.0,0.0,0.0,0.0,12078.0,17568.0,13606.0,16144.0,2.3851680755615234,0.03510580037199259,-0.14660901995508221,-0.01315116207706785,0.30743834376335144,-0.041431035846471786,0.0,0.0,0.0,0.0
470,5,-0.004031980410218239,0.0007240624399855733,0.002018547849729657,-0.07837504148483276,0.00603774469345808,-0.03810139000415802,-0.01090275403112173,-0.015957441180944443,-0.029163701459765434,0.7528961300849915,-2.827423334121704,-0.03326677158474922,0.0,0.0,0.0,-0.009371515363454819,-0.05351968854665756,-0.0,0.0,0.0,0.0,-0.004329967312514782,-0.03283260017633438,-0.004269883502274752,11310.0,18427.0,15464.0,14108.0,0.2784336805343628,0.7825143337249756,0.5417803525924683,0.44631242752075195,0.0,0.0,0.0,0.0,11409.0,18330.0,15038.0,14610.0,2.3851680755615234,0.038303626892990036,-0.16081856654547605,-0.012377769390543815,0.30743834376335144,-0.041431035846471786,0.0,0.0,0.0,0.0
475,5,-0.004404101055115461,0.0006762321572750807,0.002201259136199951,-0.07600448280572891,0.008154734037816525,-0.03716590255498886,-0.01090275403112173,-0.015957441180944443,-0.029163701459765434,0.7528961300849915,-2.827423334121704,-0.03326677158474922,0.0,0.0,0.0,-0.004192283842712641,-0.05472884327173233,-0.0,0.0,0.0,0.0,-0.004329967312514782,-0.03283260017633438,-0.004269883502274752,11310.0,18427.0,15464.0,14108.0,0.2784336805343628,0.7825143337249756,0.5417803525924683,0.44631242752075195,0.0,0.0,0.0,0.0,11409.0,18330.0,15038.0,14610.0,2.3994574546813965,0.039994971640515666,-0.17389668701315655,-0.010864273176855756,0.3162718713283539,-0.018645325675606728,0.0,0.0,0.0,0.0
480,5,-0.004764918703585863,0.0006446965271607041,0.0024513883981853724,-0.0736999586224556,0.007046167738735676,-0.04488188400864601,-0.0029022302478551865,0.017656762152910233,-0.02885940484702587,0.5658748745918274,-2.737335443496704,0.0693613588809967,0.0,0.0,0.0,-0.005202301312237978,-0.05302717536687851,-0.0,0.0,0.0,0.0,-0.005176573526114225,-0.04282999783754349,-0.0021824478171765804,12295.0,19026.0,17508.0,12909.0,0.3330298364162445,0.8365212082862854,0.7031691670417786,0.369541734457016,0.0,0.0,0.0,0.0,11817.0,19243.0,16596.0,14181.0,2.370816230773926,0.04174118992884867,-0.18592623320779322,-0.009470010729276692,0.3027881383895874,-0.022861167788505554,0.0,0.0,0.0,0.0
485,5,-0.005094755440950394,0.000611053837928921,0.002679801546037197,-0.06906037777662277,0.006855588871985674,-0.04536232352256775,-0.0029022302478551865,0.017656762152910233,-0.02885940484702587,0.5658748745918274,-2.737335443496704,0.0693613588809967,0.0,0.0,0.0,-0.005202301312237978,-0.05302717536687851,-0.0,0.0,0.0,0.0,-0.005176573526114225,-0.04282999783754349,-0.0021824478171765804,12295.0,19026.0,17508.0,12909.0,0.3330298364162445,0.8365212082862854,0.7031691670417786,0.369541734457016,0.0,0.0,0.0,0.0,11817.0,19243.0,16596.0,14181.0,2.370816230773926,0.042990579698382755,-0.1969084990026409,-0.0089590711521325,0.3027881383895874,-0.022861167788505554,0.0,0.0,0.0,0.0
