timestamp,dt,pos_x,pos_y,pos_z,vel_x,vel_y,vel_z,roll,pitch,yaw,agv_x,agv_y,agv_z,x_ref,y_ref,z_ref,roll_ref,pitch_ref,yaw_ref,x_vel_ref,y_vel_ref,z_vel_ref,x_torque,y_torque,z_torque,w0,w1,w2,w3,u0,u1,u2,u3,m0req,m1req,m2req,m3req,thrust0,thrust1,thrust2,thrust3,thrust_ref,roll_vicon,pitch_vicon,yaw_vicon,acc_x,acc_y,acc_z
5,5,0.0,0.0,0.0,0.002348326612263918,-3.7724112189607695e-06,0.008844643831253052,-0.005980625282973051,-0.1909751445055008,-0.0006550039979629219,0.002760695293545723,-0.0022245445288717747,0.0010306775802746415,0.0,0.0,0.0,4.626584541256307e-06,0.0022154245525598526,-0.0,0.0,0.0,0.0,0.0017499570967629552,0.05725793540477753,-3.602762444643304e-05,1495.0,1495.0,1495.0,1495.0,0.0,0.0,0.0,0.0,0.0,0.0,0.0,0.0,1495.0,1495.0,1495.0,1495.0,1.649609923362732,0.03358999673333214,0.1860703107216851,0.019128706124368833,-0.008806224912405014,1.4146542525850236e-05,0.0
34,29,0.0,0.0,0.0,-0.004262922797352076,0.006650816649198532,-0.020298827439546585,-0.0060004619881510735,-0.19099292159080505,-0.0006717904470860958,-0.0045731705613434315,0.0015408677281811833,-0.0005364621756598353,0.0,0.0,0.0,4.626584541256307e-06,0.0022154245525598526,-0.0,0.0,0.0,0.0,0.0018853112123906612,0.05737899988889694,-0.00010097584163304418,1495.0,1495.0,1495.0,1495.0,0.0,0.0,0.0,0.0,0.0,0.0,0.0,0.0,1495.0,1495.0,1495.0,1495.0,1.649609923362732,0.04652238956187924,0.1872158414742379,0.017480048052761418,-0.008806224912405014,1.4146542525850236e-05,0.0
39,5,0.0,0.0,0.0,-0.0006181492935866117,-0.0022616672795265913,0.008344094268977642,-0.0060004619881510735,-0.19099292159080505,-0.0006717904470860958,-0.0045731705613434315,0.0015408677281811833,-0.0005364621756598353,0.0,0.0,0.0,4.626584541256307e-06,0.0022154245525598526,-0.0,0.0,0.0,0.0,0.0018853112123906612,0.05737899988889694,-0.00010097584163304418,1495.0,1495.0,1495.0,1495.0,0.0,0.0,0.0,0.0,0.0,0.0,0.0,0.0,1495.0,1495.0,1495.0,1495.0,1.649609923362732,0.03612716088957116,0.18637893368970787,0.01887096064616607,-0.008806224912405014,1.4146542525850236e-05,0.0
44,5,0.0,0.0,0.0,-0.0018064533360302448,-0.0008774520247243345,0.003062596544623375,-0.0060004619881510735,-0.19099292159080505,-0.0006717904470860958,-0.0045731705613434315,0.0015408677281811833,-0.0005364621756598353,0.0,0.0,0.0,0.0027738334611058235,-0.0005831797025166452,-0.0,0.0,0.0,0.0,0.0018853112123906612,0.05737899988889694,-0.00010097584163304418,1495.0,1495.0,1495.0,1495.0,0.0,0.0,0.0,0.0,0.0,0.0,0.0,0.0,1495.0,1495.0,1495.0,1495.0,1.649574875831604,0.03658158684930347,0.1861853742065553,0.018948605580276653,0.002318059792742133,0.008481252007186413,0.0
62,18,0.0,0.0,0.0,-0.0018064533360302448,-0.0008774520247243345,0.003062596544623375,-0.006020032335072756,-0.1909572333097458,-0.0006737633957527578,0.0016446949448436499,-0.0036624984350055456,0.00044805012294091284,0.0,0.0,0.0,0.001078384229913354,-0.001707787741906941,-0.0,0.0,0.0,0.0,0.0017964007565751672,0.05784959718585014,-7.194610225269571e-05,1495.0,1495.0,1495.0,1495.0,0.0,0.0,0.0,0.0,0.0,0.0,0.0,0.0,17063.0,8354.0,8610.0,17303.0,1.646162509918213,0.03658158684930347,0.1861853742065553,0.018948605580276653,0.00677420012652874,0.003290445078164339,0.0
68,5,-4.785735654877499e-05,-7.189799362095073e-05,0.0002014020865317434,-0.005365407560020685,0.00798519141972065,-0.02531520649790764,-0.005991191603243351,-0.19098155200481415,-0.0006891166558489203,0.0009212592849507928,0.0012626895913854241,-0.0001753938413457945,0.0,0.0,0.0,-0.009494931437075138,-0.004907070659101009,-0.0,0.0,0.0,0.0,0.0017590800998732448,0.058072030544281006,-8.902262197807431e-05,17068.0,8330.0,8633.0,17298.0,0.6666276454925537,0.14279091358184814,0.15454712510108948,0.6856442093849182,0.0,0.0,0.0,0.0,17063.0,8354.0,8610.0,17303.0,1.7239683866500854,0.0475217393049331,0.18830047978809716,0.016945424694847108,0.02038366161286831,-0.030340159311890602,0.0
74,6,-3.7603713280986995e-05,-6.94530172040686e-05,0.00015457744302693754,-0.0009157258318737149,0.0029006791301071644,-0.004507126286625862,-0.005991191603243351,-0.19098155200481415,-0.0006891166558489203,0.0009212592849507928,0.0012626895913854241,-0.0001753938413457945,0.0,0.0,0.0,-0.009494931437075138,-0.004907070659101009,-0.0,0.0,0.0,0.0,0.0017590800998732448,0.058072030544281006,-8.902262197807431e-05,17068.0,8330.0,8633.0,17298.0,0.6666276454925537,0.14279091358184814,0.15454712510108948,0.6856442093849182,0.0,0.0,0.0,0.0,17063.0,8354.0,8610.0,17303.0,1.7239683866500854,0.04583937438530512,0.1877460219114438,0.017649005072299703,0.02038366161286831,-0.030340159311890602,0.0
79,5,-7.918236406112555e-06,-9.41356393013848e-06,-5.756617974839173e-05,0.003195966826751828,-0.006044462788850069,0.023654384538531303,-0.005974807310849428,-0.19096748530864716,-0.0006844144081696868,0.00019420670287217945,-0.0006177705945447087,-0.0001343904878012836,0.0,0.0,0.0,0.007199374493211508,0.0029242299497127533,-0.0,0.0,0.0,0.0,0.0026321166660636663,0.057156119495630264,-5.0386519433232024e-05,16976.0,8335.0,8820.0,17295.0,0.6591618061065674,0.14300492405891418,0.16206330060958862,0.6853448152542114,0.0,0.0,0.0,0.0,17005.0,8283.0,8841.0,17280.0,1.6947040557861328,0.03656290433564113,0.18664110496775654,0.019006680290092295,-0.01194113027304411,0.022614676505327225,0.0
85,6,-2.1886866306886077e-05,2.2198921215021983e-05,-4.689847628469579e-05,-0.00039784895488992333,-0.006211283151060343,0.008181629702448845,-0.005974807310849428,-0.19096748530864716,-0.0006844144081696868,0.00019420670287217945,-0.0006177705945447087,-0.0001343904878012836,0.0,0.0,0.0,0.007199374493211508,0.0029242299497127533,-0.0,0.0,0.0,0.0,0.0026321166660636663,0.057156119495630264,-5.0386519433232024e-05,16976.0,8335.0,8820.0,17295.0,0.6591618061065674,0.14300492405891418,0.16206330060958862,0.6853448152542114,0.0,0.0,0.0,0.0,17005.0,8283.0,8841.0,17280.0,1.6947040557861328,0.03567461531182359,0.18564410954450278,0.019635074349273782,-0.01194113027304411,0.022614676505327225,0.0
90,5,-3.71021669707261e-05,2.9042294045211747e-05,8.184047146642115e-06,-0.001984975766390562,-0.003305718069896102,-0.0033372510224580765,-0.005966306198388338,-0.1909944862127304,-0.000687045103404671,-0.0033937296830117702,0.005063106305897236,0.0005688732489943504,0.0,0.0,0.0,0.007199374493211508,0.0029242299497127533,-0.0,0.0,0.0,0.0,0.002079049590975046,0.05691220611333847,-9.877073171082884e-05,16952.0,8463.0,8722.0,17266.0,0.6572146415710449,0.14792737364768982,0.15809354186058044,0.6829268932342529,0.0,0.0,0.0,0.0,17012.0,8247.0,8853.0,17283.0,1.6947040557861328,0.037672868990975834,0.18552430387561777,0.019793218801060587,0.007648046128451824,0.012555992230772972,0.0
95,5,-5.6741282605798915e-05,-1.873437940957956e-05,0.00016990893345791847,-0.003150684293359518,0.004410913679748774,-0.020741885527968407,-0.005966306198388338,-0.1909944862127304,-0.000687045103404671,-0.0033937296830117702,0.005063106305897236,0.0005688732489943504,0.0,0.0,0.0,0.00406719371676445,-0.0019056916935369372,-0.0,0.0,0.0,0.0,0.002079049590975046,0.05691220611333847,-9.877073171082884e-05,16952.0,8463.0,8722.0,17266.0,0.6572146415710449,0.14792737364768982,0.15809354186058044,0.6829268932342529,0.0,0.0,0.0,0.0,17012.0,8247.0,8853.0,17283.0,1.6655198335647583,0.04735258514133045,0.18715176854275145,0.017794096539336418,0.007648046128451824,0.012555992230772972,0.0
100,5,-1.3807100003759842e-05,-5.668256108037895e-06,-6.366844900185242e-05,0.0038918284699320793,0.0001964306429727003,0.019732531160116196,-0.005966306198388338,-0.1909944862127304,-0.000687045103404671,-0.0033937296830117702,0.005063106305897236,0.0005688732489943504,0.0,0.0,0.0,-0.000272238627076149,0.003560902550816536,-0.0,0.0,0.0,0.0,0.002079049590975046,0.05691220611333847,-9.877073171082884e-05,16952.0,8463.0,8722.0,17266.0,0.6572146415710449,0.14792737364768982,0.15809354186058044,0.6829268932342529,0.0,0.0,0.0,0.0,17012.0,8247.0,8853.0,17283.0,1.6644493341445923,0.03446354564557527,0.1862798603222881,0.01936385739766504,-0.01428175624459982,-0.0008399024954997003,-0.0
106,5,-1.490945305704372e-05,-1.5197080756479409e-05,-1.7575397578184493e-05,0.0014244490303099155,0.0012220311909914017,0.00236184592358768,-0.005930354818701744,-0.1909792721271515,-0.0006640240899287164,0.003335320157930255,-0.0014138560509309173,0.0008461898542009294,0.0,0.0,0.0,-0.000272238627076149,0.003560902550816536,-0.0,0.0,0.0,0.0,-0.0011359392665326595,0.05594678968191147,-5.44881186215207e-05,17339.0,9311.0,9030.0,17251.0,0.6890692114830017,0.18254022300243378,0.17066456377506256,0.6816944479942322,0.0,0.0,0.0,0.0,16980.0,8403.0,8791.0,17233.0,1.6644493341445923,0.034545281150489805,0.18622803432088064,0.019104461453482224,-0.01428175624459982,-0.0008399024954997003,-0.0
111,6,-7.4573681558831595e-06,-8.959238584793638e-06,1.6755466276663356e-05,0.001464029774069786,-0.00025972857838496566,-0.0031749652698636055,-0.005941271781921387,-0.1909559965133667,-0.0006539845489896834,-0.0009643781813792884,0.00039302551886066794,0.0023049640003591776,0.0,0.0,0.0,-0.001530620502308011,0.0013269205810502172,-0.0,0.0,0.0,0.0,0.003964147064834833,0.05839036405086517,-7.632011147507e-06,17131.0,8292.0,9138.0,17546.0,0.6718114018440247,0.14136698842048645,0.17516356706619263,0.7063621282577515,0.0,0.0,0.0,0.0,17144.0,8256.0,9146.0,17545.0,1.6448099613189697,0.03630698378086531,0.18631777949997125,0.01924592382353884,-0.005259105935692787,-0.004666502587497234,0.0
116,5,5.145425348018762e-06,-7.867193744459655e-06,-3.234651740058325e-05,0.002097947057336569,-0.0002349367568967864,0.004622252192348242,-0.005941271781921387,-0.1909559965133667,-0.0006539845489896834,-0.0009643781813792884,0.00039302551886066794,0.0023049640003591776,0.0,0.0,0.0,-0.001530620502308011,0.0013269205810502172,-0.0,0.0,0.0,0.0,0.003964147064834833,0.05839036405086517,-7.632011147507e-06,17131.0,8292.0,9138.0,17546.0,0.6718114018440247,0.14136698842048645,0.17516356706619263,0.7063621282577515,0.0,0.0,0.0,0.0,17144.0,8256.0,9146.0,17545.0,1.6448099613189697,0.03614238175561987,0.18643562869630267,0.018881971617032995,-0.005259105935692787,-0.004666502587497234,0.0
121,5,-2.7473814043332823e-05,9.579656762070954e-06,-1.2324251201789593e-06,-0.0030751298181712627,-0.0021875968668609858,-0.0018847903702408075,-0.005957308690994978,-0.19099809229373932,-0.0006296212668530643,6.358875543810427e-05,0.004692552145570517,0.002690223976969719,0.0,0.0,0.0,0.0002742634096648544,0.001989019801840186,-0.0,0.0,0.0,0.0,0.003958783112466335,0.0585748516023159,2.0391766156535596e-05,17144.0,8266.0,9127.0,17551.0,0.6728684902191162,0.14038865268230438,0.17470385134220123,0.706743061542511,0.0,0.0,0.0,0.0,17156.0,8354.0,8656.0,17367.0,1.6472662687301636,0.03556504736426192,0.18547743936930927,0.020140048564985243,-0.00789504311978817,0.0008374140597879887,0.0
128,7,-5.32325757376384e-05,-6.287023279583082e-05,0.0001897606998682022,-0.004507394973188639,0.0033425057772547007,-0.014627614058554173,-0.005957308690994978,-0.19099809229373932,-0.0006296212668530643,6.358875543810427e-05,0.004692552145570517,0.002690223976969719,0.0,0.0,0.0,0.0002742634096648544,0.001989019801840186,-0.0,0.0,0.0,0.0,0.003958783112466335,0.0585748516023159,2.0391766156535596e-05,17144.0,8266.0,9127.0,17551.0,0.6728684902191162,0.14038865268230438,0.17470385134220123,0.706743061542511,0.0,0.0,0.0,0.0,17156.0,8354.0,8656.0,17367.0,1.6472662687301636,0.046541339532477514,0.18688097560188002,0.017622550500068484,-0.00789504311978817,0.0008374140597879887,0.0
133,5,3.022981218236964e-06,-3.4062435588566586e-05,-4.941891529597342e-05,0.004947708919644356,-0.00211993302218616,0.022850507870316505,-0.005957308690994978,-0.19099809229373932,-0.0006296212668530643,6.358875543810427e-05,0.004692552145570517,0.002690223976969719,0.0,0.0,0.0,-0.004127220716327429,-0.004238482564687729,-0.0,0.0,0.0,0.0,0.003958783112466335,0.0585748516023159,2.0391766156535596e-05,17144.0,8266.0,9127.0,17551.0,0.6728684902191162,0.14038865268230438,0.17470385134220123,0.706743061542511,0.0,0.0,0.0,0.0,17156.0,8354.0,8656.0,17367.0,1.6837459802627563,0.0350360707752413,0.18656000871956682,0.018915636549333092,0.017196254804730415,-0.01288073230534792,0.0
138,5,-1.543103644507937e-05,-2.881089130823966e-05,4.809042820852483e-06,-0.0002353984455112368,-0.0014781586360186338,0.0026328484527766705,-0.005966728087514639,-0.19101636111736298,-0.0006354987272061408,-0.003354677464812994,0.006338757928460836,-0.0023949933238327503,0.0,0.0,0.0,-0.004127220716327429,-0.004238482564687729,-0.0,0.0,0.0,0.0,0.0013003299245610833,0.05798279121518135,-3.038536488020327e-05,17093.0,8326.0,8591.0,17237.0,0.6686670184135437,0.14266018569469452,0.15291430056095123,0.6805683970451355,0.0,0.0,0.0,0.0,17091.0,8311.0,8548.0,17266.0,1.6837459802627563,0.036489331957114075,0.18642377187258394,0.01888756241953908,0.017196254804730415,-0.01288073230534792,0.0
143,5,-2.188270809710957e-05,-1.5963532860041596e-05,-5.2843552111880854e-05,-0.0008683601045049727,-0.002132946625351906,0.007971450686454773,-0.005966728087514639,-0.19101636111736298,-0.0006354987272061408,-0.003354677464812994,0.006338757928460836,-0.0023949933238327503,0.0,0.0,0.0,0.0017705033533275127,-0.0002449686289764941,-0.0,0.0,0.0,0.0,0.0013003299245610833,0.05798279121518135,-3.038536488020327e-05,17093.0,8326.0,8591.0,17237.0,0.6686670184135437,0.14266018569469452,0.15291430056095123,0.6805683970451355,0.0,0.0,0.0,0.0,17091.0,8311.0,8548.0,17266.0,1.6405856609344482,0.03367020799689247,0.18584301814332374,0.019662033199807583,0.0009684130200184882,0.00538398465141654,-0.0
148,5,-1.2319357665546704e-05,-8.365098437934648e-06,-5.803170643048361e-05,0.0008002581307664514,-0.00176499062217772,0.0038111587055027485,-0.005975617095828056,-0.19103704392910004,-0.0006472684908658266,-0.0022378729190677404,0.0032212252262979746,-0.003786608809605241,0.0,0.0,0.0,0.0017705033533275127,-0.0002449686289764941,-0.0,0.0,0.0,0.0,0.001953059691004455,0.05836359038949013,-0.0001655414525885135,17045.0,8316.0,8538.0,17343.0,0.6647886633872986,0.14226287603378296,0.15083253383636475,0.6893821954727173,0.0,0.0,0.0,0.0,17078.0,8265.0,8615.0,17298.0,1.6405856609344482,0.033630014517782664,0.18556139928513712,0.019449527299323716,0.0009684130200184882,0.00538398465141654,-0.0
153,5,-3.5857028706232086e-05,1.0061326065624598e-05,-1.3403739103523549e-05,-0.0025044172070920467,-0.002917167264968157,-0.0038308927323669195,-0.005975617095828056,-0.19103704392910004,-0.0006472684908658266,-0.0022378729190677404,0.0032212252262979746,-0.003786608809605241,0.0,0.0,0.0,0.0021550492383539677,0.0007396627333946526,-0.0,0.0,0.0,0.0,0.001953059691004455,0.05836359038949013,-0.0001655414525885135,17045.0,8316.0,8538.0,17343.0,0.6647886633872986,0.14226287603378296,0.15083253383636475,0.6893821954727173,0.0,0.0,0.0,0.0,17078.0,8265.0,8615.0,17298.0,1.6452587842941284,0.03623358049252575,0.1859932108575753,0.01938501497062721,-0.00293237017467618,0.00657202722504735,0.0
158,5,-3.0134664484648965e-05,3.0340341254486702e-05,-3.163595465593971e-05,-0.0003150832490064204,-0.0036003487184643745,0.0006555089494213462,-0.0059526883997023106,-0.1910157948732376,-0.0006309281452558935,0.0017169255297631025,0.0004065794055350125,0.002023097826167941,0.0,0.0,0.0,0.0021550492383539677,0.0007396627333946526,-0.0,0.0,0.0,0.0,0.0005352907464839518,0.056426484137773514,-1.1534180885064416e-05,17169.0,8828.0,8925.0,17232.0,0.6749168038368225,0.1623629331588745,0.16630804538726807,0.6801581978797913,0.0,0.0,0.0,0.0,17156.0,8847.0,8887.0,17254.0,1.6452587842941284,0.034318531695038436,0.18542517792993854,0.020090236934872826,-0.00293237017467618,0.00657202722504735,0.0
163,5,-1.6819338270579465e-05,3.956137788918568e-06,-3.142626883345656e-05,0.001471805851906538,0.0017259649466723204,0.00023704103659838438,-0.0059526883997023106,-0.1910157948732376,-0.0006309281452558935,0.0017169255297631025,0.0004065794055350125,0.002023097826167941,0.0,0.0,0.0,0.004434215370565653,-0.0003364751173648983,-0.0,0.0,0.0,0.0,0.0005352907464839518,0.056426484137773514,-1.1534180885064416e-05,17169.0,8828.0,8925.0,17232.0,0.6749168038368225,0.1623629331588745,0.16630804538726807,0.6801581978797913,0.0,0.0,0.0,0.0,17156.0,8847.0,8887.0,17254.0,1.6629137992858887,0.03440727694956617,0.18588003450263754,0.019628493567081698,0.001348249614238739,0.013667606748640537,0.0
168,5,-5.211535608395934e-06,-1.6884145225048997e-05,7.017205007286975e-06,0.0019816586282104254,0.0031912201084196568,-0.00451840041205287,-0.005985153838992119,-0.1909719705581665,-0.0006980434409342706,-0.0005628620274364948,-0.011181875132024288,-0.014897179789841175,0.0,0.0,0.0,0.004434215370565653,-0.0003364751173648983,-0.0,0.0,0.0,0.0,0.0024130679666996002,0.05743159353733063,-0.0003987647360190749,16860.0,8524.0,8473.0,17378.0,0.6497592329978943,0.15027232468128204,0.14831779897212982,0.6922363638877869,0.0,0.0,0.0,0.0,17038.0,8155.0,8817.0,17209.0,1.6629137992858887,0.03679446343910672,0.18621730676690557,0.018906453705147735,0.001348249614238739,0.013667606748640537,0.0
173,5,1.570670406181307e-06,-7.652493513887748e-05,0.00015651802823413163,0.0016065281815826893,0.008433382958173752,-0.019747460260987282,-0.005985153838992119,-0.1909719705581665,-0.0006980434409342706,-0.0005628620274364948,-0.011181875132024288,-0.014897179789841175,0.0,0.0,0.0,-0.003910199273377657,0.0018459262792021036,-0.0,0.0,0.0,0.0,0.0024130679666996002,0.05743159353733063,-0.0003987647360190749,16860.0,8524.0,8473.0,17378.0,0.6497592329978943,0.15027232468128204,0.14831779897212982,0.6922363638877869,0.0,0.0,0.0,0.0,17038.0,8155.0,8817.0,17209.0,1.6640348434448242,0.046427822951668585,0.1879170410828676,0.016332109243926668,-0.007401591632515192,-0.012060570530593395,0.0
178,5,7.66166704124771e-06,-7.310225919354707e-05,0.00011027331493096426,0.0013735308311879635,0.0029626316390931606,-0.0023496178910136223,-0.005958531051874161,-0.19092635810375214,-0.0004086988919880241,-0.004661842714995146,0.004054758232086897,-0.01239522360265255,0.0,0.0,0.0,-0.003910199273377657,0.0018459262792021036,-0.0,0.0,0.0,0.0,0.0025916793383657932,0.05801350250840187,0.0004837789456360042,16933.0,8393.0,8500.0,17411.0,0.6556309461593628,0.14523129165172577,0.14934580028057098,0.6950507164001465,0.0,0.0,0.0,0.0,16122.0,9962.0,6534.0,18167.0,1.6640348434448242,0.04591489167728526,0.18868282520863866,0.01680446428703185,-0.007401591632515192,-0.012060570530593395,0.0
183,5,9.292866707255598e-07,-6.223993113962933e-05,0.00011674492998281494,-0.0002584733010735363,-0.00011842666572192684,-0.0017164405435323715,-0.005958531051874161,-0.19092635810375214,-0.0004086988919880241,-0.004661842714995146,0.004054758232086897,-0.01239522360265255,0.0,0.0,0.0,-0.003741829190403223,0.0012980458559468389,-0.0,0.0,0.0,0.0,0.0025916793383657932,0.05801350250840187,0.0004837789456360042,16933.0,8393.0,8500.0,17411.0,0.6556309461593628,0.14523129165172577,0.14934580028057098,0.6950507164001465,0.0,0.0,0.0,0.0,16122.0,9962.0,6534.0,18167.0,1.6599348783493042,0.046869531453781185,0.18814386476128753,0.01658451579677404,-0.005191941745579243,-0.011512819677591324,0.0
188,5,-2.0890494852210395e-05,-5.373564636101946e-05,0.00014210527297109365,-0.002721763215959072,-0.0010678846156224608,-0.003729818155989051,-0.005942612420767546,-0.1908833235502243,-0.0007439250475727022,-0.0013558786595240235,-0.010764408856630325,0.1084292009472847,0.0,0.0,0.0,-0.003741829190403223,0.0012980458559468389,-0.0,0.0,0.0,0.0,0.0030736036133021116,0.05755458027124405,0.0012958950828760862,17816.0,6267.0,10444.0,16540.0,0.7292910218238831,0.07501351833343506,0.234445720911026,0.6241635084152222,0.0,0.0,0.0,0.0,18133.0,5120.0,11037.0,16175.0,1.6599348783493042,0.0461162615838755,0.18735976852706582,0.01638248072528556,-0.005191941745579243,-0.011512819677591324,0.0
194,5,-1.6107784176710993e-05,-3.9173493860289454e-05,0.00012987121590413153,-0.0005147799383848906,-0.0021746123675256968,-2.3838852939661592e-05,-0.005942612420767546,-0.1908833235502243,-0.0007439250475727022,-0.0013558786595240235,-0.010764408856630325,0.1084292009472847,0.0,0.0,0.0,0.0012083951150998473,-0.0025877284351736307,-0.0,0.0,0.0,0.0,0.0030736036133021116,0.05755458027124405,0.0012958950828760862,17816.0,6267.0,10444.0,16540.0,0.7292910218238831,0.07501351833343506,0.234445720911026,0.6241635084152222,0.0,0.0,0.0,0.0,18133.0,5120.0,11037.0,16175.0,1.6554497480392456,0.04528912437600552,0.18699708979573662,0.016882539903286843,0.010322521440684795,0.0037079451140016317,0.0
199,5,-2.949757435999345e-05,-5.8566620282363147e-05,0.0001464164670323953,-0.0018126869108527899,0.0014573303051292896,-0.0019949674606323242,-0.006065734662115574,-0.19079723954200745,-0.0007232949719764292,-0.016219649463891983,0.002099311910569668,-0.2028593122959137,0.0,0.0,0.0,0.0012083951150998473,-0.0025877284351736307,-0.0,0.0,0.0,0.0,0.0005519530968740582,0.05747012048959732,0.0033594376873224974,15554.0,11256.0,4015.0,18785.0,0.5484406352043152,0.27559101581573486,0.025381609797477722,0.8146215081214905,0.0,0.0,0.0,0.0,16165.0,10366.0,6062.0,18276.0,1.6554497480392456,0.044520585962686945,0.18699020893971796,0.016530699262696395,0.010322521440684795,0.0037079451140016317,0.0
204,5,1.2267475995031418e-06,-9.657825285103172e-05,0.00017849031428340822,0.0029618439730256796,0.005144328344613314,-0.004646847955882549,-0.006065734662115574,-0.19079723954200745,-0.0007232949719764292,-0.016219649463891983,0.002099311910569668,-0.2028593122959137,0.0,0.0,0.0,-0.0018923096358776093,-0.001750487252138555,-0.0,0.0,0.0,0.0,0.0005519530968740582,0.05747012048959732,0.0033594376873224974,15554.0,11256.0,4015.0,18785.0,0.5484406352043152,0.27559101581573486,0.025381609797477722,0.8146215081214905,0.0,0.0,0.0,0.0,16165.0,10366.0,6062.0,18276.0,1.6502784490585327,0.043361424163663155,0.18598338251184812,0.015863140972382086,0.006960927043110132,-0.005788386333733797,0.0
209,5,8.688308298587799e-06,-9.859502461040393e-05,0.00012180795602034777,0.0020801248028874397,0.0022997441701591015,0.004943144042044878,-0.006003052927553654,-0.19062022864818573,-0.000710320717189461,0.015285142697393894,-0.030835261568427086,0.11380963027477264,0.0,0.0,0.0,-0.0018923096358776093,-0.001750487252138555,-0.0,0.0,0.0,0.0,0.0005519530968740582,0.05747012048959732,0.0033594376873224974,17983.0,6532.0,10259.0,16339.0,0.7436429858207703,0.08251455426216125,0.22550487518310547,0.6082724332809448,0.0,0.0,0.0,0.0,16820.0,9291.0,7833.0,17556.0,1.6502784490585327,0.043718033843427734,0.18740699974967415,0.016214812129951125,0.006960927043110132,-0.005788386333733797,0.0
214,5,1.0197060873906594e-05,-7.797258149366826e-05,0.0001779813610482961,0.0010131002636626363,-0.001554796239361167,-0.004763551522046328,-0.006003052927553654,-0.19062022864818573,-0.000710320717189461,0.015285142697393894,-0.030835261568427086,0.11380963027477264,0.0,0.0,0.0,-0.0029824296943843365,0.001963673159480095,-0.0,0.0,0.0,0.0,0.0005519530968740582,0.05747012048959732,0.0033594376873224974,17983.0,6532.0,10259.0,16339.0,0.7436429858207703,0.08251455426216125,0.22550487518310547,0.6082724332809448,0.0,0.0,0.0,0.0,16820.0,9291.0,7833.0,17556.0,1.6584184169769287,0.044973864705656,0.18754082855734705,0.016351738638021595,-0.007847169414162636,-0.00916793942451477,-0.0
219,5,-3.411486432014499e-06,-9.185065573547035e-05,0.0002926663728430867,-0.001227785600349307,0.0010434506693854928,-0.015667621046304703,-0.006105261854827404,-0.19058489799499512,-0.0014011741150170565,0.006427002605050802,0.0022999420762062073,0.007888459600508213,0.0,0.0,0.0,-0.0029824296943843365,0.001963673159480095,-0.0,0.0,0.0,0.0,0.0015013448428362608,0.057043880224227905,-0.0012147126253694296,17056.0,8356.0,8889.0,17243.0,0.6657152771949768,0.14381684362888336,0.16486673057079315,0.6810509562492371,0.0,0.0,0.0,0.0,17693.0,6912.0,10104.0,16546.0,1.6584184169769287,0.04334889776967965,0.18453569524543187,0.016240569981153377,-0.007847169414162636,-0.00916793942451477,-0.0
224,5,1.2588216122821905e-05,-5.54125290364027e-05,0.0002164405887015164,0.001428849995136261,-0.003955195192247629,0.002880045445635915,-0.006105261854827404,-0.19058489799499512,-0.0014011741150170565,0.006427002605050802,0.0022999420762062073,0.007888459600508213,0.0,0.0,0.0,-0.0014513033675029874,-0.0011679099407047033,-0.0,0.0,0.0,0.0,0.0015013448428362608,0.057043880224227905,-0.0012147126253694296,17056.0,8356.0,8889.0,17243.0,0.6657152771949768,0.14381684362888336,0.16486673057079315,0.6810509562492371,0.0,0.0,0.0,0.0,17693.0,6912.0,10104.0,16546.0,1.6430937051773071,0.045832331691294366,0.18654527592008466,0.01645829785053116,0.004624055232852697,-0.004420066252350807,0.0
229,5,1.1973952496191487e-05,-5.7054683566093445e-05,0.000169305523741059,0.000497828412335366,-0.0013850192772224545,0.006808226462453604,-0.0060150534845888615,-0.19044078886508942,-0.0011524048168212175,-0.021371811628341675,-0.0038153703790158033,-0.05847404524683952,0.0,0.0,0.0,-0.0014513033675029874,-0.0011679099407047033,-0.0,0.0,0.0,0.0,-0.0006029827054589987,0.05823088437318802,0.0011837529018521309,17550.0,7934.0,9130.0,16847.0,0.7067418694496155,0.12815526127815247,0.17482978105545044,0.6486915349960327,0.0,0.0,0.0,0.0,16700.0,9147.0,7891.0,17604.0,1.6430937051773071,0.045398906522362635,0.18699265229167822,0.016520599823686994,0.004624055232852697,-0.004420066252350807,0.0
234,5,-2.7566543394641485e-06,-4.485266617848538e-05,0.00022704606817569584,-0.001568541512824595,-0.0020182498265057802,-0.004205575678497553,-0.0060150534845888615,-0.19044078886508942,-0.0011524048168212175,-0.021371811628341675,-0.0038153703790158033,-0.05847404524683952,0.0,0.0,0.0,0.0016046640230342746,0.0004888109397143126,-0.0,0.0,0.0,0.0,-0.0006029827054589987,0.05823088437318802,0.0011837529018521309,17550.0,7934.0,9130.0,16847.0,0.7067418694496155,0.12815526127815247,0.17482978105545044,0.6486915349960327,0.0,0.0,0.0,0.0,16700.0,9147.0,7891.0,17604.0,1.6399788856506348,0.04400038730729422,0.18542405234841947,0.016949087804160233,-0.0019316591788083315,0.004877874162048101,-0.0
239,5,-5.2487957873381674e-05,-6.529220991069451e-05,0.00037862922181375325,-0.006595172919332981,0.0016454447759315372,-0.019872207194566727,-0.005685188341885805,-0.19046714901924133,-0.0010647058952599764,0.09221424162387848,-0.02291017770767212,0.04603419080376625,0.0,0.0,0.0,0.0016046640230342746,0.0004888109397143126,-0.0,0.0,0.0,0.0,0.0020524542778730392,0.051270950585603714,-0.0012242610100656748,16406.0,9495.0,9172.0,17015.0,0.613598644733429,0.1905343234539032,0.1766139268875122,0.6623468399047852,0.0,0.0,0.0,0.0,17042.0,8853.0,8555.0,17219.0,1.6399788856506348,0.04383606840170619,0.18333772305267118,0.016715120294398967,-0.0019316591788083315,0.004877874162048101,-0.0
244,5,-0.00011806830298155546,-5.232458715909161e-05,0.0004984199767932296,-0.01050771027803421,-0.0008979363483376801,-0.02232377789914608,-0.005685188341885805,-0.19046714901924133,-0.0010647058952599764,0.09221424162387848,-0.02291017770767212,0.04603419080376625,0.0,0.0,0.0,-0.0020784789230674505,-0.006124697159975767,-0.0,0.0,0.0,0.0,0.0020524542778730392,0.051270950585603714,-0.0012242610100656748,16406.0,9495.0,9172.0,17015.0,0.613598644733429,0.1905343234539032,0.1766139268875122,0.6623468399047852,0.0,0.0,0.0,0.0,17042.0,8853.0,8555.0,17219.0,1.6954540014266968,0.04030141877358407,0.17911461387881897,0.018381899332093957,0.02502181939780712,-0.006531901191920042,0.0
249,5,-0.000290529802441597,-8.566050382796675e-05,0.0007984007825143635,-0.024898463860154152,0.0036411357577890158,-0.0449272021651268,-0.005685188341885805,-0.19046714901924133,-0.0010647058952599764,0.09221424162387848,-0.02291017770767212,0.04603419080376625,0.0,0.0,0.0,-0.0020784789230674505,-0.006124697159975767,-0.0,0.0,0.0,0.0,0.0020524542778730392,0.051270950585603714,-0.0012242610100656748,16406.0,9495.0,9172.0,17015.0,0.613598644733429,0.1905343234539032,0.1766139268875122,0.6623468399047852,0.0,0.0,0.0,0.0,17042.0,8853.0,8555.0,17219.0,1.6954540014266968,0.03540323520037421,0.17300497041171747,0.018138252225352616,0.02502181939780712,-0.006531901191920042,0.0
254,5,-0.0003988232056144625,-4.521501614362933e-05,0.0010300824651494622,-0.02295459620654583,-0.0033970046788454056,-0.04577268287539482,-0.005749172531068325,-0.18868881464004517,-0.0013067526742815971,-0.042984239757061005,-0.28297021985054016,-0.01969117298722267,0.0,0.0,0.0,-0.0040569971315562725,-0.020979521796107292,-0.0,0.0,0.0,0.0,0.002929558278992772,0.03726276382803917,-0.00039623858174309134,15371.0,10949.0,10458.0,16364.0,0.5349475145339966,0.259623646736145,0.23510205745697021,0.610305666923523,0.0,0.0,0.0,0.0,16739.0,8866.0,10524.0,16243.0,1.8787615299224854,0.04514163912775504,0.1690508807718904,0.018860766459822688,0.09496940672397614,-0.014128067530691624,0.0
260,5,-0.0005300863413140178,-3.835239840555005e-05,0.0012564498465508223,-0.024933412671089172,-0.0021823160350322723,-0.045473165810108185,-0.005749172531068325,-0.18868881464004517,-0.0013067526742815971,-0.042984239757061005,-0.28297021985054016,-0.01969117298722267,0.0,0.0,0.0,-0.0040569971315562725,-0.020979521796107292,-0.0,0.0,0.0,0.0,0.002929558278992772,0.03726276382803917,-0.00039623858174309134,15371.0,10949.0,10458.0,16364.0,0.5349475145339966,0.259623646736145,0.23510205745697021,0.610305666923523,0.0,0.0,0.0,0.0,16739.0,8866.0,10524.0,16243.0,1.8787615299224854,0.04552583895691604,0.1622399246135275,0.01926509304203287,0.09496940672397614,-0.014128067530691624,0.0
265,5,-0.000686886312905699,-7.644637662451714e-05,0.0014247108483687043,-0.02878936566412449,0.003698351327329874,-0.03838058188557625,-0.005950316786766052,-0.17066733539104462,-0.0009422592120245099,0.05388980358839035,-1.412119746208191,0.06817187368869781,0.0,0.0,0.0,0.0022863545455038548,-0.021278703585267067,-0.0,0.0,0.0,0.0,0.0004178782692179084,0.018328452482819557,0.0012390209594741464,15340.0,11967.0,13333.0,14201.0,0.5327140688896179,0.3143159747123718,0.3958492875099182,0.4525746703147888,0.0,0.0,0.0,0.0,14851.0,11711.0,10550.0,16268.0,1.880630373954773,0.045811138938817046,0.1548460450444139,0.01819464368452188,0.09641988575458527,0.007969937287271023,0.0
270,5,-0.0009482905734330416,-0.00016763761232141405,0.001734566641971469,-0.042884256690740585,0.01242228876799345,-0.05253492668271065,-0.005950316786766052,-0.17066733539104462,-0.0009422592120245099,0.05388980358839035,-1.412119746208191,0.06817187368869781,0.0,0.0,0.0,0.0022863545455038548,-0.021278703585267067,-0.0,0.0,0.0,0.0,0.0004178782692179084,0.018328452482819557,0.0012390209594741464,15340.0,11967.0,13333.0,14201.0,0.5327140688896179,0.3143159747123718,0.3958492875099182,0.4525746703147888,0.0,0.0,0.0,0.0,14851.0,11711.0,10550.0,16268.0,1.880630373954773,0.04322621588001864,0.1437072922454822,0.01801810313814146,0.09641988575458527,0.007969937287271023,0.0
275,5,-0.00042559689609333873,-0.00059040094492957,0.00042006425792351365,0.04556954279541969,0.05570051819086075,0.13672631978988647,-0.0049536875449121,-0.1565089374780655,-0.0008944427245296538,0.18541882932186127,-2.0795445442199707,-0.032153114676475525,0.0,0.0,0.0,0.0022863545455038548,-0.021278703585267067,-0.0,0.0,0.0,0.0,-0.0016128842253237963,-0.003973085433244705,-0.0011679183226078749,13148.0,14605.0,13697.0,13583.0,0.38428130745887756,0.4802095592021942,0.4191632568836212,0.4117998778820038,0.0,0.0,0.0,0.0,14928.0,12597.0,13577.0,13867.0,1.880630373954773,0.0049249916257992415,0.13990399693971914,0.006834355796717372,0.09641988575458527,0.007969937287271023,0.0
280,5,-0.0007573857437819242,-0.0006618463085033,0.0008248024387285113,-0.02158684842288494,0.030853649601340294,0.00612194137647748,-0.0049536875449121,-0.1565089374780655,-0.0008944427245296538,0.18541882932186127,-2.0795445442199707,-0.032153114676475525,0.0,0.0,0.0,-0.04980672895908356,0.030459709465503693,-0.0,0.0,0.0,0.0,-0.0016128842253237963,-0.003973085433244705,-0.0011679183226078749,13148.0,14605.0,13697.0,13583.0,0.38428130745887756,0.4802095592021942,0.4191632568836212,0.4117998778820038,0.0,0.0,0.0,0.0,14928.0,12597.0,13577.0,13867.0,2.299481153488159,0.004018268234140529,0.1294428006265327,0.006113370952002905,-0.1685394048690796,-0.21212902665138245,-0.0
285,5,-0.0011068282183259726,-0.000727188540622592,0.0012239632196724415,-0.050567835569381714,0.020182523876428604,-0.045450516045093536,-0.0023401007056236267,-0.12800343334674835,-0.00019814606639556587,0.24681416153907776,-2.618861436843872,0.07003471255302429,0.0,0.0,0.0,-0.04980672895908356,0.030459709465503693,-0.0,0.0,0.0,0.0,-0.0044180708937346935,-0.028161313384771347,0.0021198743488639593,13099.0,16040.0,16825.0,11099.0,0.38123077154159546,0.585135281085968,0.6468971967697144,0.2673671841621399,0.0,0.0,0.0,0.0,13618.0,15634.0,15524.0,12818.0,2.299481153488159,0.004580497899936281,0.11663436019614357,0.005703272389746662,-0.1685394048690796,-0.21212902665138245,-0.0
290,5,-0.001462079118937254,-0.0008387398556806147,0.0015435722889378667,-0.0628572404384613,0.021459169685840607,-0.05653329938650131,-0.0023401007056236267,-0.12800343334674835,-0.00019814606639556587,0.24681416153907776,-2.618861436843872,0.07003471255302429,0.0,0.0,0.0,-0.019892321899533272,-0.03759379684925079,-0.0,0.0,0.0,0.0,-0.0044180708937346935,-0.028161313384771347,0.0021198743488639593,13099.0,16040.0,16825.0,11099.0,0.38123077154159546,0.585135281085968,0.6468971967697144,0.2673671841621399,0.0,0.0,0.0,0.0,13618.0,15634.0,15524.0,12818.0,2.161571502685547,0.0006752037387641825,0.10220682619933902,0.005555659806614617,0.1957264095544815,-0.07969142496585846,0.0
295,5,-0.0016314703971147537,-0.0008252495317719877,0.0016167144058272243,-0.045469850301742554,0.006964826490730047,-0.03139036148786545,-0.00037573929876089096,-0.10595297813415527,-0.00025300835841335356,0.2521553337574005,-2.8179056644439697,0.012962142936885357,0.0,0.0,0.0,-0.019892321899533272,-0.03759379684925079,-0.0,0.0,0.0,0.0,-0.003213530406355858,-0.04368733614683151,-0.0001833632413763553,15395.0,18359.0,16602.0,12704.0,0.5367395877838135,0.7765123844146729,0.6290420293807983,0.3571871519088745,0.0,0.0,0.0,0.0,12278.0,16637.0,16531.0,11587.0,2.161571502685547,0.0038708682153577715,0.0901599628195112,0.006790399546464359,0.1957264095544815,-0.07969142496585846,0.0
300,5,-0.00187500671017915,-0.0008805263205431402,0.0018860737327486277,-0.04741230234503746,0.009419146925210953,-0.04487927258014679,-0.00037573929876089096,-0.10595297813415527,-0.00025300835841335356,0.2521553337574005,-2.8179056644439697,0.012962142936885357,0.0,0.0,0.0,-0.007908868603408337,-0.03561703860759735,-0.0,0.0,0.0,0.0,-0.003213530406355858,-0.04368733614683151,-0.0001833632413763553,15395.0,18359.0,16602.0,12704.0,0.5367395877838135,0.7765123844146729,0.6290420293807983,0.3571871519088745,0.0,0.0,0.0,0.0,12278.0,16637.0,16531.0,11587.0,2.0919950008392334,0.0024919073514289834,0.07503044721731983,0.007150788842380671,0.17950020730495453,-0.03066728264093399,0.0
305,5,-0.002112588146701455,-0.0009271123562939465,0.0020933777559548616,-0.0474747009575367,0.00935798604041338,-0.042828191071748734,0.002251378493383527,-0.07292540371417999,0.00024373338965233415,0.1996353715658188,-2.661015033721924,0.020792072638869286,0.0,0.0,0.0,-0.007908868603408337,-0.03561703860759735,-0.0,0.0,0.0,0.0,-0.018934760242700577,-0.03148416057229042,0.0009180923807434738,15103.0,18597.0,17014.0,12138.0,0.5154955387115479,0.7977182865142822,0.6622575521469116,0.3240097463130951,0.0,0.0,0.0,0.0,15571.0,18235.0,17080.0,12006.0,2.0919950008392334,0.002857944001730802,0.06499885734325755,0.006262676830906031,0.17950020730495453,-0.03066728264093399,0.0
310,5,-0.0023121025878936052,-0.0009804971050471067,0.0023297991137951612,-0.04293159767985344,0.010149357840418816,-0.04550182819366455,0.002251378493383527,-0.07292540371417999,0.00024373338965233415,0.1996353715658188,-2.661015033721924,0.020792072638869286,0.0,0.0,0.0,-0.01023085042834282,-0.037136323750019073,-0.0,0.0,0.0,0.0,-0.018934760242700577,-0.03148416057229042,0.0009180923807434738,15103.0,18597.0,17014.0,12138.0,0.5154955387115479,0.7977182865142822,0.6622575521469116,0.3240097463130951,0.0,0.0,0.0,0.0,15571.0,18235.0,17080.0,12006.0,2.120190143585205,0.002463199396415077,0.05500319523000776,0.005957873007877828,0.18967194855213165,-0.04020512104034424,0.0
316,5,-0.0024630865082144737,-0.0010136377532035112,0.002524526324123144,-0.03529070317745209,0.008036624640226364,-0.04156801477074623,0.003267294494435191,-0.053310371935367584,0.00026655339752323925,0.027118531987071037,-2.2823574542999268,0.04899096488952637,0.0,0.0,0.0,-0.01023085042834282,-0.037136323750019073,-0.0,0.0,0.0,0.0,-0.008144632913172245,-0.051815785467624664,0.0010282793082296848,12962.0,18330.0,18293.0,10642.0,0.3727759122848511,0.7739430069923401,0.7707138657569885,0.24413877725601196,0.0,0.0,0.0,0.0,12506.0,18808.0,17864.0,11073.0,2.120190143585205,0.000922263082642269,0.04551594063293974,0.0068489342012091805,0.18967194855213165,-0.04020512104034424,0.0
321,5,-0.002639071550220251,-0.0011015345808118582,0.0027634238358587027,-0.035234492272138596,0.013762266375124454,-0.045294906944036484,0.003267294494435191,-0.053310371935367584,0.00026655339752323925,0.027118531987071037,-2.2823574542999268,0.04899096488952637,0.0,0.0,0.0,-0.009568526409566402,-0.03006480634212494,-0.0,0.0,0.0,0.0,-0.008144632913172245,-0.051815785467624664,0.0010282793082296848,12962.0,18330.0,18293.0,10642.0,0.3727759122848511,0.7739430069923401,0.7707138657569885,0.24413877725601196,0.0,0.0,0.0,0.0,12506.0,18808.0,17864.0,11073.0,2.0145812034606934,-0.0014765390028989521,0.039233838674264165,0.005631108992843921,0.14591830968856812,-0.03572945296764374,0.0
326,5,-0.0026364405639469624,-0.0011151991784572601,0.002827115124091506,-0.013778075575828552,0.007144656963646412,-0.025760916993021965,0.0024313328322023153,-0.029656589031219482,0.0006484091863967478,-0.13821503520011902,-1.6347142457962036,0.00946402084082365,0.0,0.0,0.0,-0.009568526409566402,-0.03006480634212494,-0.0,0.0,0.0,0.0,-0.0013940285425633192,-0.0412520132958889,0.00036640733014792204,12511.0,17566.0,17646.0,12128.0,0.3457029461860657,0.7080368995666504,0.7148028612136841,0.323452353477478,0.0,0.0,0.0,0.0,12631.0,17728.0,18258.0,10755.0,2.0145812034606934,-0.0014646117052326377,0.03212905114921339,0.006408552397122386,0.14591830968856812,-0.03572945296764374,0.0
331,5,-0.0026502544060349464,-0.0011620086152106524,0.0029229135252535343,-0.0071688867174088955,0.008474995382130146,-0.021800175309181213,0.0024313328322023153,-0.029656589031219482,0.0006484091863967478,-0.13821503520011902,-1.6347142457962036,0.00946402084082365,0.0,0.0,0.0,-0.009755651466548443,-0.015081184916198254,-0.0,0.0,0.0,0.0,-0.0013940285425633192,-0.0412520132958889,0.00036640733014792204,12511.0,17566.0,17646.0,12128.0,0.3457029461860657,0.7080368995666504,0.7148028612136841,0.323452353477478,0.0,0.0,0.0,0.0,12631.0,17728.0,18258.0,10755.0,1.822067141532898,-0.00363656572628209,0.02730339748648681,0.006811416856040767,0.06620863080024719,-0.03294706344604492,0.0
336,5,-0.0027327504940330982,-0.001202685758471489,0.003077630652114749,-0.01276710070669651,0.008271263912320137,-0.02728610672056675,0.001038749935105443,-0.020443584769964218,0.0008722063503228128,-0.18646810948848724,-0.7329438328742981,0.06514932960271835,0.0,0.0,0.0,-0.009755651466548443,-0.015081184916198254,-0.0,0.0,0.0,0.0,-0.00048423887346871197,-0.02443571761250496,0.0015856892568990588,14250.0,15626.0,16702.0,12881.0,0.4559086263179779,0.5537932515144348,0.6370242238044739,0.36785516142845154,0.0,0.0,0.0,0.0,13098.0,17354.0,17293.0,12811.0,1.822067141532898,-0.005222251393441391,0.024510218470067978,0.007182868284643144,0.06620863080024719,-0.03294706344604492,0.0
341,5,-0.0027892300859093666,-0.0012112738331779838,0.0031934352591633797,-0.011884390376508236,0.0043390667997300625,-0.024810995906591415,0.001038749935105443,-0.020443584769964218,0.0008722063503228128,-0.18646810948848724,-0.7329438328742981,0.06514932960271835,0.0,0.0,0.0,-0.011159790679812431,-0.014352652244269848,-0.0,0.0,0.0,0.0,-0.00048423887346871197,-0.02443571761250496,0.0015856892568990588,14250.0,15626.0,16702.0,12881.0,0.4559086263179779,0.5537932515144348,0.6370242238044739,0.36785516142845154,0.0,0.0,0.0,0.0,13098.0,17354.0,17293.0,12811.0,1.8205395936965942,-0.002637516405982452,0.025388556478896613,0.008690831898721342,0.06295674294233322,-0.037657227367162704,0.0
346,5,-0.0028345263563096523,-0.0012230256106704473,0.003376931417733431,-0.010189305059611797,0.0031458467710763216,-0.03194393962621689,-0.0013000410981476307,-0.017134275287389755,0.0013653096975758672,-0.17970900237560272,0.1071426048874855,0.024271676316857338,0.0,0.0,0.0,-0.011159790679812431,-0.014352652244269848,-0.0,0.0,0.0,0.0,0.00030520500149577856,-0.0023210037034004927,0.0007397308945655823,15151.0,14668.0,15241.0,14682.0,0.5189303755760193,0.48462149500846863,0.5254287123680115,0.48560068011283875,0.0,0.0,0.0,0.0,14530.0,15312.0,16345.0,13400.0,1.8205395936965942,-0.0031029862853259706,0.02643071445126394,0.009659960166694669,0.06295674294233322,-0.037657227367162704,0.0
351,5,-0.0028624923434108496,-0.0012536387657746673,0.003486943431198597,-0.007431654259562492,0.004931920673698187,-0.02597903460264206,-0.0013000410981476307,-0.017134275287389755,0.0013653096975758672,-0.17970900237560272,0.1071426048874855,0.024271676316857338,0.0,0.0,0.0,-0.005630292929708958,-0.01257332507520914,-0.0,0.0,0.0,0.0,0.00030520500149577856,-0.0023210037034004927,0.0007397308945655823,15151.0,14668.0,15241.0,14682.0,0.5189303755760193,0.48462149500846863,0.5254287123680115,0.48560068011283875,0.0,0.0,0.0,0.0,14530.0,15312.0,16345.0,13400.0,1.7777888774871826,-0.003949630658296304,0.028682072047624754,0.010587304056085012,0.05385969951748848,-0.01855306141078472,0.0
356,5,-0.0029052814934402704,-0.0012408114271238446,0.00365279708057642,-0.008107343688607216,0.0004334845289122313,-0.030294032767415047,-0.002764541655778885,-0.020342646166682243,0.0016043686773627996,-0.17800486087799072,0.5831531286239624,0.027341224253177643,0.0,0.0,0.0,-0.005630292929708958,-0.01257332507520914,-0.0,0.0,0.0,0.0,0.0008612765232101083,0.016208039596676826,0.0009684329270385206,15578.0,12646.0,13446.0,15097.0,0.5502628087997437,0.3536984324455261,0.4030311703681946,0.5150747299194336,0.0,0.0,0.0,0.0,14989.0,13365.0,13943.0,14623.0,1.7777888774871826,-0.0013441151278639572,0.03277238294056484,0.011827960641938076,0.05385969951748848,-0.01855306141078472,0.0
361,5,-0.0028510047122836113,-0.0012567436788231134,0.003699891036376357,0.003270266577601433,0.0020852612797170877,-0.01776890456676483,-0.002764541655778885,-0.020342646166682243,0.0016043686773627996,-0.17800486087799072,0.5831531286239624,0.027341224253177643,0.0,0.0,0.0,-0.0026122271083295345,-0.011002320796251297,-0.0,0.0,0.0,0.0,0.0008612765232101083,0.016208039596676826,0.0009684329270385206,15578.0,12646.0,13446.0,15097.0,0.5502628087997437,0.3536984324455261,0.4030311703681946,0.5150747299194336,0.0,0.0,0.0,0.0,14989.0,13365.0,13943.0,14623.0,1.7521662712097168,0.0016203247797969237,0.03687085848399661,0.012700059199944935,0.046451665461063385,-0.008483868092298508,0.0
366,5,-0.0027555685956031084,-0.0013013171264901757,0.003685460891574621,0.012760437093675137,0.006182923913002014,-0.005375931970775127,-0.004821878392249346,-0.02798384800553322,0.0017004288965836167,-0.18477874994277954,0.6670772433280945,0.0031332995276898146,0.0,0.0,0.0,-0.0026122271083295345,-0.011002320796251297,-0.0,0.0,0.0,0.0,0.000757670437451452,0.021065624430775642,0.0001219473488163203,15638.0,12519.0,12883.0,15598.0,0.5547347068786621,0.3461337685585022,0.3679465651512146,0.5517245531082153,0.0,0.0,0.0,0.0,15624.0,12550.0,13137.0,15375.0,1.7521662712097168,0.0054058224735298544,0.040707791553997334,0.012550068703416862,0.046451665461063385,-0.008483868092298508,0.0
372,5,-0.002753805834800005,-0.0013422840274870396,0.0037392904050648212,0.005315706133842468,0.007389196194708347,-0.008609921671450138,-0.004821878392249346,-0.02798384800553322,0.0017004288965836167,-0.18477874994277954,0.6670772433280945,0.0031332995276898146,0.0,0.0,0.0,-0.009392154403030872,0.007756354287266731,-0.0,0.0,0.0,0.0,0.000757670437451452,0.021065624430775642,0.0001219473488163203,15638.0,12519.0,12883.0,15598.0,0.5547347068786621,0.3461337685585022,0.3679465651512146,0.5517245531082153,0.0,0.0,0.0,0.0,15624.0,12550.0,13137.0,15375.0,1.7452131509780884,0.003879426477199313,0.04357592076052005,0.012130383221306752,-0.03261628746986389,-0.03038160130381584,0.0
377,5,-0.0019138696370646358,-0.0014890762977302074,0.002415946451947093,0.10291863977909088,0.02057074010372162,0.15535731613636017,-0.006345516070723534,-0.03242881968617439,0.0018794047646224499,-0.21957702934741974,0.43828535079956055,0.023859411478042603,0.0,0.0,0.0,-0.009392154403030872,0.007756354287266731,-0.0,0.0,0.0,0.0,0.0036900939885526896,0.018627997487783432,0.0007942917291074991,15282.0,12203.0,13393.0,15191.0,0.5284731388092041,0.3277561068534851,0.3996933102607727,0.5218663215637207,0.0,0.0,0.0,0.0,15498.0,12034.0,13089.0,15369.0,1.7452131509780884,-0.02011701055193836,0.04579788492124797,0.006068079516069985,-0.03261628746986389,-0.03038160130381584,0.0
382,5,-0.0018329748418182135,-0.0014567137695848942,0.002351955743506551,0.05087482929229736,0.00434480095282197,0.0698218047618866,-0.006345516070723534,-0.03242881968617439,0.0018794047646224499,-0.21957702934741974,0.43828535079956055,0.023859411478042603,0.0,0.0,0.0,-0.018115228042006493,0.06130443513393402,-0.0,0.0,0.0,0.0,0.0036900939885526896,0.018627997487783432,0.0007942917291074991,15282.0,12203.0,13393.0,15191.0,0.5284731388092041,0.3277561068534851,0.3996933102607727,0.5218663215637207,0.0,0.0,0.0,0.0,15498.0,12034.0,13089.0,15369.0,2.542818546295166,-0.020406611842822244,0.04563282780346648,0.006468342452762816,-0.37533220648765564,-0.08537379652261734,-0.0
387,5,-0.0018077305285260081,-0.0014506075531244278,0.0023564810398966074,0.023379245772957802,0.0010051701683551073,0.027385668829083443,-0.008845601230859756,-0.03520580381155014,0.0021761911921203136,-0.23072674870491028,0.02613191306591034,0.03534381091594696,0.0,0.0,0.0,-0.018115228042006493,0.06130443513393402,-0.0,0.0,0.0,0.0,0.005323262419551611,0.009908935986459255,0.0009084855555556715,14623.0,12521.0,14157.0,14527.0,0.4815199375152588,0.34626632928848267,0.44957607984542847,0.4748038947582245,0.0,0.0,0.0,0.0,15016.0,12318.0,13990.0,14358.0,2.542818546295166,-0.021200541464124575,0.044086053862132456,0.006987236104979701,-0.37533220648765564,-0.08537379652261734,-0.0
392,5,-0.001952761085703969,-0.0013776719570159912,0.0024937582202255726,-0.00932556763291359,-0.005909421481192112,-0.008124814368784428,-0.008845601230859756,-0.03520580381155014,0.0021761911921203136,-0.23072674870491028,0.02613191306591034,0.03534381091594696,0.0,0.0,0.0,-0.0034703626297414303,0.01757005602121353,-0.0,0.0,0.0,0.0,0.005323262419551611,0.009908935986459255,0.0009084855555556715,14623.0,12521.0,14157.0,14527.0,0.4815199375152588,0.34626632928848267,0.44957607984542847,0.4748038947582245,0.0,0.0,0.0,0.0,15016.0,12318.0,13990.0,14358.0,1.833868145942688,-0.02530298757958081,0.037707341412336934,0.007845871927154163,-0.07763690501451492,-0.01179641205817461,-0.0
397,5,-0.001952761085703969,-0.0013776719570159912,0.0024937582202255726,-0.00932556763291359,-0.005909421481192112,-0.008124814368784428,-0.010308794677257538,-0.03371294587850571,0.00261117541231215,-0.1917565017938614,-0.37225595116615295,0.03837288171052933,0.0,0.0,0.0,-0.0034703626297414303,0.01757005602121353,-0.0,0.0,0.0,0.0,0.003330327570438385,0.004869652912020683,0.0013750798534601927,14473.0,12961.0,14346.0,13999.0,0.47107234597206116,0.3727329671382904,0.46238771080970764,0.4390201270580292,0.0,0.0,0.0,0.0,17852.0,15325.0,16053.0,17382.0,1.833868145942688,-0.02530298757958081,0.037707341412336934,0.007845871927154163,-0.07763690501451492,-0.01179641205817461,-0.0
402,5,-0.0020296028815209866,-0.0013278714613988996,0.0025271126069128513,-0.012951262295246124,-0.00833983812481165,-0.007252435199916363,-0.010308794677257538,-0.03371294587850571,0.00261117541231215,-0.1917565017938614,-0.37225595116615295,0.03837288171052933,0.0,0.0,0.0,0.0044681113213300705,-0.010836842469871044,-0.0,0.0,0.0,0.0,0.003330327570438385,0.004869652912020683,0.0013750798534601927,14473.0,12961.0,14346.0,13999.0,0.47107234597206116,0.3727329671382904,0.46238771080970764,0.4390201270580292,0.0,0.0,0.0,0.0,17852.0,15325.0,16053.0,17382.0,1.7543840408325195,-0.0262269072227097,0.03440415469316513,0.00792122603664279,0.045810651034116745,0.014529630541801453,0.0
407,5,-0.0021212149877101183,-0.001272906782105565,0.0025448210071772337,-0.01617395505309105,-0.009931686334311962,-0.005025997757911682,-0.012013639323413372,-0.027634641155600548,0.0028584932442754507,-0.1263217180967331,-0.640255331993103,0.0027351384051144123,0.0,0.0,0.0,0.0044681113213300705,-0.010836842469871044,-0.0,0.0,0.0,0.0,0.00018735929916147143,0.012930506840348244,0.0004653385258279741,17433.0,15877.0,16128.0,17246.0,0.6968793869018555,0.5727403163909912,0.5919020175933838,0.6812968254089355,0.0,0.0,0.0,0.0,13977.0,13973.0,15022.0,14153.0,1.7543840408325195,-0.027816223075086022,0.030147817113558028,0.008377811878562734,0.045810651034116745,0.014529630541801453,0.0
412,5,-0.0022509268019348383,-0.001130408956669271,0.0025948379188776016,-0.013370468281209469,-0.013360118493437767,-0.004511659033596516,-0.012013639323413372,-0.027634641155600548,0.0028584932442754507,-0.1263217180967331,-0.640255331993103,0.0027351384051144123,0.0,0.0,0.0,0.0044681113213300705,-0.010836842469871044,-0.0,0.0,0.0,0.0,0.00018735929916147143,0.012930506840348244,0.0004653385258279741,17433.0,15877.0,16128.0,17246.0,0.6968793869018555,0.5727403163909912,0.5919020175933838,0.6812968254089355,0.0,0.0,0.0,0.0,13977.0,13973.0,15022.0,14153.0,1.7543840408325195,-0.028271416637500126,0.022772918972764285,0.008322175786365222,0.045810651034116745,0.014529630541801453,0.0
417,5,-0.0022509268019348383,-0.001130408956669271,0.0025948379188776016,-0.013370468281209469,-0.013360118493437767,-0.004511659033596516,-0.012824684381484985,-0.021663375198841095,0.0030053260270506144,-0.07023849338293076,-0.8378193974494934,0.000932017108425498,0.0,0.0,0.0,0.01293128076940775,-0.014215373434126377,-0.0,0.0,0.0,0.0,0.004062997177243233,-0.007520545739680529,0.0004872207064181566,13598.0,14459.0,15166.0,13875.0,0.41278135776519775,0.47017204761505127,0.5200546979904175,0.4308600425720215,0.0,0.0,0.0,0.0,13500.0,14474.0,15392.0,13706.0,1.8285257816314697,-0.028271416637500126,0.022772918972764285,0.008322175786365222,0.06262681633234024,0.04382573440670967,0.0
422,5,-0.0025920369662344456,-0.0011202363530173898,0.003091550664976239,-0.02488967776298523,-0.005394339561462402,-0.02957867830991745,-0.012824684381484985,-0.021663375198841095,0.0030053260270506144,-0.07023849338293076,-0.8378193974494934,0.000932017108425498,0.0,0.0,0.0,0.01293128076940775,-0.014215373434126377,-0.0,0.0,0.0,0.0,0.004062997177243233,-0.007520545739680529,0.0004872207064181566,13598.0,14459.0,15166.0,13875.0,0.41278135776519775,0.47017204761505127,0.5200546979904175,0.4308600425720215,0.0,0.0,0.0,0.0,13500.0,14474.0,15392.0,13706.0,1.8285257816314697,-0.0275466560112457,0.01236845319370379,0.007260838068484511,0.06262681633234024,0.04382573440670967,0.0
427,5,-0.002702113473787904,-0.0010737067786976695,0.00316866347566247,-0.023165035992860794,-0.0077412850223481655,-0.021084997802972794,-0.013773361220955849,-0.01090596616268158,0.0031031067483127117,-0.05724085494875908,-0.9104611277580261,-0.009025012142956257,0.0,0.0,0.0,0.003954571671783924,-0.023395493626594543,-0.0,0.0,0.0,0.0,0.006474050227552652,-0.0203702449798584,0.0002081473940052092,11973.0,14987.0,15795.0,12852.0,0.3146459460258484,0.507175862789154,0.5664800405502319,0.3660821318626404,0.0,0.0,0.0,0.0,12175.0,14867.0,15810.0,12784.0,1.9107813835144043,-0.027774377615046433,0.008710083544420644,0.007179748181420767,0.10770902782678604,0.014006092213094234,0.0
432,5,-0.0027842880226671696,-0.0010334207909181714,0.003208694513887167,-0.019126979634165764,-0.007930837571620941,-0.01323771383613348,-0.013773361220955849,-0.01090596616268158,0.0031031067483127117,-0.05724085494875908,-0.9104611277580261,-0.009025012142956257,0.0,0.0,0.0,0.003954571671783924,-0.023395493626594543,-0.0,0.0,0.0,0.0,0.006474050227552652,-0.0203702449798584,0.0002081473940052092,11973.0,14987.0,15795.0,12852.0,0.3146459460258484,0.507175862789154,0.5664800405502319,0.3660821318626404,0.0,0.0,0.0,0.0,12175.0,14867.0,15810.0,12784.0,1.9107813835144043,-0.027128086727664185,0.005887581566734278,0.006981865492853242,0.10770902782678604,0.014006092213094234,0.0
438,5,-0.0029303908813744783,-0.0009685897384770215,0.003282889723777771,-0.02518313191831112,-0.010952056385576725,-0.014198532328009605,-0.013925918377935886,-0.004386508837342262,0.0032250878866761923,-0.014929870143532753,-0.7639774680137634,0.007858995348215103,0.0,0.0,0.0,0.006942459847778082,-0.019403737038373947,-0.0,0.0,0.0,0.0,0.004256805870682001,-0.019891779869794846,0.0007210703333839774,12399.0,14938.0,16245.0,13156.0,0.3390859067440033,0.5036786198616028,0.6009988784790039,0.38476237654685974,0.0,0.0,0.0,0.0,12651.0,14802.0,16266.0,13045.0,1.864437222480774,-0.027653469928002626,0.004563616127037041,0.006714299599113658,0.08716604113578796,0.02399182878434658,0.0
443,5,-0.0030676599126309156,-0.0009698930662125349,0.0033394808415323496,-0.026545526459813118,-0.00422442564740777,-0.012470346875488758,-0.013925918377935886,-0.004386508837342262,0.0032250878866761923,-0.014929870143532753,-0.7639774680137634,0.007858995348215103,0.0,0.0,0.0,0.006942459847778082,-0.019403737038373947,-0.0,0.0,0.0,0.0,0.004256805870682001,-0.019891779869794846,0.0007210703333839774,12399.0,14938.0,16245.0,13156.0,0.3390859067440033,0.5036786198616028,0.6009988784790039,0.38476237654685974,0.0,0.0,0.0,0.0,12651.0,14802.0,16266.0,13045.0,1.864437222480774,-0.029000870515107427,0.0008903513037725552,0.006678902072780124,0.08716604113578796,0.02399182878434658,0.0
448,5,-0.0030647041276097298,-0.0008917318773455918,0.0031470225658267736,-0.01026353519409895,-0.011069110594689846,0.01810685731470585,-0.013480495661497116,0.0033985734917223454,0.003543299390003085,0.07856424897909164,-0.5246947407722473,0.012222503311932087,0.0,0.0,0.0,0.002915005898103118,-0.0250393133610487,-0.0,0.0,0.0,0.0,0.0034130539279431105,-0.012382861226797104,0.0007409888785332441,13172.0,15378.0,16266.0,13190.0,0.3857840299606323,0.5354705452919006,0.6025993824005127,0.38692742586135864,0.0,0.0,0.0,0.0,13305.0,15314.0,16067.0,13377.0,1.9319831132888794,-0.025702064986205884,0.002079467863517839,0.007033068775199092,0.1165548712015152,0.01043879147619009,0.0
453,5,-0.0031114083249121904,-0.0008897727821022272,0.0030656871385872364,-0.009709899313747883,-0.00466273445636034,0.017003003507852554,-0.013480495661497116,0.0033985734917223454,0.003543299390003085,0.07856424897909164,-0.5246947407722473,0.012222503311932087,0.0,0.0,0.0,0.002915005898103118,-0.0250393133610487,-0.0,0.0,0.0,0.0,0.0034130539279431105,-0.012382861226797104,0.0007409888785332441,13172.0,15378.0,16266.0,13190.0,0.3857840299606323,0.5354705452919006,0.6025993824005127,0.38692742586135864,0.0,0.0,0.0,0.0,13305.0,15314.0,16067.0,13377.0,1.9319831132888794,-0.02395966483109982,0.0009892758259467534,0.0075563591650244216,0.1165548712015152,0.01043879147619009,0.0
458,5,-0.003175765974447131,-0.0008811004227027297,0.0030782250687479973,-0.011606888845562935,-0.002905778121203184,0.005296644754707813,-0.012529422529041767,0.006212037056684494,0.00362449255771935,0.15885283052921295,-0.19585323333740234,0.024338077753782272,0.0,0.0,0.0,0.0038098378572613,-0.012563933618366718,-0.0,0.0,0.0,0.0,0.0009885672479867935,-0.005949585698544979,0.000465257529867813,13766.0,14605.0,15671.0,13451.0,0.42366456985473633,0.4802672564983368,0.5571672916412354,0.40333807468414307,0.0,0.0,0.0,0.0,13999.0,14434.0,15517.0,13575.0,1.7729278802871704,-0.02365120664501557,0.0011425123922180218,0.008108035827674559,0.053672775626182556,0.012519996613264084,-0.0
463,5,-0.0033185044303536415,-0.0009237238555215299,0.0033214115537703037,-0.021771371364593506,0.003952499479055405,-0.027063710615038872,-0.012529422529041767,0.006212037056684494,0.00362449255771935,0.15885283052921295,-0.19585323333740234,0.024338077753782272,0.0,0.0,0.0,0.0038098378572613,-0.012563933618366718,-0.0,0.0,0.0,0.0,0.0009885672479867935,-0.005949585698544979,0.000465257529867813,13766.0,14605.0,15671.0,13451.0,0.42366456985473633,0.4802672564983368,0.5571672916412354,0.40333807468414307,0.0,0.0,0.0,0.0,13999.0,14434.0,15517.0,13575.0,1.7729278802871704,-0.021963713731015747,0.003623809654954242,0.006511542476391206,0.053672775626182556,0.012519996613264084,-0.0
468,5,-0.0032523474656045437,-0.0009210495627485216,0.0031729000620543957,-0.0007697028922848403,0.0012600806076079607,0.006995886564254761,-0.010429689660668373,0.006253854371607304,0.0038456025067716837,0.20350675284862518,0.1325555443763733,0.004850749857723713,0.0,0.0,0.0,-0.005690214689821005,-0.021924249827861786,-0.0,0.0,0.0,0.0,-0.0004182581033091992,0.0021219400223344564,0.0005803176900371909,14443.0,14753.0,15195.0,14167.0,0.46906954050064087,0.4905591607093811,0.5221148729324341,0.45023953914642334,0.0,0.0,0.0,0.0,14598.0,14650.0,15108.0,14208.0,1.8940845727920532,-0.018056045985694897,0.004165170772110051,0.007843984346141385,0.10005393624305725,-0.01997709460556507,0.0
473,5,-0.0033192101400345564,-0.0009313615155406296,0.0032477714121341705,-0.008331408724188805,0.001741468091495335,-0.006186214275658131,-0.010429689660668373,0.006253854371607304,0.0038456025067716837,0.20350675284862518,0.1325555443763733,0.004850749857723713,0.0,0.0,0.0,-0.005690214689821005,-0.021924249827861786,-0.0,0.0,0.0,0.0,-0.0004182581033091992,0.0021219400223344564,0.0005803176900371909,14443.0,14753.0,15195.0,14167.0,0.46906954050064087,0.4905591607093811,0.5221148729324341,0.45023953914642334,0.0,0.0,0.0,0.0,14598.0,14650.0,15108.0,14208.0,1.8940845727920532,-0.016361663806698883,0.0064604072372136745,0.0073783755419940065,0.10005393624305725,-0.01997709460556507,0.0
478,5,-0.0033621101174503565,-0.0009440665016882122,0.0032534331548959017,-0.008480551652610302,0.0022211866453289986,-0.0031538710463792086,-0.00856452900916338,0.004493615124374628,0.003912349231541157,0.25757652521133423,0.25035855174064636,0.0016850269166752696,0.0,0.0,0.0,-0.0035914385225623846,-0.011697465553879738,-0.0,0.0,0.0,0.0,-0.003986216615885496,-8.509233157383278e-05,0.0009209608542732894,14386.0,13786.0,14056.0,14013.0,0.46516257524490356,0.42496198415756226,0.4428260922431946,0.43997722864151,0.0,0.0,0.0,0.0,14378.0,13896.0,13799.0,14166.0,1.762217402458191,-0.015190993575607194,0.006844053501254645,0.008411130669031841,0.04966957867145538,-0.011730993166565895,0.0
483,5,-0.003423214890062809,-0.0009677681955508888,0.0032240303698927164,-0.010724792256951332,0.0037326798774302006,0.002266773022711277,-0.00856452900916338,0.004493615124374628,0.003912349231541157,0.25757652521133423,0.25035855174064636,0.0016850269166752696,0.0,0.0,0.0,-0.0035914385225623846,-0.011697465553879738,-0.0,0.0,0.0,0.0,-0.003986216615885496,-8.509233157383278e-05,0.0009209608542732894,14386.0,13786.0,14056.0,14013.0,0.46516257524490356,0.42496198415756226,0.4428260922431946,0.43997722864151,0.0,0.0,0.0,0.0,14378.0,13896.0,13799.0,14166.0,1.762217402458191,-0.013287253650211408,0.007125997723593865,0.00888387608472453,0.04966957867145538,-0.011730993166565895,0.0
