timestamp,dt,pos_x,pos_y,pos_z,vel_x,vel_y,vel_z,roll,pitch,yaw,agv_x,agv_y,agv_z,x_ref,y_ref,z_ref,roll_ref,pitch_ref,yaw_ref,x_vel_ref,y_vel_ref,z_vel_ref,x_torque,y_torque,z_torque,w0,w1,w2,w3,u0,u1,u2,u3,m0req,m1req,m2req,m3req,thrust0,thrust1,thrust2,thrust3,thrust_ref,roll_vicon,pitch_vicon,yaw_vicon,acc_x,acc_y,acc_z
5,5,0.0,0.0,0.0,0.003122602356597781,-0.0015173405408859253,0.0019785689655691385,-0.003172939643263817,-0.09160131961107254,0.0026471258606761694,-0.00045312324073165655,-0.005509210284799337,0.003022007178515196,0.0,0.0,0.0,0.0018481677398085594,0.002925718668848276,-0.0,0.0,0.0,0.0,0.0009644667734391987,0.027377692982554436,0.0002866543363779783,1495.0,1495.0,1495.0,1495.0,0.0,0.0,0.0,0.0,0.0,0.0,0.0,0.0,1495.0,1495.0,1495.0,1495.0,1.6609816551208496,7.909927827085071e-06,0.11281050257828988,-0.0672917544639403,-0.011709759011864662,0.00569002702832222,0.0
31,26,0.0,0.0,0.0,-0.002377393888309598,-0.0005837160861119628,0.0013557568890973926,-0.003172939643263817,-0.09160131961107254,0.0026471258606761694,-0.00045312324073165655,-0.005509210284799337,0.003022007178515196,0.0,0.0,0.0,0.0018481677398085594,0.002925718668848276,-0.0,0.0,0.0,0.0,0.0009644667734391987,0.027377692982554436,0.0002866543363779783,1495.0,1495.0,1495.0,1495.0,0.0,0.0,0.0,0.0,0.0,0.0,0.0,0.0,1495.0,1495.0,1495.0,1495.0,1.6609816551208496,-0.0016430961813223427,0.11241523840012409,-0.06671246010329895,-0.011709759011864662,0.00569002702832222,0.0
37,5,0.0,0.0,0.0,0.0003461148589849472,0.000173096006619744,-0.0004328289651311934,-0.003158299019560218,-0.09156450629234314,0.0026893815957009792,-0.001008617109619081,0.0032933037728071213,0.0019449284300208092,0.0,0.0,0.0,0.0007154467748478055,-0.002241474576294422,-0.0,0.0,0.0,0.0,0.0015363325364887714,0.028365641832351685,0.00037177937338128686,1495.0,1495.0,1495.0,1495.0,0.0,0.0,0.0,0.0,0.0,0.0,0.0,0.0,1495.0,1495.0,1495.0,1495.0,1.6506201028823853,-0.0013228949967185307,0.11258863704192201,-0.06683219212564367,0.00891522690653801,0.002188935410231352,0.0
42,5,0.0,0.0,0.0,0.003255398478358984,-0.0019863401539623737,0.0023736804723739624,-0.003158299019560218,-0.09156450629234314,0.0026893815957009792,-0.001008617109619081,0.0032933037728071213,0.0019449284300208092,0.0,0.0,0.0,0.0007154467748478055,-0.002241474576294422,-0.0,0.0,0.0,0.0,0.0015363325364887714,0.028365641832351685,0.00037177937338128686,1495.0,1495.0,1495.0,1495.0,0.0,0.0,0.0,0.0,0.0,0.0,0.0,0.0,1495.0,1495.0,1495.0,1495.0,1.6506201028823853,-0.0003531948766872773,0.11287173030695732,-0.06686890067163155,0.00891522690653801,0.002188935410231352,0.0
47,5,-1.9844965208903886e-05,-9.477557796344627e-06,5.4147876653587446e-05,-0.001079236506484449,0.00034277085796929896,-0.005548273213207722,-0.003158299019560218,-0.09156450629234314,0.0026893815957009792,-0.001008617109619081,0.0032933037728071213,0.0019449284300208092,0.0,0.0,0.0,0.0024144041817635298,0.003043815493583679,-0.0,0.0,0.0,0.0,0.0015363325364887714,0.028365641832351685,0.00037177937338128686,1495.0,1495.0,1495.0,1495.0,0.0,0.0,0.0,0.0,0.0,0.0,0.0,0.0,1495.0,1495.0,1495.0,1495.0,1.6644361019134521,-0.0012008404667882664,0.11271903612689926,-0.06707536461150812,-0.012207744643092155,0.007448775693774223,0.0
54,7,1.7700582247925922e-05,-7.042783636279637e-07,2.0968504031770863e-05,0.002707625739276409,-0.0008413149043917656,0.0015225529205054045,-0.003158299019560218,-0.09156450629234314,0.0026893815957009792,-0.001008617109619081,0.0032933037728071213,0.0019449284300208092,0.0,0.0,0.0,0.0024144041817635298,0.003043815493583679,-0.0,0.0,0.0,0.0,0.0015363325364887714,0.028365641832351685,0.00037177937338128686,1495.0,1495.0,1495.0,1495.0,0.0,0.0,0.0,0.0,0.0,0.0,0.0,0.0,1495.0,1495.0,1495.0,1495.0,1.6644361019134521,-8.326053304540301e-06,0.11276957335041003,-0.06728959861820588,-0.012207744643092155,0.007448775693774223,0.0
59,5,2.2584132238989696e-05,-6.649392162216827e-06,3.1695883080828935e-05,0.001669076387770474,0.0003768877068068832,-0.0006782644195482135,-0.003159059677273035,-0.09155841171741486,0.00270284665748477,0.002599383005872369,-0.0012931630481034517,0.005342248827219009,0.0,0.0,0.0,0.001027316669933498,0.0025708237662911415,-0.0,0.0,0.0,0.0,0.001171007752418518,0.02689375728368759,0.00021690395078621805,1495.0,1495.0,1495.0,1495.0,0.0,0.0,0.0,0.0,0.0,0.0,0.0,0.0,15400.0,11314.0,11784.0,15314.0,1.654791235923767,-0.0006688622946787601,0.11255514130827153,-0.067004898560685,-0.010251011699438095,0.003151054959744215,-0.0
64,5,4.4976154640608e-06,-4.2576129999361e-06,2.342150401091203e-05,-0.0015027514891698956,-0.00013625842984765768,0.0007216198719106615,-0.003159059677273035,-0.09155841171741486,0.00270284665748477,0.002599383005872369,-0.0012931630481034517,0.005342248827219009,0.0,0.0,0.0,0.001027316669933498,0.0025708237662911415,-0.0,0.0,0.0,0.0,0.001171007752418518,0.02689375728368759,0.00021690395078621805,1495.0,1495.0,1495.0,1495.0,0.0,0.0,0.0,0.0,0.0,0.0,0.0,0.0,15400.0,11314.0,11784.0,15314.0,1.654791235923767,-0.001042255509667485,0.1128348389560874,-0.06711926197621908,-0.010251011699438095,0.003151054959744215,-0.0
69,5,-7.495044428651454e-06,-2.1077137716929428e-05,2.1961101083434187e-05,-0.0020402197260409594,0.0019638396333903074,0.0004638962564058602,-0.003143644193187356,-0.0915408805012703,0.0027021344285458326,0.0005393524188548326,0.003004658967256546,0.00020129121548961848,0.0,0.0,0.0,0.00016028131358325481,-0.0014188479399308562,-0.0,0.0,0.0,0.0,0.0016153492033481598,0.028436265885829926,0.00024177848536055535,15512.0,11208.0,11719.0,15515.0,0.545314610004425,0.27302777767181396,0.3005177974700928,0.5455758571624756,0.0,0.0,0.0,0.0,15406.0,11307.0,11768.0,15326.0,1.6410213708877563,-0.0008726687931677805,0.11251514989511792,-0.06712864273822737,0.005610503721982241,0.00048753488226793706,-0.0
84,15,-3.0001439881743863e-05,-1.7663205653661862e-05,4.2426421714480966e-05,-0.0008812356390990317,0.00017662977916188538,-0.0015485854819417,-0.003126744646579027,-0.09154089540243149,0.0026777132879942656,-0.00013744705938734114,-0.0013712525833398104,-0.005941321607679129,0.0,0.0,0.0,-0.0002506062446627766,-0.0008804796962067485,-0.0,0.0,0.0,0.0,0.0012437498662620783,0.02831018902361393,0.00027005435549654067,15468.0,11237.0,11624.0,15477.0,0.5421192646026611,0.27459457516670227,0.29532381892204285,0.5427535772323608,0.0,0.0,0.0,0.0,15465.0,11271.0,11675.0,15549.0,1.635385513305664,-0.0009405410346481335,0.11257629572967043,-0.06729791764063556,0.0034696951042860746,-0.00075966224540025,0.0
92,8,-3.068933801841922e-05,-3.592141001718119e-05,5.453740232042037e-05,-0.0004350418457761407,0.0022616363130509853,-0.00207275222055614,-0.003126744646579027,-0.09154089540243149,0.0026777132879942656,-0.00013744705938734114,-0.0013712525833398104,-0.005941321607679129,0.0,0.0,0.0,-0.0002506062446627766,-0.0008804796962067485,-0.0,0.0,0.0,0.0,0.0012437498662620783,0.02831018902361393,0.00027005435549654067,15468.0,11237.0,11624.0,15477.0,0.5421192646026611,0.27459457516670227,0.29532381892204285,0.5427535772323608,0.0,0.0,0.0,0.0,15465.0,11271.0,11675.0,15549.0,1.635385513305664,-0.001476978482409593,0.11255135898374681,-0.0672263381712198,0.0034696951042860746,-0.00075966224540025,0.0
97,5,-8.066984264587518e-06,-1.0870736332435627e-05,5.424035407486372e-05,0.0025406654458492994,-0.002101426012814045,-0.000793454993981868,-0.003126744646579027,-0.09154089540243149,0.0026777132879942656,-0.00013744705938734114,-0.0013712525833398104,-0.005941321607679129,0.0,0.0,0.0,-0.0002506062446627766,-0.0008804796962067485,-0.0,0.0,0.0,0.0,0.0012437498662620783,0.02831018902361393,0.00027005435549654067,15468.0,11237.0,11624.0,15477.0,0.5421192646026611,0.27459457516670227,0.29532381892204285,0.5427535772323608,0.0,0.0,0.0,0.0,15465.0,11271.0,11675.0,15549.0,1.635385513305664,-0.0012417362679291344,0.11254923112974217,-0.0669395001341149,0.0034696951042860746,-0.00075966224540025,0.0
102,5,1.4760945305170026e-05,-2.224282752649742e-06,4.4335622078506276e-05,0.003755617653951049,-0.0018781449180096388,0.0008711860282346606,-0.003098855959251523,-0.09153494983911514,0.0026572595816105604,0.0018144347704946995,-0.003526589134708047,0.0012355501530691981,0.0,0.0,0.0,-0.0002506062446627766,-0.0008804796962067485,-0.0,0.0,0.0,0.0,0.0009706817218102515,0.027103407308459282,0.00028476500301621854,15388.0,11264.0,11681.0,15308.0,0.5362143516540527,0.27601152658462524,0.29845601320266724,0.5303395390510559,0.0,0.0,0.0,0.0,15448.0,11269.0,11591.0,15500.0,1.635385513305664,-0.000396558874065489,0.11268775790361747,-0.06701779436008143,0.0034696951042860746,-0.00075966224540025,0.0
107,5,1.0716896213125437e-05,4.651797553378856e-06,4.8474252253072336e-05,0.0010169611778110266,-0.001576387556269765,-0.00014816138718742877,-0.0030742099042981863,-0.09153050929307938,0.002686080290004611,0.0005340264760889113,0.0035121459513902664,-0.0014448759611696005,0.0,0.0,0.0,0.002273312769830227,0.0035231460351496935,-0.0,0.0,0.0,0.0,0.0001673548249527812,0.02706059068441391,0.00030701185460202396,15471.0,11406.0,11668.0,15320.0,0.542321503162384,0.283549040555954,0.2977011501789093,0.5312350988388062,0.0,0.0,0.0,0.0,15406.0,11243.0,11706.0,15287.0,1.6685082912445068,-0.0013735924799850143,0.11285400375609272,-0.06701883556905512,-0.014164749532938004,0.007030649110674858,-0.0
112,5,5.428875738289207e-06,-1.1290606380498502e-05,3.2221600122284144e-05,-0.000227777985855937,0.001282533397898078,0.0018910537473857403,-0.0030742099042981863,-0.09153050929307938,0.002686080290004611,0.0005340264760889113,0.0035121459513902664,-0.0014448759611696005,0.0,0.0,0.0,-0.0016034742584452033,-0.0002086941822199151,-0.0,0.0,0.0,0.0,0.0001673548249527812,0.02706059068441391,0.00030701185460202396,15471.0,11406.0,11668.0,15320.0,0.542321503162384,0.283549040555954,0.2977011501789093,0.5312350988388062,0.0,0.0,0.0,0.0,15406.0,11243.0,11706.0,15287.0,1.6391515731811523,-0.0009106485671537733,0.11277749245052786,-0.0671081829433409,0.0008242914918810129,-0.004871798679232597,-0.0
119,6,-5.196594884182559e-06,-1.212822553497972e-05,1.2124874956498388e-05,-0.0005060113035142422,-0.00034559224150143564,0.002426481107249856,-0.0030742099042981863,-0.09153050929307938,0.002686080290004611,0.0005340264760889113,0.0035121459513902664,-0.0014448759611696005,0.0,0.0,0.0,-0.0016034742584452033,-0.0002086941822199151,-0.0,0.0,0.0,0.0,0.0001673548249527812,0.02706059068441391,0.00030701185460202396,15471.0,11406.0,11668.0,15320.0,0.542321503162384,0.283549040555954,0.2977011501789093,0.5312350988388062,0.0,0.0,0.0,0.0,15406.0,11243.0,11706.0,15287.0,1.6391515731811523,-0.0005292644166464185,0.11287800618818666,-0.06742254865689727,0.0008242914918810129,-0.004871798679232597,-0.0
124,5,-7.850940164644271e-06,-1.7740807379595935e-05,2.33489517995622e-05,-0.0005209259688854218,0.0005352729931473732,-0.0003762966371141374,-0.003056332701817155,-0.09151926636695862,0.002684452338144183,0.002673228271305561,-0.005049717612564564,0.0013006259687244892,0.0,0.0,0.0,0.0004062983498442918,-0.0004898083279840648,-0.0,0.0,0.0,0.0,0.000821384834125638,0.02718416042625904,0.00030661156051792204,15392.0,11232.0,11644.0,15279.0,0.5364612936973572,0.27429381012916565,0.2964062988758087,0.5282241106033325,0.0,0.0,0.0,0.0,15466.0,11413.0,11667.0,15321.0,1.6319483518600464,-0.00022652669210623968,0.11282350825540734,-0.06733487090639953,0.0019261246779933572,0.0012290229788050056,-0.0
129,5,-5.021610832045553e-06,-2.1770241801277734e-05,3.6992347304476425e-05,0.00013114909233991057,0.0006976412259973586,-0.0017877264181151986,-0.003056332701817155,-0.09151926636695862,0.002684452338144183,0.002673228271305561,-0.005049717612564564,0.0013006259687244892,0.0,0.0,0.0,0.0004062983498442918,-0.0004898083279840648,-0.0,0.0,0.0,0.0,0.000821384834125638,0.02718416042625904,0.00030661156051792204,15392.0,11232.0,11644.0,15279.0,0.5364612936973572,0.27429381012916565,0.2964062988758087,0.5282241106033325,0.0,0.0,0.0,0.0,15466.0,11413.0,11667.0,15321.0,1.6319483518600464,-0.0001847578876289932,0.11280098118640319,-0.06741018407777828,0.0019261246779933572,0.0012290229788050056,-0.0
134,5,2.238925134179226e-07,-6.921199656062527e-06,3.748744347831234e-05,0.0006819200934842229,-0.001502828556112945,-0.0007745017064735293,-0.00304368045181036,-0.0915287435054779,0.002703577047213912,0.002756922971457243,0.0006689862348139286,0.0038383151404559612,0.0,0.0,0.0,0.0004062983498442918,-0.0004898083279840648,-0.0,0.0,0.0,0.0,0.0015681483782827854,0.028680212795734406,0.0004331075178924948,15589.0,11145.0,11779.0,15492.0,0.551048219203949,0.2697610557079315,0.30384549498558044,0.5438535213470459,0.0,0.0,0.0,0.0,15555.0,11193.0,11726.0,15532.0,1.6319483518600464,-0.0007111014588043814,0.11263518515408047,-0.06702994531230985,0.0019261246779933572,0.0012290229788050056,-0.0
139,5,-4.046098183607683e-06,-7.4609570219763555e-06,2.9589456971734762e-05,-0.00023963084095157683,-0.0005363604868762195,0.0006379574770107865,-0.00304368045181036,-0.0915287435054779,0.002703577047213912,0.002756922971457243,0.0006689862348139286,0.0038383151404559612,0.0,0.0,0.0,0.0018385673174634576,0.0006464482867158949,-0.0,0.0,0.0,0.0,0.0015681483782827854,0.028680212795734406,0.0004331075178924948,15589.0,11145.0,11779.0,15492.0,0.551048219203949,0.2697610557079315,0.30384549498558044,0.5438535213470459,0.0,0.0,0.0,0.0,15555.0,11193.0,11726.0,15532.0,1.6424375772476196,-0.0006301785884254455,0.11298273790046544,-0.06702873856175388,-0.002558431588113308,0.005597273353487253,0.0
144,5,-1.6480564227094874e-05,-1.6597947251284495e-05,4.021179847768508e-05,-0.001587988343089819,0.0008818947244435549,-0.0010194979840889573,-0.0030288693960756063,-0.09153994917869568,0.0027237781323492527,0.0008349060080945492,0.0016622523544356227,0.0009536285069771111,0.0,0.0,0.0,0.0018385673174634576,0.0006464482867158949,-0.0,0.0,0.0,0.0,0.0011061995755881071,0.02756861411035061,0.0002870689786504954,15377.0,11170.0,11603.0,15321.0,0.5353755354881287,0.2710548937320709,0.29418954253196716,0.5313283801078796,0.0,0.0,0.0,0.0,15484.0,11208.0,11637.0,15261.0,1.6424375772476196,-0.001496241482919586,0.1122993577247487,-0.06707359010196835,-0.002558431588113308,0.005597273353487253,0.0
150,5,-1.4691152500745375e-05,-1.2955731108377222e-05,6.2030385379330255e-06,-0.00042046591988764703,-8.430809975834563e-05,0.0036732519511133432,-0.0030288693960756063,-0.09153994917869568,0.0027237781323492527,0.0008349060080945492,0.0016622523544356227,0.0009536285069771111,0.0,0.0,0.0,-0.001114960410632193,-0.0015256138285622,-0.0,0.0,0.0,0.0,0.0011061995755881071,0.02756861411035061,0.0002870689786504954,15377.0,11170.0,11603.0,15321.0,0.5353755354881287,0.2710548937320709,0.29418954253196716,0.5313283801078796,0.0,0.0,0.0,0.0,15484.0,11208.0,11637.0,15261.0,1.6445512771606445,-0.0005577234743291972,0.11281527941722755,-0.06738358256389376,0.006045657210052013,-0.003398719010874629,0.0
155,5,-2.83981330539973e-06,-1.5869451090111397e-05,4.0718692616792396e-05,0.0012539743911474943,0.0003159230400342494,-0.0026725775096565485,-0.0030532553791999817,-0.09155166149139404,0.002780741546303034,-0.0008665411151014268,-0.001816368312574923,0.006419007666409016,0.0,0.0,0.0,-0.001114960410632193,-0.0015256138285622,-0.0,0.0,0.0,0.0,0.001479831524193287,0.027768496423959732,0.00045282545033842325,15467.0,11080.0,11752.0,15326.0,0.5420414209365845,0.26638057827949524,0.30234262347221375,0.531673014163971,0.0,0.0,0.0,0.0,15373.0,11181.0,11593.0,15325.0,1.6445512771606445,-0.0015631194755120032,0.11223939296905995,-0.06692580008362535,0.006045657210052013,-0.003398719010874629,0.0
160,5,2.4434322654087737e-07,-1.0514106179471128e-05,3.926309000235051e-05,0.0008716885349713266,-0.0005162720917724073,-0.0008943587890826166,-0.0030532553791999817,-0.09155166149139404,0.002780741546303034,-0.0008665411151014268,-0.001816368312574923,0.006419007666409016,0.0,0.0,0.0,-0.0004188399761915207,0.0011867489665746689,-0.0,0.0,0.0,0.0,0.001479831524193287,0.027768496423959732,0.00045282545033842325,15467.0,11080.0,11752.0,15326.0,0.5420414209365845,0.26638057827949524,0.30234262347221375,0.531673014163971,0.0,0.0,0.0,0.0,15373.0,11181.0,11593.0,15325.0,1.6389213800430298,-0.0011876880362066767,0.11217507061819927,-0.0674130280221782,-0.004686716943979263,-0.0012723739491775632,0.0
165,5,1.989566590054892e-05,9.640144526201766e-06,2.0222860257490538e-05,0.002706834115087986,-0.002625018823891878,0.0019270838238298893,-0.0030532553791999817,-0.09155166149139404,0.002780741546303034,-0.0008665411151014268,-0.001816368312574923,0.006419007666409016,0.0,0.0,0.0,-0.0004188399761915207,0.0011867489665746689,-0.0,0.0,0.0,0.0,0.0014901055255904794,0.027850748971104622,-9.7117244877154e-06,15290.0,11486.0,11464.0,15453.0,0.5290487408638,0.2878463864326477,0.28663474321365356,0.541021466255188,0.0,0.0,0.0,0.0,15432.0,11131.0,11682.0,15378.0,1.6389213800430298,-0.0014807220669185712,0.11213172534381946,-0.06613294002864463,-0.004686716943979263,-0.0012723739491775632,0.0
170,5,1.829504435590934e-05,-1.2086466995242517e-05,4.57541027572006e-05,0.0008906590519472957,0.0015571857802569866,-0.002292915480211377,-0.0030532553791999817,-0.09155166149139404,0.002780741546303034,-0.0008665411151014268,-0.001816368312574923,0.006419007666409016,0.0,0.0,0.0,0.0032080323435366154,0.0025583801325410604,-0.0,0.0,0.0,0.0,0.0014901055255904794,0.027850748971104622,-9.7117244877154e-06,15290.0,11486.0,11464.0,15453.0,0.5290487408638,0.2878463864326477,0.28663474321365356,0.541021466255188,0.0,0.0,0.0,0.0,15432.0,11131.0,11682.0,15378.0,1.6643146276474,-0.0010709544181134246,0.11247487195599948,-0.06700228530964725,-0.010260055772960186,0.009896494448184967,-0.0
175,5,3.104440474999137e-05,-4.1258526835008524e-06,-1.7955653675016947e-05,0.0018861866556107998,-0.0003323993878439069,0.006728004664182663,-0.0030829289462417364,-0.09154991805553436,0.0032347163651138544,-0.0010232324711978436,-0.0004844738868996501,-0.02475273236632347,0.0,0.0,0.0,0.0032080323435366154,0.0025583801325410604,-0.0,0.0,0.0,0.0,0.0010190863395109773,0.02788616344332695,0.0029097835067659616,15866.0,10548.0,12173.0,14907.0,0.5719096064567566,0.23952563107013702,0.3260459303855896,0.5014402866363525,0.0,0.0,0.0,0.0,15376.0,11354.0,11564.0,15390.0,1.6643146276474,-0.00010140724963860886,0.11294245971924546,-0.0676689071605563,-0.010260055772960186,0.009896494448184967,-0.0
180,5,1.2382556633383501e-05,-7.905380698502995e-06,3.726874274434522e-05,-0.0014849469298496842,0.00032058361102826893,-0.003935725893825293,-0.0030829289462417364,-0.09154991805553436,0.0032347163651138544,-0.0010232324711978436,-0.0004844738868996501,-0.02475273236632347,0.0,0.0,0.0,0.000401083379983902,0.001826792024075985,-0.0,0.0,0.0,0.0,0.0010190863395109773,0.02788616344332695,0.0029097835067659616,15866.0,10548.0,12173.0,14907.0,0.5719096064567566,0.23952563107013702,0.3260459303855896,0.5014402866363525,0.0,0.0,0.0,0.0,15376.0,11354.0,11564.0,15390.0,1.6456632614135742,-0.0009500633060718876,0.11260373009896571,-0.0666774408605013,-0.007244054693728685,0.001223444240167737,0.0
185,5,2.642095205374062e-05,-1.1398100468795747e-05,1.1312307833577506e-05,0.0010906285606324673,0.0005473597557283938,0.0015404820442199707,-0.0030138359870761633,-0.09172727167606354,0.0018471366493031383,0.015110338106751442,-0.007569145876914263,0.16305476427078247,0.0,0.0,0.0,0.000401083379983902,0.001826792024075985,-0.0,0.0,0.0,0.0,0.00040604660171084106,0.028543341904878616,-0.0005847606807947159,16020.0,10388.0,12256.0,14784.0,0.5836526155471802,0.2316974550485611,0.33077704906463623,0.49279433488845825,0.0,0.0,0.0,0.0,13917.0,13085.0,9264.0,16794.0,1.6456632614135742,-0.000340471075823276,0.11230076128881837,-0.06665746551118491,-0.007244054693728685,0.001223444240167737,0.0
190,5,-1.3640209317600238e-07,-4.63832329842262e-05,4.3759984691860154e-05,-0.002750630956143141,0.00441716006025672,-0.0032775283325463533,-0.0030138359870761633,-0.09172727167606354,0.0018471366493031383,0.015110338106751442,-0.007569145876914263,0.16305476427078247,0.0,0.0,0.0,-0.0006965830689296126,0.001072678598575294,-0.0,0.0,0.0,0.0,0.00040604660171084106,0.028543341904878616,-0.0005847606807947159,16020.0,10388.0,12256.0,14784.0,0.5836526155471802,0.2316974550485611,0.33077704906463623,0.49279433488845825,0.0,0.0,0.0,0.0,13917.0,13085.0,9264.0,16794.0,1.6385910511016846,-0.0005044385539964249,0.11226693358678162,-0.06793054540320329,-0.004235375206917524,-0.0021156896837055683,-0.0
195,5,2.1220279450062662e-05,-3.066857607336715e-05,1.6568188584642485e-05,0.001462549320422113,-0.00011889504821738228,0.0019520041532814503,-0.0029615922830998898,-0.09166333079338074,0.002692529698833823,-0.01604378968477249,0.0452745296061039,-0.30624958872795105,0.0,0.0,0.0,-0.0006965830689296126,0.001072678598575294,-0.0,0.0,0.0,0.0,0.002028716029599309,0.028889350593090057,-0.003167098155245185,13332.0,13684.0,8432.0,17511.0,0.3958067297935486,0.4183661937713623,0.1467256098985672,0.7034160494804382,0.0,0.0,0.0,0.0,17767.0,6845.0,14719.0,12738.0,1.6385910511016846,-0.00043909593155447253,0.11245430230930502,-0.06767778420009203,-0.004235375206917524,-0.0021156896837055683,-0.0
201,5,-4.173842626187252e-06,-3.417992411414161e-05,0.00010339601431041956,-0.0024622748605906963,0.00037380389403551817,-0.009638537652790546,-0.0029615922830998898,-0.09166333079338074,0.002692529698833823,-0.01604378968477249,0.0452745296061039,-0.30624958872795105,0.0,0.0,0.0,9.096140274778008e-05,0.00141663767863065,-0.0,0.0,0.0,0.0,0.002028716029599309,0.028889350593090057,-0.003167098155245185,13332.0,13684.0,8432.0,17511.0,0.3958067297935486,0.4183661937713623,0.1467256098985672,0.7034160494804382,0.0,0.0,0.0,0.0,17767.0,6845.0,14719.0,12738.0,1.640958309173584,-0.002114353084773975,0.11193600872185787,-0.06782930419684018,-0.0056015485897660255,0.0002766707621049136,-0.0
206,5,3.542099875630811e-05,-1.3281287465360947e-05,4.7968627768568695e-05,0.0037664708215743303,-0.002358315046876669,0.0027958715800195932,-0.0030421640258282423,-0.09177950024604797,0.002156125847250223,0.003439922584220767,-0.03977096453309059,0.1334906369447708,0.0,0.0,0.0,9.096140274778008e-05,0.00141663767863065,-0.0,0.0,0.0,0.0,0.0010264721931889653,0.02747935801744461,0.0034288261085748672,16543.0,9482.0,13149.0,14118.0,0.6244044899940491,0.18995285034179688,0.384330689907074,0.44697532057762146,0.0,0.0,0.0,0.0,12830.0,14130.0,7305.0,17785.0,1.640958309173584,0.0001914107102661761,0.11299852152523344,-0.06742043478773362,-0.0056015485897660255,0.0002766707621049136,-0.0
211,5,3.4198685170849785e-05,-1.5097309187694918e-05,2.695768853300251e-05,0.001359910937026143,-0.0007254033116623759,0.003639661241322756,-0.0030421640258282423,-0.09177950024604797,0.002156125847250223,0.003439922584220767,-0.03977096453309059,0.1334906369447708,0.0,0.0,0.0,0.0028312820941209793,0.0035560280084609985,-0.0,0.0,0.0,0.0,0.0010264721931889653,0.02747935801744461,0.0034288261085748672,16543.0,9482.0,13149.0,14118.0,0.6244044899940491,0.18995285034179688,0.384330689907074,0.44697532057762146,0.0,0.0,0.0,0.0,12830.0,14130.0,7305.0,17785.0,1.671140193939209,5.892712372035528e-05,0.11293580332173174,-0.06758851900277661,-0.014319482259452343,0.008770079351961613,-0.0
216,5,3.1777992262504995e-05,-2.5415647542104125e-05,5.5085940402932465e-05,0.0002534810919314623,0.0009480392327532172,-0.0019195255590602756,-0.002762207994237542,-0.0915258526802063,0.002217245753854513,0.04547233134508133,-0.01610294170677662,-0.09065540134906769,0.0,0.0,0.0,0.0028312820941209793,0.0035560280084609985,-0.0,0.0,0.0,0.0,2.455457070027478e-05,0.02774537354707718,-0.0017552133649587631,14671.0,12331.0,10392.0,16060.0,0.4848223030567169,0.3351576030254364,0.23190537095069885,0.5867058038711548,0.0,0.0,0.0,0.0,16129.0,10187.0,12554.0,14548.0,1.671140193939209,0.0004344632108559217,0.11274945929825317,-0.06752450356963738,-0.014319482259452343,0.008770079351961613,-0.0
221,5,-1.0443623068567831e-06,-1.3435429536912125e-05,7.993589679244906e-05,-0.0038372899871319532,-0.0010584105039015412,-0.0037498055025935173,-0.002762207994237542,-0.0915258526802063,0.002217245753854513,0.04547233134508133,-0.01610294170677662,-0.09065540134906769,0.0,0.0,0.0,-0.0012185111409053206,0.00028555039898492396,-0.0,0.0,0.0,0.0,2.455457070027478e-05,0.02774537354707718,-0.0017552133649587631,14671.0,12331.0,10392.0,16060.0,0.4848223030567169,0.3351576030254364,0.23190537095069885,0.5867058038711548,0.0,0.0,0.0,0.0,16129.0,10187.0,12554.0,14548.0,1.636230230331421,-0.0007399820601508468,0.11192605529250513,-0.06713514537634499,-0.0011258453596383333,-0.003695577150210738,0.0
226,5,-4.3569922127062455e-05,-3.2397489121649414e-05,0.00015033948875498027,-0.006637983489781618,0.001852082903496921,-0.00994835328310728,-0.0025064086075872183,-0.09118231385946274,0.002319261897355318,0.09292549639940262,-0.09474971890449524,-0.011837365105748177,0.0,0.0,0.0,-0.0012185111409053206,0.00028555039898492396,-0.0,0.0,0.0,0.0,0.00017043501429725438,0.026169627904891968,0.0009605814702808857,15450.0,11372.0,11760.0,15106.0,0.5407924652099609,0.2817058563232422,0.30279606580734253,0.5156638622283936,0.0,0.0,0.0,0.0,15003.0,11897.0,10964.0,15733.0,1.636230230331421,0.0008716024010578758,0.11150181722151667,-0.06753316151134384,-0.0011258453596383333,-0.003695577150210738,0.0
231,5,-2.1085292246425524e-05,-3.7090081605128944e-05,0.00011531675409059972,4.296246697776951e-05,0.0013039445038884878,0.000223386989091523,-0.0025064086075872183,-0.09118231385946274,0.002319261897355318,0.09292549639940262,-0.09474971890449524,-0.011837365105748177,0.0,0.0,0.0,-0.0022660335525870323,-0.006149061489850283,-0.0,0.0,0.0,0.0,0.00017043501429725438,0.026169627904891968,0.0009605814702808857,15450.0,11372.0,11760.0,15106.0,0.5407924652099609,0.2817058563232422,0.30279606580734253,0.5156638622283936,0.0,0.0,0.0,0.0,15003.0,11897.0,10964.0,15733.0,1.6961537599563599,0.0012996580857911459,0.11032456650032497,-0.06791027355839822,0.0251317135989666,-0.007124254480004311,0.0
236,5,-8.196874841814861e-05,-4.908892879029736e-05,0.00021517353889066726,-0.007288829423487186,0.001961439149454236,-0.011893459595739841,-0.0013995447661727667,-0.08979662507772446,0.0020966092124581337,0.12590841948986053,-0.16703692078590393,0.007070284336805344,0.0,0.0,0.0,-0.0022660335525870323,-0.006149061489850283,-0.0,0.0,0.0,0.0,6.118072178651346e-06,0.02520100772380829,0.0003485666529741138,15493.0,11632.0,11991.0,15107.0,0.5439597964286804,0.29573163390159607,0.31567439436912537,0.5157744288444519,0.0,0.0,0.0,0.0,15102.0,12100.0,11627.0,14936.0,1.6961537599563599,0.0009351372946656229,0.10891619076498395,-0.067917807061771,0.0251317135989666,-0.007124254480004311,0.0
241,5,-0.00015626066306140274,-6.941434548934922e-05,0.0003727524308487773,-0.01183056179434061,0.0032236254774034023,-0.023666851222515106,-0.0013995447661727667,-0.08979662507772446,0.0020966092124581337,0.12590841948986053,-0.16703692078590393,0.007070284336805344,0.0,0.0,0.0,-0.00241549639031291,-0.006769315805286169,-0.0,0.0,0.0,0.0,6.118072178651346e-06,0.02520100772380829,0.0003485666529741138,15493.0,11632.0,11991.0,15107.0,0.5439597964286804,0.29573163390159607,0.31567439436912537,0.5157744288444519,0.0,0.0,0.0,0.0,15102.0,12100.0,11627.0,14936.0,1.7033369541168213,0.002449357639217823,0.10681108936964114,-0.06839755574961434,0.027783865109086037,-0.007626315113157034,0.0
247,5,-0.00020105329167563468,-9.51137044467032e-05,0.00046450269292108715,-0.010107339359819889,0.0043733734637498856,-0.020476771518588066,-0.00016259547555819154,-0.0875549241900444,0.0020211911760270596,0.19026067852973938,-0.44847309589385986,-0.03655395656824112,0.0,0.0,0.0,-0.00241549639031291,-0.006769315805286169,-0.0,0.0,0.0,0.0,-0.003104416187852621,0.01706542819738388,7.857119635445997e-05,14729.0,12699.0,11942.0,14566.0,0.4889223575592041,0.35686391592025757,0.31292808055877686,0.4775158762931824,0.0,0.0,0.0,0.0,14494.0,13057.0,12014.0,14429.0,1.7033369541168213,0.002682926546856249,0.1041444699183392,-0.06915178207650324,0.027783865109086037,-0.007626315113157034,0.0
252,5,-0.00025563768576830626,-4.738131246995181e-05,0.0005459703970700502,-0.01059306412935257,-0.0039785378612577915,-0.017966831102967262,-0.00016259547555819154,-0.0875549241900444,0.0020211911760270596,0.19026067852973938,-0.44847309589385986,-0.03655395656824112,0.0,0.0,0.0,-0.005248323082923889,-0.009305360727012157,-0.0,0.0,0.0,0.0,-0.003104416187852621,0.01706542819738388,7.857119635445997e-05,14729.0,12699.0,11942.0,14566.0,0.4889223575592041,0.35686391592025757,0.31292808055877686,0.4775158762931824,0.0,0.0,0.0,0.0,14494.0,13057.0,12014.0,14429.0,1.7397680282592773,0.0045986135501886885,0.10003845690154338,-0.06831014981222236,0.03900894522666931,-0.01692453771829605,0.0
257,5,-0.00037282780976966023,-6.213810411281884e-05,0.0007661512936465442,-0.018300041556358337,0.00017939985264092684,-0.03360844403505325,0.0025876222644001245,-0.0804491639137268,0.0019207675941288471,0.25096866488456726,-0.8135431408882141,-0.014461645856499672,0.0,0.0,0.0,-0.005248323082923889,-0.009305360727012157,-0.0,0.0,0.0,0.0,-0.005274065304547548,0.005476624704897404,0.00029190618079155684,14384.0,13883.0,13142.0,13646.0,0.46503129601478577,0.43136724829673767,0.3838920295238495,0.41586318612098694,0.0,0.0,0.0,0.0,13995.0,14201.0,13322.0,13550.0,1.7397680282592773,0.004291518006630931,0.09413637312530349,-0.06936326040931623,0.03900894522666931,-0.01692453771829605,0.0
262,5,-0.0005041853291913867,-4.871637065662071e-05,0.0009695182088762522,-0.0230829156935215,-0.0015388478059321642,-0.037847407162189484,0.0025876222644001245,-0.0804491639137268,0.0019207675941288471,0.25096866488456726,-0.8135431408882141,-0.014461645856499672,0.0,0.0,0.0,-0.0003022380988113582,-0.01617402397096157,-0.0,0.0,0.0,0.0,-0.005274065304547548,0.005476624704897404,0.00029190618079155684,14384.0,13883.0,13142.0,13646.0,0.46503129601478577,0.43136724829673767,0.3838920295238495,0.41586318612098694,0.0,0.0,0.0,0.0,13995.0,14201.0,13322.0,13550.0,1.8135563135147095,0.0068667672453087145,0.08832952314085606,-0.06946715973931976,0.07067764550447464,-0.0010159885277971625,0.0
267,5,-0.0006571327685378492,-1.726668961055111e-05,0.0011433608597144485,-0.027586858719587326,-0.0043895007111132145,-0.0360000878572464,0.0025876222644001245,-0.0804491639137268,0.0019207675941288471,0.25096866488456726,-0.8135431408882141,-0.014461645856499672,0.0,0.0,0.0,-0.0003022380988113582,-0.01617402397096157,-0.0,0.0,0.0,0.0,-0.005274065304547548,0.005476624704897404,0.00029190618079155684,14384.0,13883.0,13142.0,13646.0,0.46503129601478577,0.43136724829673767,0.3838920295238495,0.41586318612098694,0.0,0.0,0.0,0.0,13995.0,14201.0,13322.0,13550.0,1.8135563135147095,0.006178093571244479,0.08148537491152227,-0.06925710049597178,0.07067764550447464,-0.0010159885277971625,0.0
272,5,-0.0008380993967875838,-0.00011709493992384523,0.001398711814545095,-0.03275074064731598,0.010223589837551117,-0.04504214972257614,0.004401307553052902,-0.07260703295469284,0.0018189629772678018,0.21999412775039673,-1.1989647150039673,-0.006022218149155378,0.0,0.0,0.0,0.004622213076800108,-0.02326587587594986,-0.0,0.0,0.0,0.0,-0.005617179442197084,-0.008043079636991024,0.0001319428556598723,13569.0,14730.0,14077.0,12737.0,0.41093870997428894,0.4889926016330719,0.4442632496356964,0.35914239287376404,0.0,0.0,0.0,0.0,13413.0,14878.0,14345.0,12426.0,1.9100160598754883,-0.0033620642750662203,0.06870635906558753,-0.07075132881611194,0.10706918686628342,0.016364121809601784,0.0
277,5,-0.0010173511691391468,3.2427673431811854e-05,0.001486359629780054,-0.034610506147146225,-0.013853278011083603,-0.02853459119796753,0.006888350006192923,-0.057193823158741,0.001740273553878069,0.17444616556167603,-1.431254506111145,-0.00820162333548069,0.0,0.0,0.0,0.004622213076800108,-0.02326587587594986,-0.0,0.0,0.0,0.0,-0.005451107397675514,-0.026748472824692726,0.00034468405647203326,12901.0,15674.0,14845.0,12001.0,0.3690578043460846,0.5574191808700562,0.4970566928386688,0.3162343204021454,0.0,0.0,0.0,0.0,12974.0,15615.0,15013.0,11786.0,1.9100160598754883,0.005784611514197872,0.06649280005868605,-0.0689695875431072,0.10706918686628342,0.016364121809601784,0.0
282,5,-0.0012120151659473777,4.063673986820504e-05,0.0016643385170027614,-0.03720388934016228,-0.006526398938149214,-0.03277129679918289,0.006888350006192923,-0.057193823158741,0.001740273553878069,0.17444616556167603,-1.431254506111145,-0.00820162333548069,0.0,0.0,0.0,0.014048323966562748,-0.028073059394955635,-0.0,0.0,0.0,0.0,-0.005451107397675514,-0.026748472824692726,0.00034468405647203326,12901.0,15674.0,14845.0,12001.0,0.3690578043460846,0.5574191808700562,0.4970566928386688,0.3162343204021454,0.0,0.0,0.0,0.0,12974.0,15615.0,15013.0,11786.0,2.001950263977051,0.00460652811348318,0.06043477907166151,-0.06983487001938425,0.13539262115955353,0.05212671682238579,0.0
287,5,-0.001289332751184702,0.00013316266995389014,0.0017034552292898297,-0.024159662425518036,-0.013713670894503593,-0.01780252903699875,0.006888350006192923,-0.057193823158741,0.001740273553878069,0.17444616556167603,-1.431254506111145,-0.00820162333548069,0.0,0.0,0.0,0.014048323966562748,-0.028073059394955635,-0.0,0.0,0.0,0.0,-0.005451107397675514,-0.026748472824692726,0.00034468405647203326,12901.0,15674.0,14845.0,12001.0,0.3690578043460846,0.5574191808700562,0.4970566928386688,0.3162343204021454,0.0,0.0,0.0,0.0,12974.0,15615.0,15013.0,11786.0,2.001950263977051,0.007306402854418034,0.05382124676687542,-0.06907759482791867,0.13539262115955353,0.05212671682238579,0.0
292,5,-0.0014310957631096244,0.00015092741523403674,0.001858463860116899,-0.026675423607230186,-0.007617238909006119,-0.02572205290198326,0.008401108905673027,-0.04570365324616432,0.001646625460125506,0.16151674091815948,-1.4487215280532837,0.004615697544068098,0.0,0.0,0.0,0.014685316942632198,-0.021163014695048332,-0.0,0.0,0.0,0.0,-0.005451107397675514,-0.026748472824692726,0.00034468405647203326,12826.0,16090.0,15722.0,11692.0,0.3645089268684387,0.5890070199966431,0.5609972476959229,0.2990431785583496,0.0,0.0,0.0,0.0,12740.0,16114.0,15790.0,11658.0,1.916262149810791,0.00554251479622524,0.047568632107976,-0.069313555139429,0.09770237654447556,0.052157700061798096,0.0
297,5,-0.0015237214975059032,0.00021443988953251392,0.001885758712887764,-0.021785257384181023,-0.010668391361832619,-0.013564196415245533,0.008401108905673027,-0.04570365324616432,0.001646625460125506,0.16151674091815948,-1.4487215280532837,0.004615697544068098,0.0,0.0,0.0,0.014685316942632198,-0.021163014695048332,-0.0,0.0,0.0,0.0,-0.005451107397675514,-0.026748472824692726,0.00034468405647203326,12826.0,16090.0,15722.0,11692.0,0.3645089268684387,0.5890070199966431,0.5609972476959229,0.2990431785583496,0.0,0.0,0.0,0.0,12740.0,16114.0,15790.0,11658.0,1.916262149810791,0.006652711734031111,0.04360413731169482,-0.06840365488600302,0.09770237654447556,0.052157700061798096,0.0
303,5,-0.0015898467972874641,0.0002320202620467171,0.0019731849897652864,-0.016649141907691956,-0.006377002224326134,-0.015916822478175163,0.009842198342084885,-0.029638363048434258,0.0016720230923965573,0.05325964838266373,-1.1850188970565796,0.020918743684887886,0.0,0.0,0.0,0.011778285726904869,-0.019820885732769966,-0.0,0.0,0.0,0.0,0.0021418840624392033,-0.021973706781864166,0.0009969162056222558,13099.0,16186.0,16375.0,12089.0,0.38127103447914124,0.5964359641075134,0.6111064553260803,0.3212026059627533,0.0,0.0,0.0,0.0,13171.0,16031.0,16225.0,12421.0,1.8865737915039062,0.005992381980094266,0.03920293294145577,-0.06868033145663512,0.09009282290935516,0.04118567705154419,0.0
308,5,-0.0016278906259685755,0.0002975060779135674,0.0019750131759792566,-0.011224919930100441,-0.0104090990498662,-0.006586125120520592,0.009715132415294647,-0.02162999100983143,0.0017950397450476885,-0.057562123984098434,-0.7058709859848022,0.02818010374903679,0.0,0.0,0.0,0.011778285726904869,-0.019820885732769966,-0.0,0.0,0.0,0.0,0.0021418840624392033,-0.021973706781864166,0.0009969162056222558,13723.0,15725.0,16562.0,13303.0,0.4208657145500183,0.5612615346908569,0.6258664131164551,0.39395666122436523,0.0,0.0,0.0,0.0,14027.0,15402.0,16460.0,13492.0,1.8865737915039062,0.006539734847053459,0.038622516789035874,-0.06812739226105952,0.09009282290935516,0.04118567705154419,0.0
313,5,-0.0016480016056448221,0.0003398347762413323,0.0019830765668302774,-0.006903279107064009,-0.009243082255125046,-0.0036020479165017605,0.009715132415294647,-0.02162999100983143,0.0017950397450476885,-0.057562123984098434,-0.7058709859848022,0.02818010374903679,0.0,0.0,0.0,0.0121935298666358,-0.011778471060097218,-0.0,0.0,0.0,0.0,0.0021418840624392033,-0.021973706781864166,0.0009969162056222558,13723.0,15725.0,16562.0,13303.0,0.4208657145500183,0.5612615346908569,0.6258664131164551,0.39395666122436523,0.0,0.0,0.0,0.0,14027.0,15402.0,16460.0,13492.0,1.7995707988739014,0.006204319728137358,0.038751962667679475,-0.06851466248866593,0.051070187240839005,0.04067123681306839,0.0
318,5,-0.0016291150823235512,0.00025761418510228395,0.002084197010844946,-0.000494933279696852,0.006169236730784178,-0.01357528381049633,0.009715132415294647,-0.02162999100983143,0.0017950397450476885,-0.057562123984098434,-0.7058709859848022,0.02818010374903679,0.0,0.0,0.0,0.0121935298666358,-0.011778471060097218,-0.0,0.0,0.0,0.0,0.0021418840624392033,-0.021973706781864166,0.0009969162056222558,13723.0,15725.0,16562.0,13303.0,0.4208657145500183,0.5612615346908569,0.6258664131164551,0.39395666122436523,0.0,0.0,0.0,0.0,14027.0,15402.0,16460.0,13492.0,1.7995707988739014,-0.004587668693662298,0.033215954320387826,-0.07001707374914995,0.051070187240839005,0.04067123681306839,0.0
323,5,-0.0015898938290774822,0.00039571677916683257,0.001962546491995454,0.004508587997406721,-0.01410461775958538,0.009167938493192196,0.008598039858043194,-0.016121402382850647,0.0020223611500114202,-0.11640721559524536,-0.11707859486341476,0.013874261640012264,0.0,0.0,0.0,-0.0069275046698749065,-0.002661302452906966,-0.0,0.0,0.0,0.0,0.0028700032271444798,0.0063833692111074924,0.001176531775854528,14243.0,14448.0,15408.0,14219.0,0.4554019868373871,0.4694150984287262,0.5376611948013306,0.45378389954566956,0.0,0.0,0.0,0.0,14595.0,14131.0,15210.0,14394.0,1.6912246942520142,0.004649082450781262,0.0409652659269281,-0.06799606169748916,0.010845174081623554,-0.021716026589274406,0.0
328,5,-0.0015729276929050684,0.00041211090865544975,0.001944788615219295,0.003839365905150771,-0.007609139196574688,0.00579813402146101,0.008598039858043194,-0.016121402382850647,0.0020223611500114202,-0.11640721559524536,-0.11707859486341476,0.013874261640012264,0.0,0.0,0.0,-0.0069275046698749065,-0.002661302452906966,-0.0,0.0,0.0,0.0,0.0028700032271444798,0.0063833692111074924,0.001176531775854528,14243.0,14448.0,15408.0,14219.0,0.4554019868373871,0.4694150984287262,0.5376611948013306,0.45378389954566956,0.0,0.0,0.0,0.0,14595.0,14131.0,15210.0,14394.0,1.6912246942520142,0.003452840768868768,0.04274735487480063,-0.06737079528169965,0.010845174081623554,-0.021716026589274406,0.0
333,5,-0.0015343636041507125,0.0003981803311035037,0.0019618174992501736,0.006163431331515312,-0.001371988095343113,0.00027578810113482177,0.0076936520636081696,-0.01693314127624035,0.0022985441610217094,-0.08986010402441025,0.3386724591255188,0.0269024521112442,0.0,0.0,0.0,0.009718410670757294,0.00138623989187181,-0.0,0.0,0.0,0.0,0.0025453749112784863,0.01554906740784645,0.0010031568817794323,15347.0,12514.0,13541.0,15046.0,0.5331750512123108,0.3458835780620575,0.4091327488422394,0.5113794207572937,0.0,0.0,0.0,0.0,15327.0,13179.0,14392.0,14930.0,1.7100803852081299,0.0024219382431376903,0.04413238324037655,-0.06729875012645462,-0.005711973179131746,0.03080405667424202,-0.0
338,5,-0.0015385617734864354,0.00033379727392457426,0.001974930288270116,0.001961600501090288,0.007177171763032675,-0.0014632061356678605,0.0076936520636081696,-0.01693314127624035,0.0022985441610217094,-0.08986010402441025,0.3386724591255188,0.0269024521112442,0.0,0.0,0.0,0.009718410670757294,0.00138623989187181,-0.0,0.0,0.0,0.0,0.0025453749112784863,0.01554906740784645,0.0010031568817794323,15347.0,12514.0,13541.0,15046.0,0.5331750512123108,0.3458835780620575,0.4091327488422394,0.5113794207572937,0.0,0.0,0.0,0.0,15327.0,13179.0,14392.0,14930.0,1.7100803852081299,-0.0009866870023015678,0.04623481005239611,-0.06873027577987484,-0.005711973179131746,0.03080405667424202,-0.0
343,5,-0.0014752540737390518,0.00027893512742593884,0.0020442530512809753,0.008381562307476997,0.009454326704144478,-0.008904017508029938,0.0065483818762004375,-0.0221418309956789,0.0026563205756247044,-0.03748153895139694,0.5014230012893677,0.020238393917679787,0.0,0.0,0.0,-0.00798832904547453,-0.0002808559511322528,-0.0,0.0,0.0,0.0,-0.0050639002583920956,0.018426328897476196,0.0005851116147823632,15442.0,12590.0,12326.0,14397.0,0.5401398539543152,0.3503706157207489,0.3348320424556732,0.46588215231895447,0.0,0.0,0.0,0.0,15382.0,12505.0,13479.0,15073.0,1.6934423446655273,-0.003307803665966079,0.04476828263040738,-0.06882822140504366,0.0011460196692496538,-0.02507416531443596,0.0
348,5,-0.0015817576786503196,0.000331241317326203,0.0022010549437254667,-0.009427813813090324,-0.0024950127117335796,-0.02237783931195736,0.0065483818762004375,-0.0221418309956789,0.0026563205756247044,-0.03748153895139694,0.5014230012893677,0.020238393917679787,0.0,0.0,0.0,-0.00798832904547453,-0.0002808559511322528,-0.0,0.0,0.0,0.0,-0.0050639002583920956,0.018426328897476196,0.0005851116147823632,15442.0,12590.0,12326.0,14397.0,0.5401398539543152,0.3503706157207489,0.3348320424556732,0.46588215231895447,0.0,0.0,0.0,0.0,15382.0,12505.0,13479.0,15073.0,1.6934423446655273,0.001794807827410125,0.04807620491935456,-0.06796139607262414,0.0011460196692496538,-0.02507416531443596,0.0
353,5,-0.0014823272358626127,0.00032413340522907674,0.0019093183800578117,0.00572848878800869,0.00045502089778892696,0.018734287470579147,0.00655432790517807,-0.026001587510108948,0.002809974830597639,0.07831217348575592,0.38986095786094666,0.014558644033968449,0.0,0.0,0.0,0.003452463774010539,-0.010472372174263,-0.0,0.0,0.0,0.0,-0.001034163637086749,0.01336128544062376,0.00044944259570911527,14904.0,12800.0,13053.0,14420.0,0.5012743473052979,0.36295825242996216,0.3784155249595642,0.46743226051330566,0.0,0.0,0.0,0.0,15418.0,12692.0,12356.0,14308.0,1.747618317604065,0.005106051971932707,0.04980953239944735,-0.06691082604204349,0.044099435210227966,0.011183627881109715,0.0
359,5,-0.0015321439132094383,0.0003076378779951483,0.0019321006257086992,-0.003686605952680111,0.0021614739671349525,0.00475984625518322,0.00655432790517807,-0.026001587510108948,0.002809974830597639,0.07831217348575592,0.38986095786094666,0.014558644033968449,0.0,0.0,0.0,0.003452463774010539,-0.010472372174263,-0.0,0.0,0.0,0.0,-0.001034163637086749,0.01336128544062376,0.00044944259570911527,14904.0,12800.0,13053.0,14420.0,0.5012743473052979,0.36295825242996216,0.3784155249595642,0.46743226051330566,0.0,0.0,0.0,0.0,15418.0,12692.0,12356.0,14308.0,1.747618317604065,0.005692153876751764,0.04892279329134629,-0.06725644789338862,0.044099435210227966,0.011183627881109715,0.0
364,5,-0.0015795845538377762,0.00029473030008375645,0.0019357508281245828,-0.007167522795498371,0.0024134977720677853,0.0014659151202067733,0.008281615562736988,-0.02885196916759014,0.0029716079588979483,0.011494334787130356,-0.27481770515441895,0.002680602017790079,0.0,0.0,0.0,-0.0020472966134548187,-0.005482022650539875,-0.0,0.0,0.0,0.0,-0.005494275130331516,0.004328242037445307,0.0003457982966210693,14426.0,13776.0,13290.0,13525.0,0.467847615480423,0.4243640601634979,0.39314624667167664,0.4080844223499298,0.0,0.0,0.0,0.0,14785.0,12941.0,13250.0,14238.0,1.6883474588394165,0.006405798047859516,0.0469737626659064,-0.06725669294440441,0.02230239473283291,-0.006406939122825861,-0.0
369,5,-0.0016549078281968832,0.00026654810062609613,0.001945683965459466,-0.011905799619853497,0.004347262438386679,-0.0006056074053049088,0.008281615562736988,-0.02885196916759014,0.0029716079588979483,0.011494334787130356,-0.27481770515441895,0.002680602017790079,0.0,0.0,0.0,-0.0020472966134548187,-0.005482022650539875,-0.0,0.0,0.0,0.0,-0.005494275130331516,0.004328242037445307,0.0003457982966210693,14426.0,13776.0,13290.0,13525.0,0.467847615480423,0.4243640601634979,0.39314624667167664,0.4080844223499298,0.0,0.0,0.0,0.0,14785.0,12941.0,13250.0,14238.0,1.6883474588394165,0.007266703239781684,0.04442890210787978,-0.06742217658449647,0.02230239473283291,-0.006406939122825861,-0.0
374,5,-0.0017482484690845013,0.0002800610673148185,0.0020300617907196283,-0.015963194891810417,0.00011734903819160536,-0.010367592796683311,0.008281615562736988,-0.02885196916759014,0.0029716079588979483,0.011494334787130356,-0.27481770515441895,0.002680602017790079,0.0,0.0,0.0,-0.004507729783654213,-0.012582008726894855,-0.0,0.0,0.0,0.0,-0.00029439988429658115,-0.006833936553448439,0.0007946867845021188,13671.0,14264.0,14706.0,13175.0,0.41752889752388,0.4568379819393158,0.487295538187027,0.38595589995384216,0.0,0.0,0.0,0.0,14297.0,13833.0,13647.0,13244.0,1.7747596502304077,0.005040815112863739,0.042152831214619296,-0.06762676410316583,0.053805362433195114,-0.014828707091510296,0.0
379,5,-0.0018778248922899365,0.00025400909362360835,0.0021280599758028984,-0.021934445947408676,0.0031731768976897,-0.015906820073723793,0.008281615562736988,-0.02885196916759014,0.0029716079588979483,0.011494334787130356,-0.27481770515441895,0.002680602017790079,0.0,0.0,0.0,-0.004507729783654213,-0.012582008726894855,-0.0,0.0,0.0,0.0,-0.00029439988429658115,-0.006833936553448439,0.0007946867845021188,13671.0,14264.0,14706.0,13175.0,0.41752889752388,0.4568379819393158,0.487295538187027,0.38595589995384216,0.0,0.0,0.0,0.0,14297.0,13833.0,13647.0,13244.0,1.7747596502304077,0.0022398214026889364,0.039868830957177526,-0.0680329812175506,0.053805362433195114,-0.014828707091510296,0.0
384,5,-0.0019333291565999389,0.00016836174472700804,0.002277036663144827,-0.015434296801686287,0.011546953581273556,-0.0242399200797081,0.0068061077035963535,-0.020059671252965927,0.002956860000267625,-0.17088961601257324,-0.5395750403404236,-0.01224609650671482,0.0,0.0,0.0,-0.0030248495750129223,-0.02054358273744583,-0.0,0.0,0.0,0.0,0.0016177552752196789,-0.010446224361658096,8.43051566334907e-06,13090.0,14351.0,14336.0,13131.0,0.38068148493766785,0.46273383498191833,0.4617225229740143,0.38320961594581604,0.0,0.0,0.0,0.0,13465.0,14381.0,14721.0,13244.0,1.8716659545898438,-0.006571086191962995,0.03139350327861634,-0.0690471241407897,0.09264540672302246,-0.010493961162865162,0.0
389,5,-0.0020162551663815975,0.00027159269666299224,0.0021996889263391495,-0.01612483523786068,-0.007768933195620775,-0.0004142560064792633,0.0068061077035963535,-0.020059671252965927,0.002956860000267625,-0.17088961601257324,-0.5395750403404236,-0.01224609650671482,0.0,0.0,0.0,-0.0030248495750129223,-0.02054358273744583,-0.0,0.0,0.0,0.0,0.0016177552752196789,-0.010446224361658096,8.43051566334907e-06,13090.0,14351.0,14336.0,13131.0,0.38068148493766785,0.46273383498191833,0.4617225229740143,0.38320961594581604,0.0,0.0,0.0,0.0,13465.0,14381.0,14721.0,13244.0,1.8716659545898438,0.0019583674609724793,0.03584625725340548,-0.06732149544209895,0.09264540672302246,-0.010493961162865162,0.0
394,5,-0.0020722313784062862,0.0002690491091925651,0.0021891756914556026,-0.013167072087526321,-0.0028023412451148033,0.0010958946077153087,0.0048259468749165535,-0.01413333136588335,0.0028926467057317495,-0.15543152391910553,-0.43471598625183105,-0.015383339487016201,0.0,0.0,0.0,0.009020904079079628,-0.016224583610892296,-0.0,0.0,0.0,0.0,0.00030050970963202417,-0.008064815774559975,0.00034022785257548094,13407.0,14727.0,14792.0,13273.0,0.40056923031806946,0.4887588918209076,0.4933035671710968,0.39212796092033386,0.0,0.0,0.0,0.0,13238.0,14187.0,14539.0,12935.0,1.8322840929031372,0.0009947310615354941,0.034021840136029206,-0.0675453759209527,0.07162778824567795,0.030636612325906754,0.0
399,5,-0.0021381177939474583,0.00024230619601439685,0.002213189611211419,-0.013173198327422142,0.002088212175294757,-0.002443313831463456,0.0048259468749165535,-0.01413333136588335,0.0028926467057317495,-0.15543152391910553,-0.43471598625183105,-0.015383339487016201,0.0,0.0,0.0,0.009020904079079628,-0.016224583610892296,-0.0,0.0,0.0,0.0,0.00030050970963202417,-0.008064815774559975,0.00034022785257548094,13407.0,14727.0,14792.0,13273.0,0.40056923031806946,0.4887588918209076,0.4933035671710968,0.39212796092033386,0.0,0.0,0.0,0.0,13238.0,14187.0,14539.0,12935.0,1.8322840929031372,-0.000223427472597876,0.03245294768727405,-0.06752057128299746,0.07162778824567795,0.030636612325906754,0.0
405,5,-0.0021601237822324038,0.00016501449863426387,0.0022202206309884787,-0.007910015992820263,0.010110286995768547,-0.001821034587919712,0.003830708796158433,-0.011392345651984215,0.0027910778298974037,-0.10492157936096191,-0.22739474475383759,-0.009775280952453613,0.0,0.0,0.0,-0.001955603016540408,-0.014199085533618927,-0.0,0.0,0.0,0.0,-0.0008257408044300973,-0.006619418505579233,0.0001245617459062487,13743.0,14489.0,14480.0,13536.0,0.4221916198730469,0.47219955921173096,0.4716031551361084,0.4087653160095215,0.0,0.0,0.0,0.0,13385.0,14765.0,14612.0,13452.0,1.7898480892181396,-0.00586486614090273,0.030637533609328926,-0.06919051288293444,0.061236876994371414,-0.0064879111014306545,0.0
410,5,-0.002287870040163398,0.00022914385772310197,0.002432475099340081,-0.018493544310331345,-0.003651407780125737,-0.0261989738792181,0.003830708796158433,-0.011392345651984215,0.0027910778298974037,-0.10492157936096191,-0.22739474475383759,-0.009775280952453613,0.0,0.0,0.0,-0.001955603016540408,-0.014199085533618927,-0.0,0.0,0.0,0.0,-0.0008257408044300973,-0.006619418505579233,0.0001245617459062487,13743.0,14489.0,14480.0,13536.0,0.4221916198730469,0.47219955921173096,0.4716031551361084,0.4087653160095215,0.0,0.0,0.0,0.0,13385.0,14765.0,14612.0,13452.0,1.7898480892181396,0.0004226213407578855,0.032261008611480825,-0.0681708557994954,0.061236876994371414,-0.0064879111014306545,0.0
415,5,-0.0021999904420226812,0.0002218009321950376,0.002277653431519866,0.0031481196638196707,-0.000579412211664021,0.008099036291241646,0.003830708796158433,-0.011392345651984215,0.0027910778298974037,-0.10492157936096191,-0.22739474475383759,-0.009775280952453613,0.0,0.0,0.0,0.004372465889900923,-0.01843649335205555,-0.0,0.0,0.0,0.0,-0.0008257408044300973,-0.006619418505579233,0.0001245617459062487,13743.0,14489.0,14480.0,13536.0,0.4221916198730469,0.47219955921173096,0.4716031551361084,0.4087653160095215,0.0,0.0,0.0,0.0,13385.0,14765.0,14612.0,13452.0,1.8463640213012695,-7.153501501005563e-05,0.03285271325823039,-0.06797755254775503,0.08201982080936432,0.014964072965085506,0.0
420,5,-0.002204696647822857,0.00022138224449008703,0.0022748163901269436,0.0006945128552615643,-0.0001815210998756811,0.0035800524055957794,0.0030775205232203007,-0.009804212488234043,0.0027274086605757475,-0.04684013873338699,-0.01367009524255991,-0.007065831683576107,0.0,0.0,0.0,0.004372465889900923,-0.01843649335205555,-0.0,0.0,0.0,0.0,-0.0013199594104662538,-0.004050783347338438,0.000251865218160674,14351.0,14650.0,14684.0,14011.0,0.46272900700569153,0.483355313539505,0.485736221075058,0.43984541296958923,0.0,0.0,0.0,0.0,13960.0,14917.0,14908.0,13885.0,1.8463640213012695,0.00029246021199142504,0.03354341306993795,-0.06750755814152924,0.08201982080936432,0.014964072965085506,0.0
425,5,-0.0022021541371941566,0.0002106606843881309,0.0022698414977639914,0.0005829041474498808,0.0012139783939346671,0.0020290003158152103,0.0030775205232203007,-0.009804212488234043,0.0027274086605757475,-0.04684013873338699,-0.01367009524255991,-0.007065831683576107,0.0,0.0,0.0,0.0006236693006940186,-0.002414918038994074,-0.0,0.0,0.0,0.0,-0.0013199594104662538,-0.004050783347338438,0.000251865218160674,14351.0,14650.0,14684.0,14011.0,0.46272900700569153,0.483355313539505,0.485736221075058,0.43984541296958923,0.0,0.0,0.0,0.0,13960.0,14917.0,14908.0,13885.0,1.6523025035858154,-4.054678728991936e-06,0.034749865246158126,-0.06780045838415859,0.009614868089556694,0.001910083694383502,-0.0
430,5,-0.0022502760402858257,0.0001598947710590437,0.002296391874551773,-0.005541468039155006,0.00657750153914094,-0.002374452305957675,0.002891854615882039,-0.010316294617950916,0.0026962675619870424,-0.010568959638476372,0.143037348985672,0.011494901962578297,0.0,0.0,0.0,0.0006236693006940186,-0.002414918038994074,-0.0,0.0,0.0,0.0,-0.0010807205690070987,0.0020874692127108574,0.0002642827748786658,14528.0,13866.0,14046.0,14051.0,0.47492238879203796,0.4302281439304352,0.4421694576740265,0.44252809882164,0.0,0.0,0.0,0.0,14635.0,13761.0,13978.0,14112.0,1.6523025035858154,-0.0030672911825737597,0.035673400153621415,-0.06861926487854059,0.009614868089556694,0.001910083694383502,-0.0
435,5,-0.002290652133524418,9.513821714790538e-05,0.002433620858937502,-0.007061717566102743,0.010401786305010319,-0.017417244613170624,0.002891854615882039,-0.010316294617950916,0.0026962675619870424,-0.010568959638476372,0.143037348985672,0.011494901962578297,0.0,0.0,0.0,-0.007390772458165884,-0.007953469641506672,-0.0,0.0,0.0,0.0,-0.0010807205690070987,0.0020874692127108574,0.0002642827748786658,14528.0,13866.0,14046.0,14051.0,0.47492238879203796,0.4302281439304352,0.4421694576740265,0.44252809882164,0.0,0.0,0.0,0.0,14635.0,13761.0,13978.0,14112.0,1.7354365587234497,-0.006931418908660377,0.031927401685515715,-0.0694890069751853,0.033258359879255295,-0.02377387322485447,0.0
440,5,-0.002342912135645747,0.0001916534238262102,0.0023681202437728643,-0.009095880202949047,-0.007421109825372696,0.0008931794436648488,0.002897365717217326,-0.012771183624863625,0.002844515023753047,0.0068580107763409615,0.23703940212726593,0.016162270680069923,0.0,0.0,0.0,-0.007390772458165884,-0.007953469641506672,-0.0,0.0,0.0,0.0,0.0005332923610694706,0.004368787165731192,0.0005612617824226618,14827.0,13771.0,14302.0,14416.0,0.49579674005508423,0.4240143299102783,0.4593890905380249,0.4671638607978821,0.0,0.0,0.0,0.0,14804.0,13744.0,14280.0,14486.0,1.7354365587234497,0.002609888764546161,0.03796346466814653,-0.06752125291221671,0.033258359879255295,-0.02377387322485447,0.0
445,5,-0.002291439101099968,0.00019359469297342002,0.0022319278214126825,0.0025384079199284315,-0.0032013976015150547,0.016700346022844315,0.002897365717217326,-0.012771183624863625,0.002844515023753047,0.0068580107763409615,0.23703940212726593,0.016162270680069923,0.0,0.0,0.0,0.008791265077888966,-0.01102426741272211,-0.0,0.0,0.0,0.0,0.0005332923610694706,0.004368787165731192,0.0005612617824226618,14827.0,13771.0,14302.0,14416.0,0.49579674005508423,0.4240143299102783,0.4593890905380249,0.4671638607978821,0.0,0.0,0.0,0.0,14804.0,13744.0,14280.0,14486.0,1.7733396291732788,0.0023083781355375207,0.03876951476375338,-0.06773701697704484,0.047105103731155396,0.028896262869238853,-0.0
450,5,-0.00230440404266119,0.00019170116866007447,0.0022302076686173677,-0.0005404247203841805,-0.0010533361928537488,0.006886560004204512,0.002702369587495923,-0.014681434258818626,0.002896580146625638,-0.02037787437438965,0.20838496088981628,-0.0020314501598477364,0.0,0.0,0.0,0.008791265077888966,-0.01102426741272211,-0.0,0.0,0.0,0.0,-0.00019578539649955928,0.009733086451888084,0.0003597660979721695,14379.0,12813.0,13014.0,14132.0,0.4646778404712677,0.3637358248233795,0.37596550583839417,0.44792333245277405,0.0,0.0,0.0,0.0,14289.0,12886.0,12971.0,14197.0,1.7733396291732788,0.002974863364418727,0.039315269174081825,-0.0676862067658707,0.047105103731155396,0.028896262869238853,-0.0
455,5,-0.002366771688684821,0.00018199476471636444,0.002237705048173666,-0.00770029379054904,0.0007434349390678108,0.0018549318192526698,0.002702369587495923,-0.014681434258818626,0.002896580146625638,-0.02037787437438965,0.20838496088981628,-0.0020314501598477364,0.0,0.0,0.0,0.001622991869226098,-0.0036867305170744658,-0.0,0.0,0.0,0.0,-0.00019578539649955928,0.009733086451888084,0.0003597660979721695,14379.0,12813.0,13014.0,14132.0,0.4646778404712677,0.3637358248233795,0.37596550583839417,0.44792333245277405,0.0,0.0,0.0,0.0,14289.0,12886.0,12971.0,14197.0,1.6680537462234497,0.0028074127699346477,0.03848570933198378,-0.06786950254502923,0.014818415977060795,0.005018045660108328,-0.0
461,5,-0.0024178833700716496,0.00015983426419552416,0.0022462394554167986,-0.009213519282639027,0.0029566343873739243,-0.0002821445232257247,0.002579397289082408,-0.01645810902118683,0.0028311999049037695,-0.005253516603261232,0.06476892530918121,-0.004202661104500294,0.0,0.0,0.0,0.001622991869226098,-0.0036867305170744658,-0.0,0.0,0.0,0.0,0.0017344779334962368,-0.0006029205396771431,-0.00048572252853773534,14508.0,13692.0,13430.0,14029.0,0.47353214025497437,0.4188501834869385,0.40204834938049316,0.4410058856010437,0.0,0.0,0.0,0.0,14366.0,13852.0,13515.0,13937.0,1.6680537462234497,0.0027459685981574755,0.037552342550663656,-0.06810380789390863,0.014818415977060795,0.005018045660108328,-0.0
466,5,-0.0024585702922195196,0.00017974981165025383,0.002274745376780629,-0.00856783241033554,-0.0012072124518454075,-0.0035335738211870193,0.002579397289082408,-0.01645810902118683,0.0028311999049037695,-0.005253516603261232,0.06476892530918121,-0.004202661104500294,0.0,0.0,0.0,0.001622991869226098,-0.0036867305170744658,-0.0,0.0,0.0,0.0,0.0017344779334962368,-0.0006029205396771431,-0.00048572252853773534,14508.0,13692.0,13430.0,14029.0,0.47353214025497437,0.4188501834869385,0.40204834938049316,0.4410058856010437,0.0,0.0,0.0,0.0,14366.0,13852.0,13515.0,13937.0,1.6680537462234497,0.0022763258466953953,0.035986278218066804,-0.06812099385186579,0.014818415977060795,0.005018045660108328,-0.0
471,5,-0.0024585702922195196,0.00017974981165025383,0.002274745376780629,-0.00856783241033554,-0.0012072124518454075,-0.0035335738211870193,0.0026081069372594357,-0.016099292784929276,0.002643940504640341,0.022943321615457535,-0.1603478044271469,-0.03036506474018097,0.0,0.0,0.0,0.001705557107925415,-0.010860814712941647,-0.0,0.0,0.0,0.0,-0.0006822210852988064,-0.0029823733493685722,-0.00016904642689041793,13678.0,14229.0,14063.0,14276.0,0.4179547429084778,0.4544485807418823,0.4432777762413025,0.4576585292816162,0.0,0.0,0.0,0.0,13562.0,14379.0,14192.0,14107.0,1.74923837184906,0.0022763258466953953,0.035986278218066804,-0.06812099385186579,0.04577771574258804,0.005529978312551975,0.0
476,5,-0.0026539505925029516,8.53920791996643e-05,0.0023900046944618225,-0.01977790705859661,0.009454846382141113,-0.012246266938745975,0.0026081069372594357,-0.016099292784929276,0.002643940504640341,0.022943321615457535,-0.1603478044271469,-0.03036506474018097,0.0,0.0,0.0,0.001705557107925415,-0.010860814712941647,-0.0,0.0,0.0,0.0,-0.0006822210852988064,-0.0029823733493685722,-0.00016904642689041793,13678.0,14229.0,14063.0,14276.0,0.4179547429084778,0.4544485807418823,0.4432777762413025,0.4576585292816162,0.0,0.0,0.0,0.0,13562.0,14379.0,14192.0,14107.0,1.74923837184906,0.00021886824380967017,0.032681921770015526,-0.06917120153653673,0.04577771574258804,0.005529978312551975,0.0
481,5,-0.002642438979819417,2.6484734917175956e-05,0.0023852370213717222,-0.006529789883643389,0.010850819759070873,-0.004326391965150833,0.003006216837093234,-0.013219685293734074,0.0023843145463615656,0.038320474326610565,-0.2840478718280792,-0.01734495349228382,0.0,0.0,0.0,-0.010049034841358662,-0.019651835784316063,-0.0,0.0,0.0,0.0,-0.0014241531025618315,-0.0066856746561825275,-0.0005974614759907126,13421.0,14005.0,13748.0,13472.0,0.40146005153656006,0.4394034147262573,0.4225051999092102,0.4046850800514221,0.0,0.0,0.0,0.0,13360.0,14116.0,13795.0,13368.0,1.8775588274002075,-0.004651779819777739,0.027373825126364347,-0.07070496161887592,0.08889937400817871,-0.034971412271261215,0.0
