timestamp,dt,pos_x,pos_y,pos_z,vel_x,vel_y,vel_z,roll,pitch,yaw,agv_x,agv_y,agv_z,x_ref,y_ref,z_ref,roll_ref,pitch_ref,yaw_ref,x_vel_ref,y_vel_ref,z_vel_ref,x_torque,y_torque,z_torque,w0,w1,w2,w3,u0,u1,u2,u3,m0req,m1req,m2req,m3req,thrust0,thrust1,thrust2,thrust3,thrust_ref,roll_vicon,pitch_vicon,yaw_vicon,acc_x,acc_y,acc_z
5,5,0.0,0.0,0.0,-0.0005956728709861636,-0.00013086924445815384,-0.0009824391454458237,-0.006223982200026512,-0.048708442598581314,-0.005918511189520359,0.002216680208221078,0.003143692621961236,-0.00048341203364543617,0.0,0.0,0.0,0.0001622379058972001,-0.0005680404137820005,-0.0,0.0,0.0,0.0,0.001219798345118761,0.014477432705461979,-0.000676281691994518,1495.0,1495.0,1495.0,1495.0,0.0,0.0,0.0,0.0,0.0,0.0,0.0,0.0,1495.0,1495.0,1495.0,1495.0,1.631954312324524,0.02026718543997164,-0.10581815170556491,-0.14414376257770448,0.002233773237094283,0.0004907596739940345,0.0
29,23,0.0,0.0,0.0,0.0005803329404443502,0.00042848510202020407,0.0016261432319879532,-0.006223982200026512,-0.048708442598581314,-0.005918511189520359,0.002216680208221078,0.003143692621961236,-0.00048341203364543617,0.0,0.0,0.0,0.0001622379058972001,-0.0005680404137820005,-0.0,0.0,0.0,0.0,0.001219798345118761,0.014477432705461979,-0.000676281691994518,1495.0,1495.0,1495.0,1495.0,0.0,0.0,0.0,0.0,0.0,0.0,0.0,0.0,1495.0,1495.0,1495.0,1495.0,1.631954312324524,0.02027376716675159,-0.10616871306163349,-0.14376518097467936,0.002233773237094283,0.0004907596739940345,0.0
34,5,0.0,0.0,0.0,0.0004622932756319642,-0.000639861507806927,-9.656080510467291e-05,-0.006209747400134802,-0.048705220222473145,-0.005927063059061766,0.0032870538998395205,-0.0006243068492040038,-0.0035571816843003035,0.0,0.0,0.0,-0.0005308216786943376,0.0005530276102945209,-0.0,0.0,0.0,0.0,0.0012562985066324472,0.014472226612269878,-0.0006141344201751053,1495.0,1495.0,1495.0,1495.0,0.0,0.0,0.0,0.0,0.0,0.0,0.0,0.0,1495.0,1495.0,1495.0,1495.0,1.6330889463424683,0.02018718053337855,-0.10634823715260938,-0.14392716403858535,-0.0021762484684586525,-0.0016068191034719348,0.0
39,5,0.0,0.0,0.0,-0.00010174683848163113,-0.00041861183126457036,0.0006361071136780083,-0.006209747400134802,-0.048705220222473145,-0.005927063059061766,0.0032870538998395205,-0.0006243068492040038,-0.0035571816843003035,0.0,0.0,0.0,-0.0005308216786943376,0.0005530276102945209,-0.0,0.0,0.0,0.0,0.0012562985066324472,0.014472226612269878,-0.0006141344201751053,1495.0,1495.0,1495.0,1495.0,0.0,0.0,0.0,0.0,0.0,0.0,0.0,0.0,1495.0,1495.0,1495.0,1495.0,1.6330889463424683,0.020697009048014126,-0.10608844891285343,-0.1438267060533285,-0.0021762484684586525,-0.0016068191034719348,0.0
54,15,2.5980325517593883e-06,3.232433527955436e-06,-3.1684237910667434e-05,-6.731416215188801e-05,-0.0002336725447094068,0.0018598593305796385,-0.00621449202299118,-0.048689279705286026,-0.005971129518002272,-0.0008275722502730787,0.000839133164845407,-0.00019756474648602307,0.0,0.0,0.0,0.0002961978316307068,-6.0685484640998766e-05,-0.0,0.0,0.0,0.0,0.0012562985066324472,0.014472226612269878,-0.0006141344201751053,1495.0,1495.0,1495.0,1495.0,0.0,0.0,0.0,0.0,0.0,0.0,0.0,0.0,1495.0,1495.0,1495.0,1495.0,1.6284600496292114,0.020401131452677357,-0.10579786359252259,-0.1440115210651289,0.00023812983999960124,0.0008940617553889751,0.0
59,5,-2.3709626475465484e-06,4.168953182670521e-06,-2.6739553504739888e-05,-0.0006232050945982337,-0.00020585139282047749,0.00015058192366268486,-0.00621449202299118,-0.048689279705286026,-0.005971129518002272,-0.0008275722502730787,0.000839133164845407,-0.00019756474648602307,0.0,0.0,0.0,0.0002961978316307068,-6.0685484640998766e-05,-0.0,0.0,0.0,0.0,0.001145626651123166,0.014813635498285294,-0.0006723103579133749,1495.0,1495.0,1495.0,1495.0,0.0,0.0,0.0,0.0,0.0,0.0,0.0,0.0,1495.0,1495.0,1495.0,1495.0,1.6284600496292114,0.02046760777016135,-0.1060146530836288,-0.14371295486537763,0.00023812983999960124,0.0008940617553889751,0.0
64,5,-2.1715369769026438e-07,-5.929306098551024e-06,-1.6625725038466044e-05,9.175035302178003e-06,0.0011294506257399917,-0.0011534268269315362,-0.0062284646555781364,-0.04867434874176979,-0.005983168724924326,-0.00046692421892657876,0.0065222736448049545,-0.0011233605910092592,0.0,0.0,0.0,-0.0014063161797821522,8.418191100645345e-06,-0.0,0.0,0.0,0.0,0.001101006055250764,0.014814930967986584,-0.0006324153509922326,14244.0,12609.0,12251.0,14825.0,0.4554651081562042,0.3514728248119354,0.3305085599422455,0.49564245343208313,0.0,0.0,0.0,0.0,14263.0,12581.0,12252.0,14829.0,1.6373279094696045,0.020273298190574197,-0.10613697467456454,-0.14389555003018872,-3.321283293189481e-05,-0.0042680250480771065,0.0
69,5,-4.7538424041704275e-06,-5.584939572145231e-06,-2.653719548106892e-06,-0.0005407325807027519,0.00041045621037483215,-0.0021380113903433084,-0.0062284646555781364,-0.04867434874176979,-0.005983168724924326,-0.00046692421892657876,0.0065222736448049545,-0.0011233605910092592,0.0,0.0,0.0,-0.0014063161797821522,8.418191100645345e-06,-0.0,0.0,0.0,0.0,0.001101006055250764,0.014814930967986584,-0.0006324153509922326,14244.0,12609.0,12251.0,14825.0,0.4554651081562042,0.3514728248119354,0.3305085599422455,0.49564245343208313,0.0,0.0,0.0,0.0,14263.0,12581.0,12252.0,14829.0,1.6373279094696045,0.020610070940433267,-0.10595430282875698,-0.14384334725270936,-3.321283293189481e-05,-0.0042680250480771065,0.0
74,5,-1.2783544889316545e-06,-1.5499943401664495e-05,5.569104359892663e-06,0.00020076548389624804,0.001353982836008072,-0.0018419433617964387,-0.0062284646555781364,-0.04867434874176979,-0.005983168724924326,-0.00046692421892657876,0.0065222736448049545,-0.0011233605910092592,0.0,0.0,0.0,-0.0005187357892282307,-0.0005220428574830294,-0.0,0.0,0.0,0.0,0.001101006055250764,0.014814930967986584,-0.0006324153509922326,14244.0,12609.0,12251.0,14825.0,0.4554651081562042,0.3514728248119354,0.3305085599422455,0.49564245343208313,0.0,0.0,0.0,0.0,14263.0,12581.0,12252.0,14829.0,1.632763385772705,0.02036073247008311,-0.10609124809800609,-0.14386014302639458,0.0020539092365652323,-0.0015699216164648533,0.0
80,5,4.607751634466695e-06,-3.773553316932521e-06,8.626167982583866e-06,0.0007866389350965619,-0.0008655735873617232,-0.0011036249343305826,-0.0062227738089859486,-0.048702992498874664,-0.005987332668155432,0.0013085755053907633,0.0004524920950643718,4.194100256427191e-05,0.0,0.0,0.0,-0.0005187357892282307,-0.0005220428574830294,-0.0,0.0,0.0,0.0,0.001249253866262734,0.014560368843376637,-0.000595797086134553,14191.0,12607.0,12245.0,14816.0,0.45188578963279724,0.3513682186603546,0.3301873505115509,0.49501869082450867,0.0,0.0,0.0,0.0,14266.0,12585.0,12273.0,14806.0,1.632763385772705,0.02026698938436685,-0.1060956710291145,-0.14412230835392176,0.0020539092365652323,-0.0015699216164648533,0.0
85,5,5.496413905348163e-06,-3.615543164414703e-06,1.56050573423272e-05,0.00042129502980969846,-0.0003651906445156783,-0.0012789167230948806,-0.0062227738089859486,-0.048702992498874664,-0.005987332668155432,0.0013085755053907633,0.0004524920950643718,4.194100256427191e-05,0.0,0.0,0.0,-0.0005187357892282307,-0.0005220428574830294,-0.0,0.0,0.0,0.0,0.001249253866262734,0.014560368843376637,-0.000595797086134553,14191.0,12607.0,12245.0,14816.0,0.45188578963279724,0.3513682186603546,0.3301873505115509,0.49501869082450867,0.0,0.0,0.0,0.0,14266.0,12585.0,12273.0,14806.0,1.632763385772705,0.02043274185962649,-0.1058861023689402,-0.14383993517782268,0.0020539092365652323,-0.0015699216164648533,0.0
90,5,1.0412337360321544e-05,1.5904133761068806e-06,6.3854886320768856e-06,0.0007584288250654936,-0.0007707910262979567,0.0005947815370745957,-0.006211716681718826,-0.04870382323861122,-0.006006723735481501,0.00234378594905138,-0.003298381343483925,-0.0005712665151804686,0.0,0.0,0.0,0.00044628712930716574,0.00040956682641990483,-0.0,0.0,0.0,0.0,0.0009911961387842894,0.014536004513502121,-0.0006660146755166352,14239.0,12672.0,12265.0,14825.0,0.455159455537796,0.35522696375846863,0.33131489157676697,0.4956265985965729,0.0,0.0,0.0,0.0,14170.0,12626.0,12199.0,14858.0,1.6314491033554077,0.02035143544756469,-0.10596988765721393,-0.14411446711398054,-0.0016100900247693062,0.0013495731400325894,0.0
95,5,1.8037926565739326e-05,-8.056159686020692e-07,-2.0289469830458984e-05,0.0012184421066194773,-2.079289515677374e-05,0.003438907442614436,-0.006211716681718826,-0.04870382323861122,-0.006006723735481501,0.00234378594905138,-0.003298381343483925,-0.0005712665151804686,0.0,0.0,0.0,0.00044628712930716574,0.00040956682641990483,-0.0,0.0,0.0,0.0,0.0009911961387842894,0.014536004513502121,-0.0006660146755166352,14239.0,12672.0,12265.0,14825.0,0.455159455537796,0.35522696375846863,0.33131489157676697,0.4956265985965729,0.0,0.0,0.0,0.0,14170.0,12626.0,12199.0,14858.0,1.6314491033554077,0.020379672537302662,-0.10601331897738209,-0.1438336715220256,-0.0016100900247693062,0.0013495731400325894,0.0
100,5,8.931237061915454e-06,7.949231985548977e-06,-2.6523577616899274e-05,-0.0006054257974028587,-0.0010588988661766052,0.0021236559841781855,-0.00620462978258729,-0.04869123548269272,-0.005996223539113998,-0.002158468123525381,0.0015933101531118155,-0.00537176663056016,0.0,0.0,0.0,2.4213202777900733e-05,0.0011824853718280792,-0.0,0.0,0.0,0.0,0.0011641691671684384,0.014471291564404964,-0.0007000118494033813,14180.0,12671.0,12234.0,14843.0,0.4511147439479828,0.35519441962242126,0.3295462429523468,0.4969079792499542,0.0,0.0,0.0,0.0,14170.0,12683.0,12215.0,14858.0,1.638413667678833,0.020379273517118362,-0.10598712528097501,-0.14391676031677922,-0.004668433219194412,7.353335240622982e-05,0.0
105,5,3.9096391901694005e-07,1.4660017200185393e-07,-2.2036652808310464e-05,-0.0012670031283050776,0.000512756232637912,0.0003110314137302339,-0.00620462978258729,-0.04869123548269272,-0.005996223539113998,-0.002158468123525381,0.0015933101531118155,-0.00537176663056016,0.0,0.0,0.0,2.4213202777900733e-05,0.0011824853718280792,-0.0,0.0,0.0,0.0,0.0011641691671684384,0.014471291564404964,-0.0007000118494033813,14180.0,12671.0,12234.0,14843.0,0.4511147439479828,0.35519441962242126,0.3295462429523468,0.4969079792499542,0.0,0.0,0.0,0.0,14170.0,12683.0,12215.0,14858.0,1.638413667678833,0.02092927124966254,-0.10602741533247838,-0.14372321027527885,-0.004668433219194412,7.353335240622982e-05,0.0
110,5,-8.412406714342069e-06,-1.3708063306694385e-06,-6.09543076279806e-06,-0.0015632057329639792,0.00038719127769581974,-0.001788533991202712,-0.006213557440787554,-0.04872259870171547,-0.006039936561137438,-0.0010922109941020608,0.00807735975831747,-0.0015027951449155807,0.0,0.0,0.0,-0.0006324173882603645,-0.0012020007707178593,-0.0,0.0,0.0,0.0,0.0013556551421061158,0.01493336632847786,-0.000547167903278023,14290.0,12578.0,12270.0,14866.0,0.4586229920387268,0.34962689876556396,0.3315856456756592,0.49857813119888306,0.0,0.0,0.0,0.0,14211.0,12607.0,12231.0,14851.0,1.6396445035934448,0.020663546297642,-0.10608060536990795,-0.14384626572782278,0.004749043378978968,-0.0019220381509512663,0.0
115,5,-1.0013904102379456e-05,-7.67359415476676e-06,-9.723254152049776e-06,-0.0008174619870260358,0.0009112110128626227,-0.00028007483342662454,-0.006213557440787554,-0.04872259870171547,-0.006039936561137438,-0.0010922109941020608,0.00807735975831747,-0.0015027951449155807,0.0,0.0,0.0,-0.0006324173882603645,-0.0012020007707178593,-0.0,0.0,0.0,0.0,0.0013556551421061158,0.01493336632847786,-0.000547167903278023,14290.0,12578.0,12270.0,14866.0,0.4586229920387268,0.34962689876556396,0.3315856456756592,0.49857813119888306,0.0,0.0,0.0,0.0,14211.0,12607.0,12231.0,14851.0,1.6396445035934448,0.020788142464029925,-0.10570076812536845,-0.14382900824311717,0.004749043378978968,-0.0019220381509512663,0.0
120,5,-6.242069957806962e-06,-8.109614100249019e-06,-7.82886581873754e-06,0.00012563531345222145,0.0004168068408034742,-0.0003393565129954368,-0.0062307026237249374,-0.04874918609857559,-0.0060514891520142555,-0.001925106393173337,0.001038326765410602,0.0009561605984345078,0.0,0.0,0.0,-0.0011390983127057552,-0.0007904235972091556,-0.0,0.0,0.0,0.0,0.0012953663244843483,0.015102066099643707,-0.0006210999563336372,14274.0,12594.0,12268.0,14870.0,0.45750221610069275,0.35059455037117004,0.3314962089061737,0.4988206923007965,0.0,0.0,0.0,0.0,14252.0,12624.0,12229.0,14898.0,1.6383863687515259,0.02030209876545838,-0.10586665622958212,-0.14407327296713984,0.003120525972917676,-0.0034592815209180117,0.0
126,5,4.585488966313278e-08,3.4907668577943696e-06,-9.377688002132345e-06,0.0008048050804063678,-0.001225323067046702,5.011606845073402e-05,-0.006242825649678707,-0.04870809614658356,-0.006016069557517767,-0.0025230112951248884,-0.0023763396311551332,0.002740786876529455,0.0,0.0,0.0,0.0015172335552051663,0.0007634520879946649,-0.0,0.0,0.0,0.0,0.0011520667467266321,0.014239962212741375,-0.00042935297824442387,14279.0,12617.0,12387.0,14765.0,0.4578283429145813,0.3519721031188965,0.3384084701538086,0.49143558740615845,0.0,0.0,0.0,0.0,14252.0,12654.0,12311.0,14805.0,1.6407026052474976,0.020234647344907562,-0.10626304029420353,-0.14396995497503873,-0.0030183042399585247,0.004614137578755617,0.0
133,7,1.0813140761456452e-05,3.850740995403612e-06,-8.557345609006006e-06,0.001613996340893209,-0.0005333261215128005,-7.839465979486704e-05,-0.006242825649678707,-0.04870809614658356,-0.006016069557517767,-0.0025230112951248884,-0.0023763396311551332,0.002740786876529455,0.0,0.0,0.0,0.0015172335552051663,0.0007634520879946649,-0.0,0.0,0.0,0.0,0.0011520667467266321,0.014239962212741375,-0.00042935297824442387,14279.0,12617.0,12387.0,14765.0,0.4578283429145813,0.3519721031188965,0.3384084701538086,0.49143558740615845,0.0,0.0,0.0,0.0,14252.0,12654.0,12311.0,14805.0,1.6407026052474976,0.020475640990203103,-0.1058912108203289,-0.14400137395702634,-0.0030183042399585247,0.004614137578755617,0.0
138,5,8.535021152056288e-06,4.670182534027845e-06,1.0789531188493129e-05,0.0003722241963259876,-0.0003116634034086019,-0.0023529829923063517,-0.006242825649678707,-0.04870809614658356,-0.006016069557517767,-0.0025230112951248884,-0.0023763396311551332,0.002740786876529455,0.0,0.0,0.0,0.000663585786242038,0.0015436273533850908,-0.0,0.0,0.0,0.0,0.0011520667467266321,0.014239962212741375,-0.00042935297824442387,14279.0,12617.0,12387.0,14765.0,0.4578283429145813,0.3519721031188965,0.3384084701538086,0.49143558740615845,0.0,0.0,0.0,0.0,14252.0,12654.0,12311.0,14805.0,1.6432033777236938,0.020052302902584328,-0.10634438204851053,-0.14393998620802376,-0.006112029310315847,0.0020211422815918922,0.0
143,5,5.583561687672045e-06,8.646866263006814e-06,1.0387971997261047e-05,-0.00020528542518150061,-0.0006018673884682357,-0.0008930061594583094,-0.00622960552573204,-0.04873398318886757,-0.006032570730894804,0.0039559295400977135,0.006869391538202763,-0.0015050640795379877,0.0,0.0,0.0,0.000663585786242038,0.0015436273533850908,-0.0,0.0,0.0,0.0,0.001008755061775446,0.01457910519093275,-0.0006434558890759945,14245.0,12670.0,12267.0,14834.0,0.4555334746837616,0.3551052510738373,0.33144745230674744,0.49630019068717957,0.0,0.0,0.0,0.0,14267.0,12591.0,12303.0,14882.0,1.6432033777236938,0.019949057178085948,-0.10606783767717995,-0.14372334580067112,-0.006112029310315847,0.0020211422815918922,0.0
148,5,-1.983573383768089e-06,6.404455689335009e-06,5.500057795870816e-06,-0.0009901704033836722,2.8342321456875652e-05,0.00022934727894607931,-0.00622960552573204,-0.04873398318886757,-0.006032570730894804,0.0039559295400977135,0.006869391538202763,-0.0015050640795379877,0.0,0.0,0.0,0.000663585786242038,0.0015436273533850908,-0.0,0.0,0.0,0.0,0.001008755061775446,0.01457910519093275,-0.0006434558890759945,14245.0,12670.0,12267.0,14834.0,0.4555334746837616,0.3551052510738373,0.33144745230674744,0.49630019068717957,0.0,0.0,0.0,0.0,14267.0,12591.0,12303.0,14882.0,1.6432033777236938,0.020470440575371705,-0.10586765723740142,-0.14401286020289936,-0.006112029310315847,0.0020211422815918922,0.0
153,5,-1.4085011343922815e-06,6.3072907323658e-06,4.230420927342493e-06,-0.0003270594752393663,2.2996695406618528e-05,0.0002440953248878941,-0.006225004326552153,-0.048749104142189026,-0.006022333167493343,-0.001006036764010787,0.003568209009245038,0.0004248007317073643,0.0,0.0,0.0,-2.3430950022884645e-05,-0.0009447383345104754,-0.0,0.0,0.0,0.0,0.001581881777383387,0.014981272630393505,-0.0005759447813034058,14267.0,12579.0,12318.0,14880.0,0.45704683661460876,0.3497155010700226,0.3343949019908905,0.4995453655719757,0.0,0.0,0.0,0.0,14259.0,12590.0,12302.0,14892.0,1.635853886604309,0.020166771789015197,-0.10574537241107465,-0.1443333385850577,0.003723984817042947,-7.104654650902376e-05,0.0
158,5,1.3160015441826545e-06,1.2796146620530635e-05,-3.996398845629301e-06,0.00043888267828151584,-0.001956369262188673,0.0004538725770544261,-0.006225004326552153,-0.048749104142189026,-0.006022333167493343,-0.001006036764010787,0.003568209009245038,0.0004248007317073643,0.0,0.0,0.0,-2.3430950022884645e-05,-0.0009447383345104754,-0.0,0.0,0.0,0.0,0.001581881777383387,0.014981272630393505,-0.0005759447813034058,14267.0,12579.0,12318.0,14880.0,0.45704683661460876,0.3497155010700226,0.3343949019908905,0.4995453655719757,0.0,0.0,0.0,0.0,14259.0,12590.0,12302.0,14892.0,1.635853886604309,0.020453338137485302,-0.10602251829505328,-0.14366732091285123,0.003723984817042947,-7.104654650902376e-05,0.0
163,5,1.3160015441826545e-06,1.2796146620530635e-05,-3.996398845629301e-06,0.00043888267828151584,-0.001956369262188673,0.0004538725770544261,-0.006241075694561005,-0.04873275384306908,-0.0061389910988509655,0.0029475658666342497,-0.0023159647826105356,-0.02455919049680233,0.0,0.0,0.0,0.00242722244001925,0.0004167142615187913,-0.0,0.0,0.0,0.0,0.0013838383601978421,0.015096360817551613,-0.0011245531495660543,14054.0,12868.0,12018.0,15113.0,0.44271644949913025,0.36707231402397156,0.31720075011253357,0.5162138938903809,0.0,0.0,0.0,0.0,14303.0,12600.0,12293.0,14884.0,1.6463209390640259,0.020453338137485302,-0.10602251829505328,-0.14366732091285123,-0.0016531165456399322,0.007406821008771658,0.0
169,5,4.03644253310631e-06,-1.1430248378019314e-05,-1.1587934750423301e-05,-3.394718805793673e-05,0.0013472425052896142,0.000559204607270658,-0.006241075694561005,-0.04873275384306908,-0.0061389910988509655,0.0029475658666342497,-0.0023159647826105356,-0.02455919049680233,0.0,0.0,0.0,0.00242722244001925,0.0004167142615187913,-0.0,0.0,0.0,0.0,0.0013838383601978421,0.015096360817551613,-0.0011245531495660543,14054.0,12868.0,12018.0,15113.0,0.44271644949913025,0.36707231402397156,0.31720075011253357,0.5162138938903809,0.0,0.0,0.0,0.0,14303.0,12600.0,12293.0,14884.0,1.6463209390640259,0.02046560782003563,-0.10597810812301288,-0.14433079597105622,-0.0016531165456399322,0.007406821008771658,0.0
174,5,5.151817276782822e-06,1.0617087355058175e-05,3.5008579288842157e-06,0.00012026611511828378,-0.002106783213093877,-0.00158697331789881,-0.006150777451694012,-0.04873793199658394,-0.005753201898187399,0.005418723449110985,0.020925162360072136,-0.022730309516191483,0.0,0.0,0.0,-0.0016830359818413854,-2.6581001293379813e-05,-0.0,0.0,0.0,0.0,0.001165221561677754,0.01457528118044138,0.0006483221077360213,14402.0,12440.0,12460.0,14679.0,0.4662559926509857,0.34151723980903625,0.34267953038215637,0.48540112376213074,0.0,0.0,0.0,0.0,13694.0,13226.0,11576.0,15371.0,1.639625906944275,0.020469583017700396,-0.10612324358620542,-0.14350896363458734,0.0001050188802764751,-0.005115008447319269,0.0
179,5,-2.7430940008343896e-06,-7.0737172563895e-07,2.262528141727671e-05,-0.0008992829243652523,0.0005162217421457171,-0.0029297200962901115,-0.006150777451694012,-0.04873793199658394,-0.005753201898187399,0.005418723449110985,0.020925162360072136,-0.022730309516191483,0.0,0.0,0.0,-0.0016830359818413854,-2.6581001293379813e-05,-0.0,0.0,0.0,0.0,0.001165221561677754,0.01457528118044138,0.0006483221077360213,14402.0,12440.0,12460.0,14679.0,0.4662559926509857,0.34151723980903625,0.34267953038215637,0.48540112376213074,0.0,0.0,0.0,0.0,13694.0,13226.0,11576.0,15371.0,1.639625906944275,0.019846250835731563,-0.10613572044749336,-0.14389760967399987,0.0001050188802764751,-0.005115008447319269,0.0
184,5,-7.069751518429257e-06,-6.646827387157828e-06,2.2519308913615532e-05,-0.0008789121056906879,0.0009192234138026834,-0.0011591713409870863,-0.006014441605657339,-0.04891210421919823,-0.006078931037336588,0.003036517882719636,-0.006095040589570999,0.11781127005815506,0.0,0.0,0.0,-0.000639520469121635,-0.0008590766810812056,-0.0,0.0,0.0,0.0,0.0015740635572001338,0.014855630695819855,6.517460860777646e-06,14937.0,11814.0,13122.0,14226.0,0.5036246180534363,0.3057563602924347,0.3826940357685089,0.4542458951473236,0.0,0.0,0.0,0.0,15661.0,10778.0,13994.0,13401.0,1.6363385915756226,0.019937698423179207,-0.10605326535571166,-0.14506251470820503,0.0033873249776661396,-0.0019397070864215493,0.0
189,5,4.34809408034198e-06,-1.5649878832846298e-06,1.767984031175729e-05,0.001018576673232019,-0.0002421313984086737,0.0001170676841866225,-0.006014441605657339,-0.04891210421919823,-0.006078931037336588,0.003036517882719636,-0.006095040589570999,0.11781127005815506,0.0,0.0,0.0,-0.000639520469121635,-0.0008590766810812056,-0.0,0.0,0.0,0.0,0.0015740635572001338,0.014855630695819855,6.517460860777646e-06,14937.0,11814.0,13122.0,14226.0,0.5036246180534363,0.3057563602924347,0.3826940357685089,0.4542458951473236,0.0,0.0,0.0,0.0,15661.0,10778.0,13994.0,13401.0,1.6363385915756226,0.02062002888863774,-0.10628640824751073,-0.14357420375934626,0.0033873249776661396,-0.0019397070864215493,0.0
194,5,1.4538388313667383e-05,-3.5698180909093935e-06,1.7097583622671664e-05,0.0016302659641951323,0.0001437270693713799,0.00011669793457258493,-0.0060586403124034405,-0.04888186231255531,-0.005879978183656931,0.023726211860775948,0.01760333590209484,-0.23735322058200836,0.0,0.0,0.0,0.00029650836950168014,0.0009747401927597821,-0.0,0.0,0.0,0.0,0.000796529115177691,0.015010177157819271,-0.004900195170193911,12145.0,14738.0,9556.0,16645.0,0.3243900537490845,0.4895550608634949,0.19321219623088837,0.632468581199646,0.0,0.0,0.0,0.0,12040.0,14850.0,9367.0,16724.0,1.6364580392837524,0.020530644678350148,-0.10629754751826269,-0.1433317642468657,-0.0038436653558164835,0.0008993947994895279,0.0
199,5,-4.013722900708672e-06,-1.7603630112716928e-05,1.1281090337433852e-05,-0.0015741470269858837,0.001741548185236752,0.0007446582894772291,-0.0060586403124034405,-0.04888186231255531,-0.005879978183656931,0.023726211860775948,0.01760333590209484,-0.23735322058200836,0.0,0.0,0.0,0.00029650836950168014,0.0009747401927597821,-0.0,0.0,0.0,0.0,0.000796529115177691,0.015010177157819271,-0.004900195170193911,12145.0,14738.0,9556.0,16645.0,0.3243900537490845,0.4895550608634949,0.19321219623088837,0.632468581199646,0.0,0.0,0.0,0.0,12040.0,14850.0,9367.0,16724.0,1.6364580392837524,0.020565031485188182,-0.10627825307321886,-0.14454997108934212,-0.0038436653558164835,0.0008993947994895279,0.0
204,5,-5.108191999170231e-06,-9.374526825922658e-07,1.0808519618876744e-05,-0.0007609950844198465,-0.0013033219147473574,0.00035457179183140397,-0.0060586403124034405,-0.04888186231255531,-0.005879978183656931,0.023726211860775948,0.01760333590209484,-0.23735322058200836,0.0,0.0,0.0,-0.002167265862226486,-0.0014903910923749208,-0.0,0.0,0.0,0.0,0.000796529115177691,0.015010177157819271,-0.004900195170193911,12145.0,14738.0,9556.0,16645.0,0.3243900537490845,0.4895550608634949,0.19321219623088837,0.632468581199646,0.0,0.0,0.0,0.0,12040.0,14850.0,9367.0,16724.0,1.649837851524353,0.020230657189085486,-0.1068311304143127,-0.14379570012873033,0.005925052799284458,-0.0066276779398322105,0.0
209,5,-1.6335312466253527e-05,5.7928541536966804e-06,2.166088052035775e-05,-0.0016516523901373148,-0.001328965532593429,-0.0011604544706642628,-0.0056776744313538074,-0.04881603270769119,-0.0054941074922680855,0.023326311260461807,-0.022448735311627388,0.20050479471683502,0.0,0.0,0.0,-0.002167265862226486,-0.0014903910923749208,-0.0,0.0,0.0,0.0,0.0010582313407212496,0.014563236385583878,-0.004811207298189402,16326.0,9817.0,14691.0,12378.0,0.6073331832885742,0.20493385195732117,0.4862019717693329,0.3378696143627167,0.0,0.0,0.0,0.0,14562.0,12299.0,12680.0,14458.0,1.649837851524353,0.02030011937738544,-0.1071072838870878,-0.1436359037501597,0.005925052799284458,-0.0066276779398322105,0.0
214,5,-4.7699533752165735e-05,-1.1887305845448282e-05,4.741437078337185e-05,-0.004424367565661669,0.0015900329453870654,-0.003554600989446044,-0.0056776744313538074,-0.04881603270769119,-0.0054941074922680855,0.023326311260461807,-0.022448735311627388,0.20050479471683502,0.0,0.0,0.0,0.00164235127158463,-0.0015827651368454099,-0.0,0.0,0.0,0.0,0.0010582313407212496,0.014563236385583878,-0.004811207298189402,16326.0,9817.0,14691.0,12378.0,0.6073331832885742,0.20493385195732117,0.4862019717693329,0.3378696143627167,0.0,0.0,0.0,0.0,14562.0,12299.0,12680.0,14458.0,1.647538661956787,0.01994112594881649,-0.10802399858389818,-0.1442331321694238,0.006283523514866829,0.005015449598431587,0.0
219,5,-6.41492661088705e-05,9.0804896899499e-06,0.00010213306813966483,-0.0037437144201248884,-0.001880122348666191,-0.007988084107637405,-0.005648271646350622,-0.04870845377445221,-0.0066293287090957165,0.019247405230998993,-0.04080268368124962,0.0037075683940201998,0.0,0.0,0.0,0.00164235127158463,-0.0015827651368454099,-0.0,0.0,0.0,0.0,0.0005083920550532639,0.012266278266906738,-0.001475707977078855,13142.0,13966.0,11313.0,15581.0,0.38391047716140747,0.4368482828140259,0.2785894274711609,0.5504896640777588,0.0,0.0,0.0,0.0,14995.0,11765.0,13209.0,13977.0,1.647538661956787,0.019718436803711385,-0.1087462453898232,-0.14368091995741897,0.006283523514866829,0.005015449598431587,0.0
224,5,-8.344818343175575e-05,2.1376275981310755e-05,0.00016399739251937717,-0.0038133561611175537,-0.002227543154731393,-0.010618952102959156,-0.005648271646350622,-0.04870845377445221,-0.0066293287090957165,0.019247405230998993,-0.04080268368124962,0.0037075683940201998,0.0,0.0,0.0,0.0022949986159801483,-0.0035783054772764444,-0.0,0.0,0.0,0.0,0.0005083920550532639,0.012266278266906738,-0.001475707977078855,13142.0,13966.0,11313.0,15581.0,0.38391047716140747,0.4368482828140259,0.2785894274711609,0.5504896640777588,0.0,0.0,0.0,0.0,14995.0,11765.0,13209.0,13977.0,1.6691395044326782,0.01953532653664815,-0.10978133718486843,-0.14342858501266348,0.01439195778220892,0.007100401446223259,0.0
229,5,-0.00013706693425774574,2.613291871966794e-05,0.0002701956545934081,-0.007959593087434769,-0.0014618143904954195,-0.016991371288895607,-0.005427534691989422,-0.04657202214002609,-0.005980686284601688,-0.03696665167808533,-0.23741403222084045,0.18232475221157074,0.0,0.0,0.0,0.0022949986159801483,-0.0035783054772764444,-0.0,0.0,0.0,0.0,0.001674156286753714,0.009464086033403873,0.0029403988737612963,15456.0,11103.0,14501.0,12847.0,0.5411922931671143,0.26754409074783325,0.4730105400085449,0.3657917380332947,0.0,0.0,0.0,0.0,12350.0,14659.0,10429.0,16180.0,1.6691395044326782,0.018679669704240256,-0.11216308114478542,-0.14419014107700287,0.01439195778220892,0.007100401446223259,0.0
234,5,-0.00018781007383950055,4.153818008489907e-05,0.0003719388914760202,-0.009273013100028038,-0.0024333572946488857,-0.01900573819875717,-0.005427534691989422,-0.04657202214002609,-0.005980686284601688,-0.03696665167808533,-0.23741403222084045,0.18232475221157074,0.0,0.0,0.0,0.001775410259142518,-0.007429389748722315,-0.0,0.0,0.0,0.0,0.001674156286753714,0.009464086033403873,0.0029403988737612963,15456.0,11103.0,14501.0,12847.0,0.5411922931671143,0.26754409074783325,0.4730105400085449,0.3657917380332947,0.0,0.0,0.0,0.0,12350.0,14659.0,10429.0,16180.0,1.7094800472259521,0.017911046813856996,-0.11511408170904092,-0.14402423323515592,0.03060302883386612,0.005625626537948847,0.0
240,5,-0.00024828838650137186,6.687403219984844e-05,0.0004837533342652023,-0.010966603644192219,-0.004013645462691784,-0.021020030602812767,-0.005427534691989422,-0.04657202214002609,-0.005980686284601688,-0.03696665167808533,-0.23741403222084045,0.18232475221157074,0.0,0.0,0.0,0.001775410259142518,-0.007429389748722315,-0.0,0.0,0.0,0.0,0.001622367068193853,0.003969560377299786,-0.004645123612135649,11862.0,15031.0,11667.0,15612.0,0.30842918157577515,0.5103142857551575,0.29763829708099365,0.552757740020752,0.0,0.0,0.0,0.0,14888.0,11854.0,14042.0,13360.0,1.7094800472259521,0.017478621998914482,-0.11853502009158098,-0.14307742695375028,0.03060302883386612,0.005625626537948847,0.0
245,5,-0.0003438201965764165,7.903118239482865e-05,0.0006411584326997399,-0.015850458294153214,-0.0030643159989267588,-0.02729662135243416,-0.005427534691989422,-0.04657202214002609,-0.005980686284601688,-0.03696665167808533,-0.23741403222084045,0.18232475221157074,0.0,0.0,0.0,0.004762154538184404,-0.010095106437802315,-0.0,0.0,0.0,0.0,0.001622367068193853,0.003969560377299786,-0.004645123612135649,11862.0,15031.0,11667.0,15612.0,0.30842918157577515,0.5103142857551575,0.29763829708099365,0.552757740020752,0.0,0.0,0.0,0.0,14888.0,11854.0,14042.0,13360.0,1.7468503713607788,0.016421991594714067,-0.12275762430985868,-0.14332583820517836,0.04249190539121628,0.015419303439557552,0.0
250,5,-0.00045018873061053455,0.00010842669144039974,0.0008072037599049509,-0.019104408100247383,-0.004753187298774719,-0.030844086781144142,-0.005730609875172377,-0.037170812487602234,-0.005459871608763933,-0.04110044986009598,-0.7848483920097351,0.02099914290010929,0.0,0.0,0.0,0.004762154538184404,-0.010095106437802315,-0.0,0.0,0.0,0.0,0.0018175794975832105,-0.004408847074955702,0.0027596857398748398,13843.0,13558.0,14873.0,12941.0,0.4287385046482086,0.4101780354976654,0.4990398585796356,0.3715236485004425,0.0,0.0,0.0,0.0,13121.0,13960.0,13184.0,14363.0,1.7468503713607788,0.015047703147524367,-0.12787183739093186,-0.14374263463254522,0.04249190539121628,0.015419303439557552,0.0
255,5,-0.0005611738306470215,0.00015394482761621475,0.0009535313001833856,-0.020959975197911263,-0.00736345024779439,-0.029896941035985947,-0.005730609875172377,-0.037170812487602234,-0.005459871608763933,-0.04110044986009598,-0.7848483920097351,0.02099914290010929,0.0,0.0,0.0,0.005435882601886988,-0.016825351864099503,-0.0,0.0,0.0,0.0,0.0018175794975832105,-0.004408847074955702,0.0027596857398748398,13843.0,13558.0,14873.0,12941.0,0.4287385046482086,0.4101780354976654,0.4990398585796356,0.3715236485004425,0.0,0.0,0.0,0.0,13121.0,13960.0,13184.0,14363.0,1.8283122777938843,0.014206122560337804,-0.13252258753174062,-0.14274076058614021,0.07412070035934448,0.018421504646539688,0.0
260,5,-0.0006901390152052045,0.00021223010844551027,0.0011003422550857067,-0.023859810084104538,-0.009939614683389664,-0.029576091095805168,-0.006895622704178095,-0.026322945952415466,-0.006342138163745403,-0.14964282512664795,-1.0185517072677612,0.042583830654621124,0.0,0.0,0.0,0.005435882601886988,-0.016825351864099503,-0.0,0.0,0.0,0.0,0.003482353175058961,-0.012451451271772385,-0.002771591767668724,12214.0,15022.0,14717.0,13721.0,0.32839033007621765,0.5096741318702698,0.4880496561527252,0.42073628306388855,0.0,0.0,0.0,0.0,11691.0,15357.0,13378.0,14570.0,1.8283122777938843,0.012168617386234487,-0.1379695936737738,-0.1426461360232933,0.07412070035934448,0.018421504646539688,0.0
265,5,-0.0008418567595072091,0.0002396787895122543,0.001271071843802929,-0.027750056236982346,-0.007269687484949827,-0.03231799229979515,-0.006895622704178095,-0.026322945952415466,-0.006342138163745403,-0.14964282512664795,-1.0185517072677612,0.042583830654621124,0.0,0.0,0.0,0.010966685600578785,-0.020470652729272842,-0.0,0.0,0.0,0.0,0.003482353175058961,-0.012451451271772385,-0.002771591767668724,12214.0,15022.0,14717.0,13721.0,0.32839033007621765,0.5096741318702698,0.4880496561527252,0.42073628306388855,0.0,0.0,0.0,0.0,11691.0,15357.0,13378.0,14570.0,1.8912149667739868,0.01030593236725545,-0.1429294942198865,-0.14394956988189742,0.09327559918165207,0.03844226896762848,0.0
270,5,-0.0009784396970644593,0.00028241006657481194,0.0014381903456524014,-0.02748996764421463,-0.008035626262426376,-0.03298141807317734,-0.008406946435570717,-0.01754959672689438,-0.005863634403795004,-0.18262334167957306,-1.118915319442749,-0.14614231884479523,0.0,0.0,0.0,0.010966685600578785,-0.020470652729272842,-0.0,0.0,0.0,0.0,0.00525124603882432,-0.01992046646773815,-0.0016355474945157766,10914.0,16352.0,14933.0,14279.0,0.2578313648700714,0.6093174815177917,0.5033382773399353,0.4578252136707306,0.0,0.0,0.0,0.0,13556.0,13819.0,16138.0,12013.0,1.8912149667739868,0.00878315589396338,-0.14868661159132662,-0.1429565272378072,0.09327559918165207,0.03844226896762848,0.0
275,5,-0.0010964687680825591,0.00033920109854079783,0.0015883062733337283,-0.025159476324915886,-0.010029174387454987,-0.03120647743344307,-0.008406946435570717,-0.01754959672689438,-0.005863634403795004,-0.18262334167957306,-1.118915319442749,-0.14614231884479523,0.0,0.0,0.0,0.008895719423890114,-0.023426774889230728,-0.0,0.0,0.0,0.0,0.00525124603882432,-0.01992046646773815,-0.0016355474945157766,10914.0,16352.0,14933.0,14279.0,0.2578313648700714,0.6093174815177917,0.5033382773399353,0.4578252136707306,0.0,0.0,0.0,0.0,13556.0,13819.0,16138.0,12013.0,1.9219110012054443,0.0069217056988292195,-0.1542891903264952,-0.14186420821906498,0.10847777128219604,0.03168928995728493,0.0
280,5,-0.0019268030300736427,0.0008052053162828088,0.0010584065457805991,-0.1097039058804512,-0.05993217974901199,0.05110538378357887,-0.011079953983426094,-0.0039725047536194324,-0.006205653306096792,-0.24023035168647766,-1.1196070909500122,0.13184526562690735,0.0,0.0,0.0,0.008895719423890114,-0.023426774889230728,-0.0,0.0,0.0,0.0,0.005933045409619808,-0.025206884369254112,0.0004625025321729481,12756.0,14936.0,16700.0,12202.0,0.360262393951416,0.5035142302513123,0.6368536353111267,0.3276820778846741,0.0,0.0,0.0,0.0,9431.0,17166.0,14172.0,15100.0,1.9219110012054443,0.012799018923048537,-0.200250369602083,-0.17352382117494142,0.10847777128219604,0.03168928995728493,0.0
285,5,-0.0020322396885603666,0.0008311129058711231,0.0011677630245685577,-0.056533973664045334,-0.02708178013563156,0.007319369353353977,-0.011079953983426094,-0.0039725047536194324,-0.006205653306096792,-0.24023035168647766,-1.1196070909500122,0.13184526562690735,0.0,0.0,0.0,0.045312393456697464,-0.06425218284130096,-0.0,0.0,0.0,0.0,0.005933045409619808,-0.025206884369254112,0.0004625025321729481,12756.0,14936.0,16700.0,12202.0,0.360262393951416,0.5035142302513123,0.6368536353111267,0.3276820778846741,0.0,0.0,0.0,0.0,9431.0,17166.0,14172.0,15100.0,2.730363130569458,0.011672335099171389,-0.2041680948082368,-0.17431592941341467,0.42200279235839844,0.22917956113815308,-0.0
290,5,-0.0021117092110216618,0.000851524411700666,0.001228904235176742,-0.03214992210268974,-0.013282096944749355,-0.004409194923937321,-0.013072936795651913,0.004335292149335146,-0.006292872130870819,-0.2219298630952835,-0.8964938521385193,-0.21056398749351501,0.0,0.0,0.0,0.045312393456697464,-0.06425218284130096,-0.0,0.0,0.0,0.0,0.008053981699049473,-0.02631768025457859,-0.003963762428611517,9497.0,17287.0,14807.0,15187.0,0.1906057894229889,0.6847187280654907,0.49437472224235535,0.5215157270431519,0.0,0.0,0.0,0.0,13301.0,14708.0,17516.0,11821.0,2.730363130569458,0.010281271984984875,-0.2070096478915998,-0.17422472029140337,0.42200279235839844,0.22917956113815308,-0.0
296,5,-0.0022149868309497833,0.0008704637875780463,0.001312084379605949,-0.02525327540934086,-0.007585559505969286,-0.011745302006602287,-0.013072936795651913,0.004335292149335146,-0.006292872130870819,-0.2219298630952835,-0.8964938521385193,-0.21056398749351501,0.0,0.0,0.0,0.014725721441209316,-0.027481766417622566,-0.0,0.0,0.0,0.0,0.008053981699049473,-0.02631768025457859,-0.003963762428611517,9497.0,17287.0,14807.0,15187.0,0.1906057894229889,0.6847187280654907,0.49437472224235535,0.5215157270431519,0.0,0.0,0.0,0.0,13301.0,14708.0,17516.0,11821.0,1.9968054294586182,0.00936700170758541,-0.20805523198380665,-0.173906007731319,0.1321997195482254,0.05449948087334633,0.0
301,5,-0.0022793214302510023,0.0008653330150991678,0.0013171201571822166,-0.017821475863456726,-0.0024185338988900185,-0.005302412435412407,-0.013072936795651913,0.004335292149335146,-0.006292872130870819,-0.2219298630952835,-0.8964938521385193,-0.21056398749351501,0.0,0.0,0.0,0.014725721441209316,-0.027481766417622566,-0.0,0.0,0.0,0.0,0.008053981699049473,-0.02631768025457859,-0.003963762428611517,9497.0,17287.0,14807.0,15187.0,0.1906057894229889,0.6847187280654907,0.49437472224235535,0.5215157270431519,0.0,0.0,0.0,0.0,13301.0,14708.0,17516.0,11821.0,1.9968054294586182,0.008968110671779125,-0.2095298685454651,-0.17446439328105376,0.1321997195482254,0.05449948087334633,0.0
306,5,-0.0023167994804680347,0.0008460070821456611,0.0012865435564890504,-0.01162594836205244,0.0013516973704099655,0.0015482341405004263,-0.015394351445138454,0.013293053023517132,-0.006676189601421356,-0.16274480521678925,-0.5965051651000977,0.11606757342815399,0.0,0.0,0.0,0.004059782717376947,-0.01791652850806713,-0.0,0.0,0.0,0.0,0.006810873746871948,-0.02327224612236023,0.0007138896617107093,13236.0,15074.0,16913.0,12829.0,0.38975611329078674,0.5134146213531494,0.654067873954773,0.36467230319976807,0.0,0.0,0.0,0.0,9516.0,17514.0,14758.0,15384.0,1.8392043113708496,0.009788470752427045,-0.21014760461716922,-0.17524011524284225,0.07939788699150085,0.01384009700268507,0.0
311,5,-0.002315877005457878,0.0008139079436659813,0.00124310702085495,-0.00453968346118927,0.004392580594867468,0.0058316742070019245,-0.015394351445138454,0.013293053023517132,-0.006676189601421356,-0.16274480521678925,-0.5965051651000977,0.11606757342815399,0.0,0.0,0.0,0.004059782717376947,-0.01791652850806713,-0.0,0.0,0.0,0.0,0.006810873746871948,-0.02327224612236023,0.0007138896617107093,13236.0,15074.0,16913.0,12829.0,0.38975611329078674,0.5134146213531494,0.654067873954773,0.36467230319976807,0.0,0.0,0.0,0.0,9516.0,17514.0,14758.0,15384.0,1.8392043113708496,0.010903820667356751,-0.21083644770388626,-0.17478267904632044,0.07939788699150085,0.01384009700268507,0.0
316,5,-0.0022907298989593983,0.000788986450061202,0.0012040737783536315,0.0012017878470942378,0.0047476086765527725,0.007016656920313835,-0.015688208863139153,0.01603681780397892,-0.006785909179598093,0.05259602516889572,-0.128033846616745,-0.15555444359779358,0.0,0.0,0.0,-0.003775408025830984,-0.007223252207040787,-0.0,0.0,0.0,0.0,0.012181742116808891,-0.028284812346100807,-0.003513321280479431,13398.0,19313.0,18077.0,17654.0,0.3999917805194855,0.8630978465080261,0.7518110871315002,0.7154623866081238,0.0,0.0,0.0,0.0,11738.0,16913.0,14454.0,15860.0,1.7121554613113403,0.01287961758559315,-0.21039429100308638,-0.17512114073280738,0.029800325632095337,-0.011981571093201637,-0.0
321,5,-0.002283387118950486,0.0007466434617526829,0.0012262631207704544,0.0013618475059047341,0.006980199366807938,0.00014393989113159478,-0.015688208863139153,0.01603681780397892,-0.006785909179598093,0.05259602516889572,-0.128033846616745,-0.15555444359779358,0.0,0.0,0.0,-0.003775408025830984,-0.007223252207040787,-0.0,0.0,0.0,0.0,0.012181742116808891,-0.028284812346100807,-0.003513321280479431,13398.0,19313.0,18077.0,17654.0,0.3999917805194855,0.8630978465080261,0.7518110871315002,0.7154623866081238,0.0,0.0,0.0,0.0,11738.0,16913.0,14454.0,15860.0,1.7121554613113403,0.013903013339606484,-0.20816898875077258,-0.17551943878812032,0.029800325632095337,-0.011981571093201637,-0.0
326,5,-0.0022447111550718546,0.0006883870810270309,0.0012204388622194529,0.005185860209167004,0.009782848879694939,0.0007564965053461492,-0.014292152598500252,0.014786649495363235,-0.007192506920546293,0.17615875601768494,0.2941306233406067,0.0797756165266037,0.0,0.0,0.0,-0.007045776583254337,-0.0018430158961564302,-0.0,0.0,0.0,0.0,0.003985740710049868,-0.008712616749107838,0.00023065085406415164,14397.0,14872.0,15876.0,14299.0,0.46591877937316895,0.4990072250366211,0.5726510286331177,0.45922839641571045,0.0,0.0,0.0,0.0,14847.0,14525.0,15772.0,14313.0,1.6885993480682373,0.015827841361280577,-0.20495825710012833,-0.1768086168370724,0.007498882710933685,-0.02205248363316059,-0.0
331,5,-0.002187573816627264,0.0006184850353747606,0.0011394394095987082,0.008930827490985394,0.012301388196647167,0.010022521018981934,-0.014292152598500252,0.014786649495363235,-0.007192506920546293,0.17615875601768494,0.2941306233406067,0.0797756165266037,0.0,0.0,0.0,-0.007045776583254337,-0.0018430158961564302,-0.0,0.0,0.0,0.0,0.003985740710049868,-0.008712616749107838,0.00023065085406415164,14397.0,14872.0,15876.0,14299.0,0.46591877937316895,0.4990072250366211,0.5726510286331177,0.45922839641571045,0.0,0.0,0.0,0.0,14847.0,14525.0,15772.0,14313.0,1.6885993480682373,0.017156034617447774,-0.20274753748559146,-0.17708112557115166,0.007498882710933685,-0.02205248363316059,-0.0
336,5,-0.0021389538887888193,0.0005768972914665937,0.001096228021197021,0.009406699799001217,0.00991107989102602,0.009194377809762955,-0.012256886810064316,0.010664240457117558,-0.007393564563244581,0.26596271991729736,0.6696863174438477,-0.1162152886390686,0.0,0.0,0.0,-0.013139808550477028,0.005065630190074444,-0.0,0.0,0.0,0.0,-0.0003628642880357802,0.003832304384559393,-0.0028746728785336018,13372.0,15222.0,12699.0,15707.0,0.3983694911003113,0.5240635871887207,0.35687845945358276,0.5598927736282349,0.0,0.0,0.0,0.0,13228.0,15394.0,12111.0,16114.0,1.753683090209961,0.019346460272498305,-0.19987919355659006,-0.1771691530999028,-0.02140410803258419,-0.04270964860916138,-0.0
341,5,-0.002073169220238924,0.0005121962167322636,0.0009804420405998826,0.011656836606562138,0.011728560552001,0.01757207326591015,-0.012256886810064316,0.010664240457117558,-0.007393564563244581,0.26596271991729736,0.6696863174438477,-0.1162152886390686,0.0,0.0,0.0,-0.013139808550477028,0.005065630190074444,-0.0,0.0,0.0,0.0,-0.0003628642880357802,0.003832304384559393,-0.0028746728785336018,13372.0,15222.0,12699.0,15707.0,0.3983694911003113,0.5240635871887207,0.35687845945358276,0.5598927736282349,0.0,0.0,0.0,0.0,13228.0,15394.0,12111.0,16114.0,1.753683090209961,0.02066027975756447,-0.19773895137739234,-0.17752111867056553,-0.02140410803258419,-0.04270964860916138,-0.0
346,5,-0.002022469649091363,0.0004543385293800384,0.0009078782750293612,0.01074669323861599,0.011634347960352898,0.01573648303747177,-0.008926373906433582,0.0017369261477142572,-0.008203884586691856,0.273309588432312,0.7804862856864929,0.015493717044591904,0.0,0.0,0.0,-0.012573235668241978,0.007580927573144436,-0.0,0.0,0.0,0.0,-0.002798780333250761,0.016117671504616737,-0.0018170059192925692,14470.0,13470.0,12449.0,14811.0,0.4709300100803375,0.4045480191707611,0.34204724431037903,0.49463018774986267,0.0,0.0,0.0,0.0,14650.0,13258.0,12523.0,14763.0,1.7655307054519653,0.021716509517526326,-0.19474020907871373,-0.17830893751201982,-0.032248612493276596,-0.041144341230392456,-0.0
351,5,-0.0019997034687548876,0.0004026035312563181,0.000807938224170357,0.0070306239649653435,0.010861940681934357,0.018287401646375656,-0.008926373906433582,0.0017369261477142572,-0.008203884586691856,0.273309588432312,0.7804862856864929,0.015493717044591904,0.0,0.0,0.0,-0.012573235668241978,0.007580927573144436,-0.0,0.0,0.0,0.0,-0.002798780333250761,0.016117671504616737,-0.0018170059192925692,14470.0,13470.0,12449.0,14811.0,0.4709300100803375,0.4045480191707611,0.34204724431037903,0.49463018774986267,0.0,0.0,0.0,0.0,14650.0,13258.0,12523.0,14763.0,1.7655307054519653,0.023077658945149026,-0.19288030840668646,-0.17815795587957522,-0.032248612493276596,-0.041144341230392456,-0.0
356,5,-0.0019929627887904644,0.0003682003589347005,0.0007228297181427479,0.003621116979047656,0.00847315602004528,0.017527975142002106,-0.007169265765696764,-0.0044122361578047276,-0.008318934589624405,0.21521642804145813,0.7574695944786072,-0.0446101538836956,0.0,0.0,0.0,-0.011957729235291481,0.0036552869714796543,-0.0,0.0,0.0,0.0,-0.0026566097512841225,0.016050489619374275,-0.0016320348950102925,14316.0,13521.0,11543.0,15297.0,0.4603886306285858,0.4078052341938019,0.29089996218681335,0.5295055508613586,0.0,0.0,0.0,0.0,14015.0,13818.0,11154.0,15591.0,1.736903190612793,0.02387355099023381,-0.1908173996431187,-0.1785391493830642,-0.015297377482056618,-0.03849586471915245,-0.0
362,5,-0.002041599713265896,0.00028684077551588416,0.0008807460544630885,-0.004387964028865099,0.013152414001524448,-0.011938766576349735,-0.007169265765696764,-0.0044122361578047276,-0.008318934589624405,0.21521642804145813,0.7574695944786072,-0.0446101538836956,0.0,0.0,0.0,-0.011957729235291481,0.0036552869714796543,-0.0,0.0,0.0,0.0,-0.0026566097512841225,0.016050489619374275,-0.0016320348950102925,14316.0,13521.0,11543.0,15297.0,0.4603886306285858,0.4078052341938019,0.29089996218681335,0.5295055508613586,0.0,0.0,0.0,0.0,14015.0,13818.0,11154.0,15591.0,1.736903190612793,0.021514570652206452,-0.18126865358117727,-0.17584346887288035,-0.015297377482056618,-0.03849586471915245,-0.0
367,5,-0.0020548319444060326,0.0002513015060685575,0.0008198063005693257,-0.0033430615440011024,0.009525678120553493,0.002537265419960022,-0.0055972859263420105,-0.01215988490730524,-0.008786054328083992,0.08163778483867645,0.5214142203330994,0.01440438162535429,0.0,0.0,0.0,-0.014519721269607544,-0.006497495342046022,-0.0,0.0,0.0,0.0,-0.0010180362733080983,0.012121790088713169,-0.0020019072107970715,14795.0,13472.0,12271.0,15218.0,0.493500679731369,0.4047045409679413,0.3316895663738251,0.5237882733345032,0.0,0.0,0.0,0.0,14912.0,13298.0,12598.0,14990.0,1.7732455730438232,0.021325277277720055,-0.18039468330091762,-0.17628630140944052,0.02775990217924118,-0.047720830887556076,0.0
372,5,-0.002089455258101225,0.00023849555873312056,0.0008173031383194029,-0.005492022726684809,0.005346983205527067,0.0013152827741578221,-0.0055972859263420105,-0.01215988490730524,-0.008786054328083992,0.08163778483867645,0.5214142203330994,0.01440438162535429,0.0,0.0,0.0,-0.014519721269607544,-0.006497495342046022,-0.0,0.0,0.0,0.0,-0.0010180362733080983,0.012121790088713169,-0.0020019072107970715,14795.0,13472.0,12271.0,15218.0,0.493500679731369,0.4047045409679413,0.3316895663738251,0.5237882733345032,0.0,0.0,0.0,0.0,14912.0,13298.0,12598.0,14990.0,1.7732455730438232,0.02036820658332775,-0.1799922477151889,-0.1758045201605184,0.02775990217924118,-0.047720830887556076,0.0
377,5,-0.0021124579943716526,0.00021353625925257802,0.0008124026353470981,-0.0049571264535188675,0.00513390963897109,0.0011141746072098613,-0.005595630034804344,-0.015030443668365479,-0.008929316885769367,-0.059188950806856155,0.20047515630722046,-0.05161986127495766,0.0,0.0,0.0,-0.005850971210747957,-0.007736587896943092,-0.0,0.0,0.0,0.0,0.0013335238909348845,0.003692763391882181,-0.000584118883125484,14055.0,14117.0,12259.0,15505.0,0.44274693727493286,0.44694316387176514,0.33098405599594116,0.5448565483093262,0.0,0.0,0.0,0.0,13886.0,14189.0,12501.0,15401.0,1.7257192134857178,0.018951718635202404,-0.18139108273656834,-0.17478839747784533,0.03217064216732979,-0.01871553063392639,-0.0
382,5,-0.002151522785425186,0.00021965501946397126,0.0008752968860790133,-0.006670625414699316,0.0013193120248615742,-0.007101641967892647,-0.007234889082610607,-0.015051296912133694,-0.009082868695259094,-0.22082896530628204,-0.1804601103067398,0.010866913944482803,0.0,0.0,0.0,-0.005850971210747957,-0.007736587896943092,-0.0,0.0,0.0,0.0,0.003912630956619978,-0.008226051926612854,-0.0019485055236145854,13823.0,13824.0,13604.0,14440.0,0.42741966247558594,0.42745453119277954,0.41315871477127075,0.46887028217315674,0.0,0.0,0.0,0.0,13356.0,14161.0,13678.0,14482.0,1.7257192134857178,0.016767688371605097,-0.18229963691515297,-0.17445450378105307,0.03217064216732979,-0.01871553063392639,-0.0
387,5,-0.0021987687796354294,0.00021252420265227556,0.0010328857460990548,-0.008337770588696003,0.0013834228739142418,-0.021751318126916885,-0.007234889082610607,-0.015051296912133694,-0.009082868695259094,-0.22082896530628204,-0.1804601103067398,0.010866913944482803,0.0,0.0,0.0,-0.005850971210747957,-0.007736587896943092,-0.0,0.0,0.0,0.0,0.003912630956619978,-0.008226051926612854,-0.0019485055236145854,13823.0,13824.0,13604.0,14440.0,0.42741966247558594,0.42745453119277954,0.41315871477127075,0.46887028217315674,0.0,0.0,0.0,0.0,13356.0,14161.0,13678.0,14482.0,1.7257192134857178,0.014584243749224849,-0.18232731587207252,-0.17253063535699456,0.03217064216732979,-0.01871553063392639,-0.0
392,5,-0.002239883877336979,0.0001672017970122397,0.0011920593678951263,-0.008268924430012703,0.005992058664560318,-0.02780136838555336,-0.009812559932470322,-0.011790508404374123,-0.009297184646129608,-0.4080815315246582,-0.5326637625694275,-0.03088485822081566,0.0,0.0,0.0,-0.0012365382863208652,-0.010347483679652214,-0.0,0.0,0.0,0.0,0.0075865210965275764,-0.013852585107088089,-0.0007129512378014624,11997.0,14593.0,15040.0,13699.0,0.31601014733314514,0.4794086515903473,0.5109794735908508,0.4193209111690521,0.0,0.0,0.0,0.0,12335.0,15017.0,14521.0,14224.0,1.7426990270614624,0.0117676346704786,-0.18083561121315306,-0.16937085244119604,0.04345111548900604,-0.003994278144091368,0.0
397,5,-0.002286680741235614,0.0001358712324872613,0.0014290023827925324,-0.008923189714550972,0.006156489718705416,-0.039553701877593994,-0.009812559932470322,-0.011790508404374123,-0.009297184646129608,-0.4080815315246582,-0.5326637625694275,-0.03088485822081566,0.0,0.0,0.0,-0.0012365382863208652,-0.010347483679652214,-0.0,0.0,0.0,0.0,0.0075865210965275764,-0.013852585107088089,-0.0007129512378014624,11997.0,14593.0,15040.0,13699.0,0.31601014733314514,0.4794086515903473,0.5109794735908508,0.4193209111690521,0.0,0.0,0.0,0.0,12335.0,15017.0,14521.0,14224.0,1.7426990270614624,0.00796184275247439,-0.17856496838445857,-0.16494269408145057,0.04345111548900604,-0.003994278144091368,0.0
402,5,-0.00230741617269814,0.00010483197547728196,0.001645165728405118,-0.006057537626475096,0.006187307648360729,-0.04176108166575432,-0.009812559932470322,-0.011790508404374123,-0.009297184646129608,-0.4080815315246582,-0.5326637625694275,-0.03088485822081566,0.0,0.0,0.0,-0.006829376798123121,-0.010862342081964016,-0.0,0.0,0.0,0.0,0.0075865210965275764,-0.013852585107088089,-0.0007129512378014624,11997.0,14593.0,15040.0,13699.0,0.31601014733314514,0.4794086515903473,0.5109794735908508,0.4193209111690521,0.0,0.0,0.0,0.0,12335.0,15017.0,14521.0,14224.0,1.7627942562103271,0.004851123088634097,-0.1752033174576535,-0.16029492849646365,0.04613795503973961,-0.022314393892884254,0.0
407,5,-0.002312012016773224,6.24114036327228e-05,0.001812877249903977,-0.0029745064675807953,0.0075653912499547005,-0.03682982176542282,-0.015101226046681404,-0.004455828573554754,-0.009236697107553482,-0.49775010347366333,-0.6948651075363159,0.0061940597370266914,0.0,0.0,0.0,-0.006829376798123121,-0.010862342081964016,-0.0,0.0,0.0,0.0,0.008853057399392128,-0.017133066430687904,-0.001800721394829452,11275.0,15146.0,15014.0,13991.0,0.27655255794525146,0.5185561180114746,0.5091094374656677,0.4384809732437134,0.0,0.0,0.0,0.0,11754.0,14776.0,14927.0,13834.0,1.7627942562103271,0.001242659156690395,-0.172747186691853,-0.15592064883368797,0.04613795503973961,-0.022314393892884254,0.0
412,5,-0.0023062219843268394,5.227587098488584e-05,0.0019613795448094606,-0.0004950021975673735,0.004242420196533203,-0.03255218639969826,-0.015101226046681404,-0.004455828573554754,-0.009236697107553482,-0.49775010347366333,-0.6948651075363159,0.0061940597370266914,0.0,0.0,0.0,-0.008758839219808578,-0.005769511219114065,-0.0,0.0,0.0,0.0,0.008853057399392128,-0.017133066430687904,-0.001800721394829452,11275.0,15146.0,15014.0,13991.0,0.27655255794525146,0.5185561180114746,0.5091094374656677,0.4384809732437134,0.0,0.0,0.0,0.0,11754.0,14776.0,14927.0,13834.0,1.7247955799102783,-0.0010271795915763019,-0.1712408443354815,-0.15232587637851502,0.02397780865430832,-0.028001585975289345,0.0
417,5,-0.0027617202140390873,0.00048295294982381165,0.0014760339399799705,-0.054857801645994186,-0.04998428001999855,0.04522058367729187,-0.01847934164106846,0.0010638204403221607,-0.009339306503534317,-0.41393065452575684,-0.6912208795547485,-0.02709256485104561,0.0,0.0,0.0,-0.008758839219808578,-0.005769511219114065,-0.0,0.0,0.0,0.0,0.006585514172911644,-0.01673886366188526,-0.0009302214020863175,12042.0,15009.0,15178.0,13627.0,0.3185308277606964,0.5087403655052185,0.5208626389503479,0.41466042399406433,0.0,0.0,0.0,0.0,11341.0,15108.0,15058.0,13932.0,1.7247955799102783,0.002798212141962704,-0.2042361333722607,-0.1771765488038021,0.02397780865430832,-0.028001585975289345,0.0
423,5,-0.002796381711959839,0.0004814661806449294,0.0014930664328858256,-0.026102500036358833,-0.019815299659967422,0.016044335439801216,-0.01847934164106846,0.0010638204403221607,-0.009339306503534317,-0.41393065452575684,-0.6912208795547485,-0.02709256485104561,0.0,0.0,0.0,0.04376385360956192,-0.039160434156656265,-0.0,0.0,0.0,0.0,0.006585514172911644,-0.01673886366188526,-0.0009302214020863175,12042.0,15009.0,15178.0,13627.0,0.3185308277606964,0.5087403655052185,0.5208626389503479,0.41466042399406433,0.0,0.0,0.0,0.0,11341.0,15108.0,15058.0,13932.0,2.3451225757598877,0.0019254463049692397,-0.20638219876558858,-0.17691698186275176,0.22102323174476624,0.19012434780597687,-0.0
428,5,-0.0028320536948740482,0.0004892324795946479,0.001512750517576933,-0.014721636660397053,-0.008858074434101582,0.004055643919855356,-0.022387832403182983,0.008499713614583015,-0.009240791201591492,-0.2450711727142334,-0.5467548370361328,0.006534938234835863,0.0,0.0,0.0,0.04376385360956192,-0.039160434156656265,-0.0,0.0,0.0,0.0,0.0039951433427631855,-0.013115503825247288,-0.002507317578420043,12042.0,15009.0,15178.0,13627.0,0.3185308277606964,0.5087403655052185,0.5208626389503479,0.41466042399406433,0.0,0.0,0.0,0.0,11823.0,15232.0,14906.0,13867.0,2.3451225757598877,0.0021724648196908528,-0.20733120236529848,-0.17683566039999374,0.22102323174476624,0.19012434780597687,-0.0
433,5,-0.002847125055268407,0.00047580862883478403,0.001479765516705811,-0.007697205990552902,-0.001932369894348085,0.005580459721386433,-0.022387832403182983,0.008499713614583015,-0.009240791201591492,-0.2450711727142334,-0.5467548370361328,0.006534938234835863,0.0,0.0,0.0,0.010558044537901878,-0.016026033088564873,-0.0,0.0,0.0,0.0,0.0039951433427631855,-0.013115503825247288,-0.002507317578420043,12042.0,15009.0,15178.0,13627.0,0.3185308277606964,0.5087403655052185,0.5208626389503479,0.41466042399406433,0.0,0.0,0.0,0.0,11823.0,15232.0,14906.0,13867.0,1.8364046812057495,0.0025804502999708006,-0.20856273527077546,-0.176738381447643,0.07090935111045837,0.03593732789158821,-0.0
438,5,-0.002863150555640459,0.0004627122252713889,0.0014776552561670542,-0.0050019375048577785,0.0007986219134181738,0.002485412172973156,-0.02336416020989418,0.012148251757025719,-0.009592191316187382,-0.027492433786392212,-0.33970364928245544,-0.03987699747085571,0.0,0.0,0.0,0.010558044537901878,-0.016026033088564873,-0.0,0.0,0.0,0.0,0.011269922368228436,-0.018652446568012238,-0.0006436160765588284,11675.0,15342.0,14080.0,14154.0,0.2981119453907013,0.532822847366333,0.4444357752799988,0.44942501187324524,0.0,0.0,0.0,0.0,12409.0,14877.0,14384.0,13722.0,1.8364046812057495,0.004013303593019505,-0.20854239318311335,-0.17669321082605752,0.07090935111045837,0.03593732789158821,-0.0
443,5,-0.002865081885829568,0.00044444328523240983,0.0014244464691728354,-0.0022325487807393074,0.002511720173060894,0.00737922266125679,-0.02336416020989418,0.012148251757025719,-0.009592191316187382,-0.027492433786392212,-0.33970364928245544,-0.03987699747085571,0.0,0.0,0.0,-0.0001316757989116013,-0.008363875560462475,-0.0,0.0,0.0,0.0,0.011269922368228436,-0.018652446568012238,-0.0006436160765588284,11675.0,15342.0,14080.0,14154.0,0.2981119453907013,0.532822847366333,0.4444357752799988,0.44942501187324524,0.0,0.0,0.0,0.0,12409.0,14877.0,14384.0,13722.0,1.7188689708709717,0.004819816872381564,-0.20848699048114847,-0.17672908253501815,0.03464153781533241,-0.0004195244691800326,-0.0
448,5,-0.0028551695868372917,0.0004187155864201486,0.0013856397708877921,0.0002964570594485849,0.004092012997716665,0.007608488202095032,-0.01974615827202797,0.014347718097269535,-0.009417800232768059,0.36035776138305664,0.13273011147975922,0.04559816047549248,0.0,0.0,0.0,-0.0001316757989116013,-0.008363875560462475,-0.0,0.0,0.0,0.0,0.0019555583130568266,-0.007239898666739464,-0.0005652301479130983,13642.0,14721.0,14760.0,14034.0,0.4156174063682556,0.4883587956428528,0.49106472730636597,0.44136375188827515,0.0,0.0,0.0,0.0,14071.0,16757.0,17249.0,15950.0,1.7188689708709717,0.007146847408476025,-0.2079110504865826,-0.17713858310939654,0.03464153781533241,-0.0004195244691800326,-0.0
453,5,-0.0028421790339052677,0.0003858711861539632,0.0013510840944945812,0.0016774444375187159,0.005578131414949894,0.00719008594751358,-0.01974615827202797,0.014347718097269535,-0.009417800232768059,0.36035776138305664,0.13273011147975922,0.04559816047549248,0.0,0.0,0.0,-0.004180885385721922,-0.0036433369386941195,-0.0,0.0,0.0,0.0,0.0019555583130568266,-0.007239898666739464,-0.0005652301479130983,13642.0,14721.0,14760.0,14034.0,0.4156174063682556,0.4883587956428528,0.49106472730636597,0.44136375188827515,0.0,0.0,0.0,0.0,14071.0,16757.0,17249.0,15950.0,1.6788477897644043,0.009955726718496326,-0.2079825335216194,-0.17674521357704237,0.014738653786480427,-0.013010256923735142,-0.0
458,5,-0.0028184563852846622,0.00036160307354293764,0.001289146370254457,0.003517701057717204,0.005143427290022373,0.010308556258678436,-0.014588447287678719,0.011521772481501102,-0.009151812642812729,0.48462793231010437,0.31082114577293396,-0.0013905041851103306,0.0,0.0,0.0,-0.004180885385721922,-0.0036433369386941195,-0.0,0.0,0.0,0.0,-0.0006025820039212704,-0.0028921235352754593,-0.000959986646194011,13605.0,14471.0,13253.0,14071.0,0.41320914030075073,0.4709773063659668,0.390824556350708,0.44385796785354614,0.0,0.0,0.0,0.0,13996.0,14483.0,14774.0,13919.0,1.6788477897644043,0.011575300922133805,-0.2079498341742175,-0.17688805156107218,0.014738653786480427,-0.013010256923735142,-0.0
463,5,-0.0027861197013407946,0.0003176446771249175,0.0012097221333533525,0.005287491716444492,0.007332378067076206,0.013654331676661968,-0.014588447287678719,0.011521772481501102,-0.009151812642812729,0.48462793231010437,0.31082114577293396,-0.0013905041851103306,0.0,0.0,0.0,-0.005568222608417273,-0.0006119886529631913,-0.0,0.0,0.0,0.0,-0.0006025820039212704,-0.0028921235352754593,-0.000959986646194011,13605.0,14471.0,13253.0,14071.0,0.41320914030075073,0.4709773063659668,0.390824556350708,0.44385796785354614,0.0,0.0,0.0,0.0,13996.0,14483.0,14774.0,13919.0,1.6728943586349487,0.014815092107445648,-0.20702501819305122,-0.17730589819906614,0.00246693124063313,-0.017265914008021355,-0.0
468,5,-0.002767628524452448,0.0003028283827006817,0.0011971290223300457,0.004333934281021357,0.004710906185209751,0.0069729057140648365,-0.014588447287678719,0.011521772481501102,-0.009151812642812729,0.48462793231010437,0.31082114577293396,-0.0013905041851103306,0.0,0.0,0.0,-0.005568222608417273,-0.0006119886529631913,-0.0,0.0,0.0,0.0,-0.0006025820039212704,-0.0028921235352754593,-0.000959986646194011,13605.0,14471.0,13253.0,14071.0,0.41320914030075073,0.4709773063659668,0.390824556350708,0.44385796785354614,0.0,0.0,0.0,0.0,13996.0,14483.0,14774.0,13919.0,1.6728943586349487,0.016949457188406646,-0.20620086339532934,-0.17760567663766555,0.00246693124063313,-0.017265914008021355,-0.0
473,5,-0.0027440583799034357,0.00029114336939528584,0.0011631085071712732,0.004561995156109333,0.003286565886810422,0.006871623918414116,-0.010953931137919426,0.008708127774298191,-0.009093932807445526,0.41956332325935364,0.35543256998062134,0.03359729051589966,0.0,0.0,0.0,-0.005161096807569265,0.0002147922496078536,-0.0,0.0,0.0,0.0,-0.0034546558745205402,0.0022365516051650047,-0.00025975483004003763,14108.0,13837.0,13050.0,13801.0,0.44633615016937256,0.4283483028411865,0.37819647789001465,0.42596685886383057,0.0,0.0,0.0,0.0,13724.0,14392.0,13201.0,14085.0,1.6689889430999756,0.0188481289921039,-0.20585488512469957,-0.1778721444582236,-0.0008638098952360451,-0.015966160222887993,-0.0
