timestamp,dt,pos_x,pos_y,pos_z,vel_x,vel_y,vel_z,roll,pitch,yaw,agv_x,agv_y,agv_z,x_ref,y_ref,z_ref,roll_ref,pitch_ref,yaw_ref,x_vel_ref,y_vel_ref,z_vel_ref,x_torque,y_torque,z_torque,w0,w1,w2,w3,u0,u1,u2,u3,m0req,m1req,m2req,m3req,thrust0,thrust1,thrust2,thrust3,thrust_ref,roll_vicon,pitch_vicon,yaw_vicon,acc_x,acc_y,acc_z
5,5,0.0,0.0,0.0,-0.0006873626844026148,-0.0017224617768079042,0.004514686297625303,0.007336941547691822,-0.022150397300720215,-0.006985185667872429,-0.00014983129221946,0.00348677858710289,-0.001082298462279141,0.0,0.0,0.0,0.002118905307725072,-0.0006504366174340248,-0.0,0.0,0.0,0.0,-0.0010688068578019738,0.004338509403169155,-0.0006426960462704301,1495.0,1495.0,1495.0,1495.0,0.0,0.0,0.0,0.0,0.0,0.0,0.0,0.0,1495.0,1495.0,1495.0,1495.0,1.644603967666626,-0.011384469056514204,0.026259821447158556,0.057524171814095554,0.002577610081061721,0.006459231488406658,0.0
33,28,0.0,0.0,0.0,-0.0008192335953935981,0.0012875627726316452,-0.004608794581145048,0.007336941547691822,-0.022150397300720215,-0.006985185667872429,-0.00014983129221946,0.00348677858710289,-0.001082298462279141,0.0,0.0,0.0,0.002118905307725072,-0.0006504366174340248,-0.0,0.0,0.0,0.0,-0.0010688068578019738,0.004338509403169155,-0.0006426960462704301,1495.0,1495.0,1495.0,1495.0,0.0,0.0,0.0,0.0,0.0,0.0,0.0,0.0,1495.0,1495.0,1495.0,1495.0,1.644603967666626,-0.013356001091572497,0.025083103658350255,0.057259096390163716,0.002577610081061721,0.006459231488406658,0.0
38,5,0.0,0.0,0.0,-2.1645253582391888e-05,-0.0001904755481518805,0.0001540522207506001,0.007336941547691822,-0.022150397300720215,-0.006985185667872429,-0.00014983129221946,0.00348677858710289,-0.001082298462279141,0.0,0.0,0.0,0.002118905307725072,-0.0006504366174340248,-0.0,0.0,0.0,0.0,-0.0010688068578019738,0.004338509403169155,-0.0006426960462704301,1495.0,1495.0,1495.0,1495.0,0.0,0.0,0.0,0.0,0.0,0.0,0.0,0.0,1495.0,1495.0,1495.0,1495.0,1.644603967666626,-0.013168625651699224,0.026134086205262065,0.05719002510079411,0.002577610081061721,0.006459231488406658,0.0
51,13,0.0,0.0,0.0,-0.0043999431654810905,0.00048347297706641257,-0.0021148077212274075,0.007345164660364389,-0.022163424640893936,-0.006996335927397013,-0.0036237845197319984,0.001610320876352489,-0.0013782457681372762,0.0,0.0,0.0,-0.0005854871706105769,-0.004098738078027964,-0.0,0.0,0.0,0.0,-0.0010305336909368634,0.004313650541007519,-0.0007335893460549414,1495.0,1495.0,1495.0,1495.0,0.0,0.0,0.0,0.0,0.0,0.0,0.0,0.0,1495.0,1495.0,1495.0,1495.0,1.6706196069717407,-0.012207246591005774,0.02776852399537342,0.05740752922904631,0.01649978756904602,-0.0018130237003788352,0.0
57,6,0.0,0.0,0.0,0.0016545284306630492,0.0011177477426826954,0.0001237388059962541,0.007345164660364389,-0.022163424640893936,-0.006996335927397013,-0.0036237845197319984,0.001610320876352489,-0.0013782457681372762,0.0,0.0,0.0,-0.0005854871706105769,-0.004098738078027964,-0.0,0.0,0.0,0.0,-0.0010305336909368634,0.004313650541007519,-0.0007335893460549414,1495.0,1495.0,1495.0,1495.0,0.0,0.0,0.0,0.0,0.0,0.0,0.0,0.0,1495.0,1495.0,1495.0,1495.0,1.6706196069717407,-0.0131813641358242,0.0245934695152815,0.057218905157193495,0.01649978756904602,-0.0018130237003788352,0.0
62,5,0.0,0.0,0.0,0.0006229940918274224,0.00012565932411234826,0.005859722848981619,0.007345164660364389,-0.022163424640893936,-0.006996335927397013,-0.0036237845197319984,0.001610320876352489,-0.0013782457681372762,0.0,0.0,0.0,-0.0001557542709633708,0.0005939991679042578,-0.0,0.0,0.0,0.0,-0.0010305336909368634,0.004313650541007519,-0.0007335893460549414,1495.0,1495.0,1495.0,1495.0,0.0,0.0,0.0,0.0,0.0,0.0,0.0,0.0,1495.0,1495.0,1495.0,1495.0,1.6322153806686401,-0.012867104469237703,0.025214670650258456,0.05740786336427228,-0.0023362278006970882,-0.0004712224763352424,0.0
68,7,-6.655177458014805e-07,9.455005965719465e-06,3.5646877222461626e-05,0.00016933550068642944,-0.0010843368945643306,-0.001933736028149724,0.007345164660364389,-0.022163424640893936,-0.006996335927397013,-0.0036237845197319984,0.001610320876352489,-0.0013782457681372762,0.0,0.0,0.0,-0.0001557542709633708,0.0005939991679042578,-0.0,0.0,0.0,0.0,-0.0010305336909368634,0.004313650541007519,-0.0007335893460549414,1495.0,1495.0,1495.0,1495.0,0.0,0.0,0.0,0.0,0.0,0.0,0.0,0.0,1495.0,1495.0,1495.0,1495.0,1.6322153806686401,-0.013012912464269142,0.024763389030145206,0.05743096885246755,-0.0023362278006970882,-0.0004712224763352424,0.0
74,5,-6.636778834945289e-06,1.3870342627342325e-05,5.623201104754116e-06,-0.0006488171056844294,-0.0009635752066969872,0.0028293465729802847,0.007337507791817188,-0.022164778783917427,-0.007045782636851072,0.0024378153029829264,0.0019403109326958656,0.0006361466948874295,0.0,0.0,0.0,0.0012154261348769069,-0.0006257691420614719,-0.0,0.0,0.0,0.0,-0.0010322307934984565,0.004358077887445688,-0.0008116083336062729,1495.0,1495.0,1495.0,1495.0,0.0,0.0,0.0,0.0,0.0,0.0,0.0,0.0,1495.0,1495.0,1495.0,1495.0,1.6377934217453003,-0.012748686975473204,0.02530441945445779,0.05749705695594775,0.00246958970092237,0.003689742414280772,-0.0
81,7,1.0985694643750321e-05,2.6895844712271355e-05,-7.062010263325647e-05,0.0012082147877663374,-0.0002774312742985785,0.006298169493675232,0.007337507791817188,-0.022164778783917427,-0.007045782636851072,0.0024378153029829264,0.0019403109326958656,0.0006361466948874295,0.0,0.0,0.0,0.0012154261348769069,-0.0006257691420614719,-0.0,0.0,0.0,0.0,-0.0010322307934984565,0.004358077887445688,-0.0008116083336062729,1495.0,1495.0,1495.0,1495.0,0.0,0.0,0.0,0.0,0.0,0.0,0.0,0.0,1495.0,1495.0,1495.0,1495.0,1.6377934217453003,-0.009779755764929319,0.027465383631460682,0.05804997267843492,0.00246958970092237,0.003689742414280772,-0.0
86,5,1.5509984905293095e-06,5.836522177560255e-05,-0.00011171506048412994,-0.0006488776416517794,-0.003887297585606575,0.007450663018971682,0.007338762748986483,-0.02217603288590908,-0.0070276218466460705,-0.0015267709968611598,3.17013018502621e-06,0.006356891244649887,0.0,0.0,0.0,0.0003912832762580365,0.0011627919739112258,-0.0,0.0,0.0,0.0,-0.001407426199875772,0.004486396908760071,-0.0006416901596821845,13685.0,13522.0,12845.0,13961.0,0.41842174530029297,0.4078787565231323,0.3656620383262634,0.4364975094795227,0.0,0.0,0.0,0.0,1495.0,1495.0,1495.0,1495.0,1.638612985610962,-0.008020231165509577,0.030341714526311816,0.05843549729318059,-0.00459124194458127,0.0011884371051564813,0.0
91,5,4.578999141813256e-05,8.434835763182491e-05,-0.00017395683971699327,0.005049128085374832,-0.004672895651310682,0.01044927816838026,0.007338762748986483,-0.02217603288590908,-0.0070276218466460705,-0.0015267709968611598,3.17013018502621e-06,0.006356891244649887,0.0,0.0,0.0,0.0003912832762580365,0.0011627919739112258,-0.0,0.0,0.0,0.0,-0.001407426199875772,0.004486396908760071,-0.0006416901596821845,13685.0,13522.0,12845.0,13961.0,0.41842174530029297,0.4078787565231323,0.3656620383262634,0.4364975094795227,0.0,0.0,0.0,0.0,1495.0,1495.0,1495.0,1495.0,1.638612985610962,-0.004982286418858675,0.031127605792474995,0.05864290263667406,-0.00459124194458127,0.0011884371051564813,0.0
96,5,7.207835005829111e-05,0.00012472439266275615,-0.00022426240320783108,0.005174253601580858,-0.0067142825573682785,0.01021637860685587,0.0073336027562618256,-0.022172359749674797,-0.007026308216154575,-0.00014925241703167558,-0.0030905359890311956,-0.001632729428820312,0.0,0.0,0.0,0.005719821900129318,0.0046930774115026,-0.0,0.0,0.0,0.0,-0.0015740473754703999,0.003631910076364875,-0.0007730194483883679,13741.0,13814.0,13008.0,14105.0,0.42206400632858276,0.4268185496330261,0.3756505250930786,0.4460865259170532,0.0,0.0,0.0,0.0,13657.0,13595.0,12789.0,14025.0,1.6966381072998047,-0.002356276458105633,0.03260169390381172,0.060022712418363496,-0.019186250865459442,0.01798771321773529,0.0
101,5,6.696207128698006e-05,0.00016801855235826224,-0.0003030002990271896,0.0014557488029822707,-0.007881011813879013,0.013535098172724247,0.0073336027562618256,-0.022172359749674797,-0.007026308216154575,-0.00014925241703167558,-0.0030905359890311956,-0.001632729428820312,0.0,0.0,0.0,0.005719821900129318,0.0046930774115026,-0.0,0.0,0.0,0.0,-0.0015740473754703999,0.003631910076364875,-0.0007730194483883679,13741.0,13814.0,13008.0,14105.0,0.42206400632858276,0.4268185496330261,0.3756505250930786,0.4460865259170532,0.0,0.0,0.0,0.0,13657.0,13595.0,12789.0,14025.0,1.6966381072998047,0.001008373323514756,0.03658285168656186,0.06069009184192152,-0.019186250865459442,0.01798771321773529,0.0
107,5,0.00010584631672827527,0.00022509625705424696,-0.000385619408916682,0.0052484082989394665,-0.010001730173826218,0.01532833557575941,0.007346867583692074,-0.022172288969159126,-0.007045248989015818,-0.001187022658996284,0.005561307072639465,0.0011789733543992043,0.0,0.0,0.0,0.009620300494134426,0.001414996455423534,-0.0,0.0,0.0,0.0,-0.0012521848548203707,0.004303391557186842,-0.0007200864492915571,13650.0,13609.0,12855.0,14041.0,0.41616299748420715,0.413506418466568,0.36627939343452454,0.4418446123600006,0.0,0.0,0.0,0.0,13696.0,13560.0,12897.0,14006.0,1.7092854976654053,0.0038715796588526985,0.038095697313467604,0.061236264571589524,-0.005827759392559528,0.03047892265021801,0.0
112,5,0.00010883554932661355,0.00025101430946961045,-0.00043586239917203784,0.0024580718018114567,-0.0071108583360910416,0.01216049212962389,0.007346867583692074,-0.022172288969159126,-0.007045248989015818,-0.001187022658996284,0.005561307072639465,0.0011789733543992043,0.0,0.0,0.0,0.009620300494134426,0.001414996455423534,-0.0,0.0,0.0,0.0,-0.0012521848548203707,0.004303391557186842,-0.0007200864492915571,13650.0,13609.0,12855.0,14041.0,0.41616299748420715,0.413506418466568,0.36627939343452454,0.4418446123600006,0.0,0.0,0.0,0.0,13696.0,13560.0,12897.0,14006.0,1.7092854976654053,0.005866847721483905,0.03981441433866147,0.06200386128601275,-0.005827759392559528,0.03047892265021801,0.0
117,5,9.921901801135391e-05,0.00027357335784472525,-0.0004884549998678267,-0.0001707551855361089,-0.005551428068429232,0.011175310239195824,0.0073785907588899136,-0.02212372235953808,-0.007025345228612423,-0.0006632772274315357,0.0030415435321629047,7.838445890229195e-05,0.0,0.0,0.0,0.008871246129274368,0.0023885213304311037,-0.0,0.0,0.0,0.0,-0.0014038580702617764,0.004643739201128483,-0.000693545734975487,13692.0,13594.0,12824.0,14056.0,0.4188591241836548,0.41254913806915283,0.3643922805786133,0.442812442779541,0.0,0.0,0.0,0.0,13693.0,13594.0,12825.0,14054.0,1.7057766914367676,0.00849462964951542,0.04133087101361102,0.06275380729919093,-0.009817156009376049,0.028048202395439148,0.0
122,5,8.47749543027021e-05,0.000301534979371354,-0.00052090227836743,-0.0018015895038843155,-0.005575967486947775,0.008363796398043633,0.007374161388725042,-0.022121572867035866,-0.007020321674644947,0.0018383483402431011,-0.0023594689555466175,0.0008368238341063261,0.0,0.0,0.0,0.00720995245501399,-0.0015452266670763493,-0.0,0.0,0.0,0.0,-0.0003493072872515768,0.005379018373787403,-0.00066974206129089,13928.0,13665.0,13116.0,14354.0,0.4343166947364807,0.4170991778373718,0.38230234384536743,0.4629198908805847,0.0,0.0,0.0,0.0,13708.0,13576.0,12835.0,14048.0,1.6889705657958984,0.009571318897749415,0.042691772414505426,0.0628439598849481,0.006288610864430666,0.022571280598640442,0.0
129,7,8.695632277522236e-05,0.0003059630107600242,-0.0005551136564463377,-0.0004588717711158097,-0.0027617509476840496,0.00745087955147028,0.007374161388725042,-0.022121572867035866,-0.007020321674644947,0.0018383483402431011,-0.0023594689555466175,0.0008368238341063261,0.0,0.0,0.0,0.00720995245501399,-0.0015452266670763493,-0.0,0.0,0.0,0.0,-0.0003493072872515768,0.005379018373787403,-0.00066974206129089,13928.0,13665.0,13116.0,14354.0,0.4343166947364807,0.4170991778373718,0.38230234384536743,0.4629198908805847,0.0,0.0,0.0,0.0,13708.0,13576.0,12835.0,14048.0,1.6889705657958984,0.010925375133338086,0.044017206510747184,0.06233444619750516,0.006288610864430666,0.022571280598640442,0.0
134,5,9.163364302366972e-05,0.0003274237096775323,-0.00056127377320081,0.00037772965151816607,-0.0036799823865294456,0.003719570580869913,0.007374161388725042,-0.022121572867035866,-0.007020321674644947,0.0018383483402431011,-0.0023594689555466175,0.0008368238341063261,0.0,0.0,0.0,0.00720995245501399,-0.0015452266670763493,-0.0,0.0,0.0,0.0,-0.0003493072872515768,0.005379018373787403,-0.00066974206129089,13928.0,13665.0,13116.0,14354.0,0.4343166947364807,0.4170991778373718,0.38230234384536743,0.4629198908805847,0.0,0.0,0.0,0.0,13708.0,13576.0,12835.0,14048.0,1.6889705657958984,0.010558006292253962,0.04338520896958556,0.06318854051583407,0.006288610864430666,0.022571280598640442,0.0
139,5,8.190981316147372e-05,0.0003433887322898954,-0.0005633281543850899,-0.0010157676879316568,-0.003387794364243746,0.0017343504587188363,0.0073767718859016895,-0.022112684324383736,-0.007010569330304861,0.0013685363810509443,0.002980243181809783,0.0015278373612090945,0.0,0.0,0.0,0.005046478472650051,0.00047809394891373813,-0.0,0.0,0.0,0.0,0.00028248477610759437,0.004970004316419363,-0.0006869306671433151,13883.0,13702.0,13266.0,14409.0,0.4313471019268036,0.41954079270362854,0.3916725814342499,0.46672502160072327,0.0,0.0,0.0,0.0,13850.0,13734.0,13233.0,14441.0,1.6682708263397217,0.012770857965369715,0.045984623883567034,0.06282586097764536,-0.0019218794768676162,0.015604870393872261,0.0
144,5,0.00011976691166637465,0.00034571802825666964,-0.0005652555846609175,0.004136544186621904,-0.0016346347983926535,0.0009250316070392728,0.0073767718859016895,-0.022112684324383736,-0.007010569330304861,0.0013685363810509443,0.002980243181809783,0.0015278373612090945,0.0,0.0,0.0,0.005046478472650051,0.00047809394891373813,-0.0,0.0,0.0,0.0,0.00028248477610759437,0.004970004316419363,-0.0006869306671433151,13883.0,13702.0,13266.0,14409.0,0.4313471019268036,0.41954079270362854,0.3916725814342499,0.46672502160072327,0.0,0.0,0.0,0.0,13850.0,13734.0,13233.0,14441.0,1.6682708263397217,0.012370571827335936,0.044534202559143636,0.06307489222876828,-0.0019218794768676162,0.015604870393872261,0.0
149,5,9.043281170306727e-05,0.0003406320174690336,-0.0005661991890519857,-0.0027008240576833487,0.0005872088368050754,-0.0007791154785081744,0.007377462927252054,-0.0221311803907156,-0.007007810287177563,-0.0008073099888861179,0.0030171649996191263,-0.00017717007722239941,0.0,0.0,0.0,0.002589224837720394,0.00400804728269577,-0.0,0.0,0.0,0.0,-4.489983257371932e-05,0.004119150806218386,-0.000669278611894697,13789.0,13704.0,13198.0,14263.0,0.425208181142807,0.4196135103702545,0.38737723231315613,0.4567716419696808,0.0,0.0,0.0,0.0,13861.0,13716.0,13195.0,14431.0,1.6745470762252808,0.013363412109426097,0.045708643584855144,0.06339207158390246,-0.016172586008906364,0.008036645129323006,0.0
154,5,0.00010408812522655353,0.00035648036282509565,-0.0005779920029453933,0.0005583085003308952,-0.001666919095441699,0.0011034951312467456,0.007377462927252054,-0.0221311803907156,-0.007007810287177563,-0.0008073099888861179,0.0030171649996191263,-0.00017717007722239941,0.0,0.0,0.0,0.002589224837720394,0.00400804728269577,-0.0,0.0,0.0,0.0,-4.489983257371932e-05,0.004119150806218386,-0.000669278611894697,13789.0,13704.0,13198.0,14263.0,0.425208181142807,0.4196135103702545,0.38737723231315613,0.4567716419696808,0.0,0.0,0.0,0.0,13861.0,13716.0,13195.0,14431.0,1.6745470762252808,0.012324385106768691,0.04484677881888174,0.063077508697763,-0.016172586008906364,0.008036645129323006,0.0
159,5,0.00010408812522655353,0.00035648036282509565,-0.0005779920029453933,0.0005583085003308952,-0.001666919095441699,0.0011034951312467456,0.00737457862123847,-0.02211129479110241,-0.0069982693530619144,-0.0021469183266162872,-5.3395197028294206e-05,0.002830851823091507,0.0,0.0,0.0,0.002688454231247306,0.000671468791551888,-0.0,0.0,0.0,0.0,-0.0004738251445814967,0.004655373748391867,-0.0007340200827457011,13730.0,13661.0,12993.0,14243.0,0.4213392436504364,0.41687771677970886,0.3746795356273651,0.4553743302822113,0.0,0.0,0.0,0.0,13795.0,13696.0,13201.0,14262.0,1.6491643190383911,0.012324385106768691,0.04484677881888174,0.063077508697763,-0.002668333239853382,0.008218152448534966,0.0
164,5,8.568198973080143e-05,0.0003464142500888556,-0.0005670954706147313,-0.001985413022339344,0.0005411653546616435,-0.0008661909378133714,0.00737457862123847,-0.02211129479110241,-0.0069982693530619144,-0.0021469183266162872,-5.3395197028294206e-05,0.002830851823091507,0.0,0.0,0.0,0.002688454231247306,0.000671468791551888,-0.0,0.0,0.0,0.0,-0.0004738251445814967,0.004655373748391867,-0.0007340200827457011,13730.0,13661.0,12993.0,14243.0,0.4213392436504364,0.41687771677970886,0.3746795356273651,0.4553743302822113,0.0,0.0,0.0,0.0,13795.0,13696.0,13201.0,14262.0,1.6491643190383911,0.012886643946240787,0.04518001154954815,0.06303984995502218,-0.002668333239853382,0.008218152448534966,0.0
169,5,9.256981866201386e-05,0.00035234069218859076,-0.0005750507698394358,9.084900375455618e-05,-0.0009389308397658169,-0.0007233595242723823,0.007347174920141697,-0.02219158038496971,-0.0070026228204369545,-0.0012644320959225297,0.002639539772644639,0.0014946904266253114,0.0,0.0,0.0,-3.8155398215167224e-05,-0.0017591556534171104,-0.0,0.0,0.0,0.0,-0.000947537540923804,0.005310735199600458,-0.000658820616081357,13872.0,13629.0,12985.0,14236.0,0.4306637942790985,0.4147874414920807,0.37419870495796204,0.4548971354961395,0.0,0.0,0.0,0.0,13708.0,13680.0,12976.0,14262.0,1.6446510553359985,0.013092911017885716,0.04566704810867793,0.06310460785265212,0.006971556227654219,-0.0001163156921393238,0.0
174,5,0.00010070460848510265,0.00035982843837700784,-0.0006064047338441014,0.0010125139961019158,-0.0012741023674607277,0.0034731277264654636,0.007347174920141697,-0.02219158038496971,-0.0070026228204369545,-0.0012644320959225297,0.002639539772644639,0.0014946904266253114,0.0,0.0,0.0,-3.8155398215167224e-05,-0.0017591556534171104,-0.0,0.0,0.0,0.0,-0.000947537540923804,0.005310735199600458,-0.000658820616081357,13872.0,13629.0,12985.0,14236.0,0.4306637942790985,0.4147874414920807,0.37419870495796204,0.4548971354961395,0.0,0.0,0.0,0.0,13708.0,13680.0,12976.0,14262.0,1.6446510553359985,0.012230373356106284,0.04524153771487423,0.06361780095339437,0.006971556227654219,-0.0001163156921393238,0.0
179,5,0.00010425322398077697,0.00035220172139815986,-0.00058210757561028,0.000830839853733778,0.00040556586463935673,-0.0015264045214280486,0.007347174920141697,-0.02219158038496971,-0.0070026228204369545,-0.0012644320959225297,0.002639539772644639,0.0014946904266253114,0.0,0.0,0.0,0.002215554704889655,0.001096635707654059,-0.0,0.0,0.0,0.0,-0.000947537540923804,0.005310735199600458,-0.000658820616081357,13872.0,13629.0,12985.0,14236.0,0.4306637942790985,0.4147874414920807,0.37419870495796204,0.4548971354961395,0.0,0.0,0.0,0.0,13708.0,13680.0,12976.0,14262.0,1.6475554704666138,0.012472432974326627,0.045412368358324656,0.06300625279256668,-0.004353646654635668,0.006765975616872311,0.0
184,5,0.00011221977911191061,0.0003497099969536066,-0.0006041716551408172,0.0012883227318525314,0.00046123264473862946,0.0020371233113110065,0.007347174920141697,-0.02219158038496971,-0.0070026228204369545,-0.0012644320959225297,0.002639539772644639,0.0014946904266253114,0.0,0.0,0.0,0.002215554704889655,0.001096635707654059,-0.0,0.0,0.0,0.0,-0.001561602228321135,0.004320607054978609,-2.156801383534912e-05,13982.0,13365.0,13163.0,13765.0,0.437926709651947,0.3978949189186096,0.38524329662323,0.4235861301422119,0.0,0.0,0.0,0.0,13827.0,13677.0,12931.0,14282.0,1.6475554704666138,0.013095232110818839,0.04520269696749025,0.06291203661538523,-0.004353646654635668,0.006765975616872311,0.0
190,5,8.584676106693223e-05,0.0003604326047934592,-0.0005892095505259931,-0.00264943391084671,-0.0011022171238437295,-0.0009805993176996708,0.007347174920141697,-0.02219158038496971,-0.0070026228204369545,-0.0012644320959225297,0.002639539772644639,0.0014946904266253114,0.0,0.0,0.0,6.710007437504828e-05,0.0013790776720270514,-0.0,0.0,0.0,0.0,-0.001561602228321135,0.004320607054978609,-2.156801383534912e-05,13982.0,13365.0,13163.0,13765.0,0.437926709651947,0.3978949189186096,0.38524329662323,0.4235861301422119,0.0,0.0,0.0,0.0,13827.0,13677.0,12931.0,14282.0,1.6405442953109741,0.012886445428189277,0.04628462871708745,0.06340036313836596,-0.005451655946671963,0.00020404196402523667,0.0
195,5,0.00010420975013403222,0.00033923977753147483,-0.0005668545491062105,0.0011437857756391168,0.002102249301970005,-0.0030748406425118446,0.007334183901548386,-0.0222955122590065,-0.007045287638902664,-0.01395601499825716,-0.004659837111830711,0.0360354445874691,0.0,0.0,0.0,6.710007437504828e-05,0.0013790776720270514,-0.0,0.0,0.0,0.0,-0.001378104672767222,0.004147843923419714,-0.0011069743195548654,13789.0,13503.0,12985.0,14035.0,0.4251733422279358,0.40669846534729004,0.37424027919769287,0.44144338369369507,0.0,0.0,0.0,0.0,13268.0,14066.0,12426.0,14438.0,1.6405442953109741,0.012280923812891033,0.04507183448626497,0.06290670310653408,-0.005451655946671963,0.00020404196402523667,0.0
200,5,8.55191974551417e-05,0.00034254591446369886,-0.0005834794137626886,-0.001785352360457182,0.00044416621676646173,0.0007650443003512919,0.007334183901548386,-0.0222955122590065,-0.007045287638902664,-0.01395601499825716,-0.004659837111830711,0.0360354445874691,0.0,0.0,0.0,-0.0019677719101309776,0.0012263150420039892,-0.0,0.0,0.0,0.0,-0.001378104672767222,0.004147843923419714,-0.0011069743195548654,13789.0,13503.0,12985.0,14035.0,0.4251733422279358,0.40669846534729004,0.37424027919769287,0.44144338369369507,0.0,0.0,0.0,0.0,13268.0,14066.0,12426.0,14438.0,1.6467012166976929,0.012864159735524608,0.0462913066846599,0.063123768849553,-0.004865951836109161,-0.006006169598549604,0.0
205,5,9.983746713260189e-05,0.00035225978353992105,-0.0005764214438386261,0.001004051766358316,-0.0009879983263090253,-0.0005409338045865297,0.0074319601990282536,-0.022249314934015274,-0.006975936237722635,0.011382943019270897,0.015954142436385155,-0.07301963865756989,0.0,0.0,0.0,-0.0019677719101309776,0.0012263150420039892,-0.0,0.0,0.0,0.0,-0.0012263961834833026,0.004814357962459326,-0.002245378913357854,12938.0,14357.0,11933.0,14797.0,0.3713335692882538,0.4631681740283966,0.3123948276042938,0.4936477243900299,0.0,0.0,0.0,0.0,14513.0,12726.0,13767.0,13263.0,1.6467012166976929,0.012626450943620084,0.045204292845708406,0.06322961871747897,-0.004865951836109161,-0.006006169598549604,0.0
210,5,0.00010143751569557935,0.0003468841896392405,-0.0005701840855181217,0.0005936258239671588,0.0002498698595445603,-0.0009648564737290144,0.0074319601990282536,-0.022249314934015274,-0.006975936237722635,0.011382943019270897,0.015954142436385155,-0.07301963865756989,0.0,0.0,0.0,0.001854625646956265,0.0010893833823502064,-0.0,0.0,0.0,0.0,-0.0012263961834833026,0.004814357962459326,-0.002245378913357854,12938.0,14357.0,11933.0,14797.0,0.3713335692882538,0.4631681740283966,0.3123948276042938,0.4936477243900299,0.0,0.0,0.0,0.0,14513.0,12726.0,13767.0,13263.0,1.6450384855270386,0.01215276399445592,0.044617534281969885,0.06283742737244408,-0.004318251274526119,0.005655101966112852,0.0
215,5,0.00010435090371174738,0.0003562761121429503,-0.0005869953893125057,0.0005870575550943613,-0.0010270808124914765,0.00163140962831676,0.007319173309952021,-0.022122960537672043,-0.006980633828788996,-0.012501558288931847,-0.03673496097326279,0.029449254274368286,0.0,0.0,0.0,0.001854625646956265,0.0010893833823502064,-0.0,0.0,0.0,0.0,-0.0013499759370461106,0.004467920865863562,0.00040988714317791164,14093.0,13187.0,13293.0,13634.0,0.4453306496143341,0.386742502450943,0.39335325360298157,0.41511788964271545,0.0,0.0,0.0,0.0,13406.0,13894.0,12479.0,14372.0,1.6450384855270386,0.012087669959582954,0.04454700651103182,0.06315944430521267,-0.004318251274526119,0.005655101966112852,0.0
220,5,9.423249866813421e-05,0.00035124749410897493,-0.0005757370963692665,-0.0009793861536309123,0.00019260251428931952,-0.0006984294741414487,0.007319173309952021,-0.022122960537672043,-0.006980633828788996,-0.012501558288931847,-0.03673496097326279,0.029449254274368286,0.0,0.0,0.0,0.0019124239915981889,0.0007020130287855864,-0.0,0.0,0.0,0.0,-0.0013499759370461106,0.004467920865863562,0.00040988714317791164,14093.0,13187.0,13293.0,13634.0,0.4453306496143341,0.386742502450943,0.39335325360298157,0.41511788964271545,0.0,0.0,0.0,0.0,13406.0,13894.0,12479.0,14372.0,1.643249750137329,0.011885234048792638,0.044215438918767044,0.06300669894310042,-0.0027797119691967964,0.005824998486787081,0.0
225,5,0.00010982901585521176,0.00017856589693110436,-0.0003694376500789076,0.001479828148148954,0.020798830315470695,-0.025035306811332703,0.007319173309952021,-0.022122960537672043,-0.006980633828788996,-0.012501558288931847,-0.03673496097326279,0.029449254274368286,0.0,0.0,0.0,0.0019124239915981889,0.0007020130287855864,-0.0,0.0,0.0,0.0,-0.0020184635650366545,0.004734250716865063,-0.0011627922067418694,13958.0,13475.0,13016.0,13854.0,0.43628716468811035,0.4048660397529602,0.3761221766471863,0.42942583560943604,0.0,0.0,0.0,0.0,13175.0,14207.0,12214.0,14593.0,1.643249750137329,-0.0002115178112033395,0.03267020769541997,0.05954124378820225,-0.0027797119691967964,0.005824998486787081,0.0
230,5,8.873194747138768e-05,0.00034036108991131186,-0.0005366915720514953,-0.0019397169817239046,-0.011095890775322914,0.010056352242827415,0.007319173309952021,-0.022122960537672043,-0.006980633828788996,-0.012501558288931847,-0.03673496097326279,0.029449254274368286,0.0,0.0,0.0,0.0019124239915981889,0.0007020130287855864,-0.0,0.0,0.0,0.0,-0.0020184635650366545,0.004734250716865063,-0.0011627922067418694,13958.0,13475.0,13016.0,13854.0,0.43628716468811035,0.4048660397529602,0.3761221766471863,0.42942583560943604,0.0,0.0,0.0,0.0,13175.0,14207.0,12214.0,14593.0,1.643249750137329,0.01234731007348925,0.04415023363611597,0.06264410611310155,-0.0027797119691967964,0.005824998486787081,0.0
235,5,8.436737698502839e-05,0.00035377233871258795,-0.0005291036213748157,-0.0012996357399970293,-0.006047707516700029,0.003111981088295579,0.007269295398145914,-0.022070741280913353,-0.007486487273126841,-0.0072834910824894905,0.0197763592004776,-0.05235252529382706,0.0,0.0,0.0,0.013457918539643288,-0.0016140094958245754,-0.0,0.0,0.0,0.0,-0.0010409294627606869,0.004947249311953783,-0.0026264938060194254,13030.0,14233.0,12118.0,14751.0,0.3769984245300293,0.4547063112258911,0.3228667974472046,0.4904669523239136,0.0,0.0,0.0,0.0,14144.0,13119.0,13403.0,13609.0,1.7437876462936401,0.012270326405920682,0.0443643679510637,0.06242291937124451,0.006781286094337702,0.043496694415807724,0.0
240,5,9.12968534976244e-05,0.00034778667031787336,-0.0005190942902117968,0.0003116828156635165,-0.001700800727121532,4.3673971958924085e-05,0.007269295398145914,-0.022070741280913353,-0.007486487273126841,-0.0072834910824894905,0.0197763592004776,-0.05235252529382706,0.0,0.0,0.0,0.013457918539643288,-0.0016140094958245754,-0.0,0.0,0.0,0.0,-0.0010409294627606869,0.004947249311953783,-0.0026264938060194254,13030.0,14233.0,12118.0,14751.0,0.3769984245300293,0.4547063112258911,0.3228667974472046,0.4904669523239136,0.0,0.0,0.0,0.0,14144.0,13119.0,13403.0,13609.0,1.7437876462936401,0.01069723045542113,0.04381001703343063,0.06284173397895741,0.006781286094337702,0.043496694415807724,0.0
245,5,0.00010451512935105711,0.00020731690165121108,-0.0002968347107525915,0.0017108668107539415,0.016176050528883934,-0.026653679087758064,0.007109810132533312,-0.021799996495246887,-0.007396720815449953,-0.04612134397029877,-0.050212547183036804,-0.012739992700517178,0.0,0.0,0.0,0.0027183128986507654,0.00042184151243418455,-0.0,0.0,0.0,0.0,-0.0009419721318408847,0.004015075042843819,-0.0005909416940994561,13640.0,13617.0,12937.0,14051.0,0.41547679901123047,0.414013147354126,0.37125158309936523,0.4425082206726074,0.0,0.0,0.0,0.0,13711.0,13546.0,12926.0,14060.0,1.6487157344818115,-0.00018544409483440774,0.03438610699798571,0.05982871509731966,-0.0016758895944803953,0.008307164534926414,0.0
250,5,0.00012348470045253634,0.00041526288259774446,-0.0004101076046936214,0.0029606956522911787,-0.01848309487104416,0.0029312744736671448,0.007109810132533312,-0.021799996495246887,-0.007396720815449953,-0.04612134397029877,-0.050212547183036804,-0.012739992700517178,0.0,0.0,0.0,0.0027183128986507654,0.00042184151243418455,-0.0,0.0,0.0,0.0,-0.0009419721318408847,0.004015075042843819,-0.0005909416940994561,13640.0,13617.0,12937.0,14051.0,0.41547679901123047,0.414013147354126,0.37125158309936523,0.4425082206726074,0.0,0.0,0.0,0.0,13711.0,13546.0,12926.0,14060.0,1.6487157344818115,0.008486724521846938,0.04437376636449518,0.06196959845082769,-0.0016758895944803953,0.008307164534926414,0.0
256,5,0.00011053711932618171,0.0004177250957582146,-0.00035275754635222256,-0.00036943217855878174,-0.007688706740736961,-0.005709496326744556,0.006026432849466801,-0.021320141851902008,-0.007297500502318144,-0.075435571372509,-0.020690079778432846,0.09171018749475479,0.0,0.0,0.0,0.02124710939824581,0.0026903615798801184,-0.0,0.0,0.0,0.0,0.0022156042978167534,0.003628935432061553,-5.22640511917416e-05,14420.0,13187.0,14182.0,13988.0,0.46749287843704224,0.3866937756538391,0.4512953758239746,0.4383056163787842,0.0,0.0,0.0,0.0,13804.0,13402.0,13183.0,13951.0,1.8186323642730713,0.007510757105156396,0.04446359350837662,0.062206317831708255,-0.011787152849137783,0.07161334156990051,0.0
261,5,5.980400965199806e-05,0.0004031845601275563,-0.00021053019736427814,-0.0062357462011277676,-0.0013306171167641878,-0.019351080060005188,0.006026432849466801,-0.021320141851902008,-0.007297500502318144,-0.075435571372509,-0.020690079778432846,0.09171018749475479,0.0,0.0,0.0,0.02124710939824581,0.0026903615798801184,-0.0,0.0,0.0,0.0,0.0022156042978167534,0.003628935432061553,-5.22640511917416e-05,14420.0,13187.0,14182.0,13988.0,0.46749287843704224,0.3866937756538391,0.4512953758239746,0.4383056163787842,0.0,0.0,0.0,0.0,13804.0,13402.0,13183.0,13951.0,1.8186323642730713,0.009129186479562719,0.0433780470232931,0.06280715179687121,-0.011787152849137783,0.07161334156990051,0.0
266,5,8.583861199440435e-05,0.00032223344896920025,-0.0001283462916035205,0.0006298536318354309,0.009181885048747063,-0.017602499574422836,0.0054052770137786865,-0.02123044990003109,-0.00748863723129034,-0.0750722736120224,-0.028189608827233315,0.00016451669216621667,0.0,0.0,0.0,0.002305713016539812,-0.005657143425196409,-0.0,0.0,0.0,0.0,-5.300163684296422e-05,0.004434051923453808,-0.0015658109914511442,13363.0,13822.0,12705.0,14403.0,0.3977923095226288,0.4273631274700165,0.3572433888912201,0.46631690859794617,0.0,0.0,0.0,0.0,14463.0,13506.0,14340.0,14592.0,1.6908949613571167,0.0034311853663485875,0.03970110209338297,0.06098307773668179,0.02304953895509243,0.007226529065519571,0.0
271,5,8.088950562523678e-05,0.00042460113763809204,-2.8105439923820086e-05,-0.00034195082844235003,-0.008611367084085941,-0.01906990259885788,0.0054052770137786865,-0.02123044990003109,-0.00748863723129034,-0.0750722736120224,-0.028189608827233315,0.00016451669216621667,0.0,0.0,0.0,0.002305713016539812,-0.005657143425196409,-0.0,0.0,0.0,0.0,-5.300163684296422e-05,0.004434051923453808,-0.0015658109914511442,13363.0,13822.0,12705.0,14403.0,0.3977923095226288,0.4273631274700165,0.3572433888912201,0.46631690859794617,0.0,0.0,0.0,0.0,14463.0,13506.0,14340.0,14592.0,1.6908949613571167,0.006570103420100438,0.04239494170601425,0.06166043915278899,0.02304953895509243,0.007226529065519571,0.0
276,5,6.649317219853401e-05,0.00032540655229240656,0.00012577685993164778,-0.001864340272732079,0.00845880527049303,-0.02609383687376976,0.004901206120848656,-0.0206755343824625,-0.007175548002123833,-0.02272203005850315,-0.05293488875031471,0.003083514515310526,0.0,0.0,0.0,0.010875016450881958,-0.00020077072258573025,-0.0,0.0,0.0,0.0,0.003352863946929574,0.0043572611175477505,-0.00022157096827868372,14144.0,13884.0,13991.0,14887.0,0.4487060606479645,0.4314112961292267,0.438508003950119,0.5000069737434387,0.0,0.0,0.0,0.0,13705.0,14355.0,13548.0,15253.0,1.7189490795135498,-0.0021046817209292084,0.03641917073615992,0.05958745021555818,0.0008315523737110198,0.03464861959218979,0.0
281,5,4.878302206634544e-05,0.00045019102981314063,0.00016927975229918957,-0.002870954107493162,-0.011590617708861828,-0.015657881274819374,0.004901206120848656,-0.0206755343824625,-0.007175548002123833,-0.02272203005850315,-0.05293488875031471,0.003083514515310526,0.0,0.0,0.0,0.010875016450881958,-0.00020077072258573025,-0.0,0.0,0.0,0.0,0.003352863946929574,0.0043572611175477505,-0.00022157096827868372,14144.0,13884.0,13991.0,14887.0,0.4487060606479645,0.4314112961292267,0.438508003950119,0.5000069737434387,0.0,0.0,0.0,0.0,13705.0,14355.0,13548.0,15253.0,1.7189490795135498,0.0041242262180821694,0.040312766542023794,0.06233418265058499,0.0008315523737110198,0.03464861959218979,0.0
286,5,3.7175217585172504e-05,0.0004322144668549299,0.00024659320479258895,-0.002541318302974105,-0.0024790570605546236,-0.015540765598416328,0.0052803801372647285,-0.01998402178287506,-0.007184922229498625,0.07954306900501251,-0.10901474952697754,0.05901166424155235,0.0,0.0,0.0,0.014154147356748581,-0.002485395409166813,-0.0,0.0,0.0,0.0,0.00016249867621809244,0.0027560561429709196,-0.0009480356238782406,14051.0,13587.0,13640.0,13722.0,0.4425015151500702,0.41204634308815,0.41551294922828674,0.42083415389060974,0.0,0.0,0.0,0.0,14103.0,13561.0,13714.0,13620.0,1.752038598060608,0.005203736195845442,0.04007676709646618,0.06202603840998888,0.010491729713976383,0.04596312716603279,0.0
291,5,-9.894325557979755e-06,0.0004158264782745391,0.00032833346631377935,-0.006664872635155916,0.0009749352466315031,-0.016025139018893242,0.0052803801372647285,-0.01998402178287506,-0.007184922229498625,0.07954306900501251,-0.10901474952697754,0.05901166424155235,0.0,0.0,0.0,0.014154147356748581,-0.002485395409166813,-0.0,0.0,0.0,0.0,0.00016249867621809244,0.0027560561429709196,-0.0009480356238782406,14051.0,13587.0,13640.0,13722.0,0.4425015151500702,0.41204634308815,0.41551294922828674,0.42083415389060974,0.0,0.0,0.0,0.0,14103.0,13561.0,13714.0,13620.0,1.752038598060608,0.0028284888879888262,0.03862208483934388,0.061768161565174805,0.010491729713976383,0.04596312716603279,0.0
296,5,-8.386859553866088e-05,0.0003792667994275689,0.0005895236390642822,-0.011542861349880695,0.004777134861797094,-0.03775288164615631,0.00673461239784956,-0.01864192821085453,-0.007060039322823286,0.1713135987520218,-0.10779262334108353,-0.022330695763230324,0.0,0.0,0.0,-0.0004285914183128625,-0.006137127056717873,-0.0,0.0,0.0,0.0,0.00016249867621809244,0.0027560561429709196,-0.0009480356238782406,13638.0,14067.0,13242.0,14456.0,0.4153791666030884,0.4435383081436157,0.3901252746582031,0.4699063301086426,0.0,0.0,0.0,0.0,13706.0,14043.0,13302.0,14359.0,1.6933599710464478,0.0019107971088399265,0.03436593744810503,0.061068365940618194,0.02504168450832367,-0.0013452447019517422,0.0
301,5,1.780494312697556e-05,0.00044023196096532047,0.00033623602939769626,0.007583680562674999,-0.005404967349022627,0.015293365344405174,0.00673461239784956,-0.01864192821085453,-0.007060039322823286,0.1713135987520218,-0.10779262334108353,-0.022330695763230324,0.0,0.0,0.0,-0.0004285914183128625,-0.006137127056717873,-0.0,0.0,0.0,0.0,0.00016249867621809244,0.0027560561429709196,-0.0009480356238782406,13638.0,14067.0,13242.0,14456.0,0.4153791666030884,0.4435383081436157,0.3901252746582031,0.4699063301086426,0.0,0.0,0.0,0.0,13706.0,14043.0,13302.0,14359.0,1.6933599710464478,0.0073032452384458,0.03727044978247102,0.06217736768341548,0.02504168450832367,-0.0013452447019517422,0.0
306,5,2.3976832380867563e-05,0.0004197403322905302,0.0002854562480933964,0.0037740988191217184,0.00029701125458814204,0.01221091952174902,0.00673461239784956,-0.01864192821085453,-0.007060039322823286,0.1713135987520218,-0.10779262334108353,-0.022330695763230324,0.0,0.0,0.0,0.007109467871487141,0.006871985271573067,-0.0,0.0,0.0,0.0,0.00016249867621809244,0.0027560561429709196,-0.0009480356238782406,13638.0,14067.0,13242.0,14456.0,0.4153791666030884,0.4435383081436157,0.3901252746582031,0.4699063301086426,0.0,0.0,0.0,0.0,13706.0,14043.0,13302.0,14359.0,1.7237600088119507,0.00902038047722451,0.03691845692498073,0.06184099711688964,-0.02854279801249504,0.022715160623192787,0.0
312,5,5.626095116895158e-06,0.00039964771713130176,0.00023082728148438036,-0.0006924489862285554,0.0025299154222011566,0.011439844034612179,0.008099007420241833,-0.017781797796487808,-0.006839113775640726,0.2047976702451706,-0.11894915252923965,0.04774824529886246,0.0,0.0,0.0,0.007109467871487141,0.006871985271573067,-0.0,0.0,0.0,0.0,-0.003748117247596383,0.0009025122271850705,-0.0007615987560711801,13781.0,14225.0,13148.0,13865.0,0.42467397451400757,0.4541742205619812,0.3843132257461548,0.4301985502243042,0.0,0.0,0.0,0.0,14196.0,13822.0,13905.0,14009.0,1.7237600088119507,0.009707556213784132,0.035910275484969965,0.0619468049238645,-0.02854279801249504,0.022715160623192787,0.0
317,5,-2.029902498179581e-05,0.00036787637509405613,0.00021781313989777118,-0.003387993900105357,0.004824530333280563,0.006137634161859751,0.008099007420241833,-0.017781797796487808,-0.006839113775640726,0.2047976702451706,-0.11894915252923965,0.04774824529886246,0.0,0.0,0.0,-0.0023794814478605986,-0.000645113701466471,-0.0,0.0,0.0,0.0,-0.003748117247596383,0.0009025122271850705,-0.0007615987560711801,13781.0,14225.0,13148.0,13865.0,0.42467397451400757,0.4541742205619812,0.3843132257461548,0.4301985502243042,0.0,0.0,0.0,0.0,14196.0,13822.0,13905.0,14009.0,1.646621823310852,0.012119331798253715,0.03565485633557395,0.061910167358717516,0.002559651155024767,-0.0072624641470611095,0.0
322,5,-2.527047945477534e-05,0.000328125839587301,0.00019912025891244411,-0.0019517721375450492,0.006699876394122839,0.00469819875434041,0.010955043137073517,-0.016232548281550407,-0.006658843252807856,0.2518826127052307,-0.1276567578315735,0.008794303983449936,0.0,0.0,0.0,-0.0023794814478605986,-0.000645113701466471,-0.0,0.0,0.0,0.0,-0.002939891302958131,0.0034290750045329332,2.053378921118565e-05,14261.0,13896.0,13398.0,13937.0,0.4566352665424347,0.4322473704814911,0.3999846875667572,0.4348926842212677,0.0,0.0,0.0,0.0,13910.0,14125.0,13273.0,13719.0,1.646621823310852,0.012180836585824199,0.03407272179456289,0.061895001032749024,0.002559651155024767,-0.0072624641470611095,0.0
327,5,-0.00011095721129095182,0.0002648714871611446,0.0002819887886289507,-0.01106311660259962,0.010270471684634686,-0.008064944297075272,0.010955043137073517,-0.016232548281550407,-0.006658843252807856,0.2518826127052307,-0.1276567578315735,0.008794303983449936,0.0,0.0,0.0,-0.00742812966927886,-0.0018281599041074514,-0.0,0.0,0.0,0.0,-0.002939891302958131,0.0034290750045329332,2.053378921118565e-05,14261.0,13896.0,13398.0,13937.0,0.4566352665424347,0.4322473704814911,0.3999846875667572,0.4348926842212677,0.0,0.0,0.0,0.0,13910.0,14125.0,13273.0,13719.0,1.6917130947113037,0.01110763048648394,0.0345853115203645,0.0606204801147422,0.007452132645994425,-0.023292038589715958,0.0
332,5,-0.00011095721129095182,0.0002648714871611446,0.0002819887886289507,-0.01106311660259962,0.010270471684634686,-0.008064944297075272,0.01308275107294321,-0.015209420584142208,-0.006491907872259617,0.2756403088569641,-0.12891167402267456,0.0186983123421669,0.0,0.0,0.0,-0.00742812966927886,-0.0018281599041074514,-0.0,0.0,0.0,0.0,-0.00515397684648633,0.001624033902771771,-0.0008387628477066755,13688.0,14139.0,12769.0,13687.0,0.41861236095428467,0.4483996033668518,0.36107057332992554,0.41853928565979004,0.0,0.0,0.0,0.0,14079.0,14097.0,13189.0,14117.0,1.6917130947113037,0.01110763048648394,0.0345853115203645,0.0606204801147422,0.007452132645994425,-0.023292038589715958,0.0
337,5,-0.0001991987955989316,0.0002344512176932767,0.0005159119027666748,-0.01871897652745247,-0.0009441794245503843,-0.02651144377887249,0.01308275107294321,-0.015209420584142208,-0.006491907872259617,0.2756403088569641,-0.12891167402267456,0.0186983123421669,0.0,0.0,0.0,-0.011252217926084995,-0.00983935035765171,-0.0,0.0,0.0,0.0,-0.00515397684648633,0.001624033902771771,-0.0008387628477066755,13688.0,14139.0,12769.0,13687.0,0.41861236095428467,0.4483996033668518,0.36107057332992554,0.41853928565979004,0.0,0.0,0.0,0.0,14079.0,14097.0,13189.0,14117.0,1.7754520177841187,0.01681519667314578,0.03229183966901388,0.06100330793402637,0.04209133982658386,-0.03702874481678009,0.0
342,5,-9.293649054598063e-05,0.00024171729455702007,0.00034482526825740933,0.005263887345790863,-0.0012496017152443528,0.009925817139446735,0.016123533248901367,-0.013785028830170631,-0.0064756437204778194,0.21474124491214752,-0.1345667541027069,0.010570262558758259,0.0,0.0,0.0,-0.011252217926084995,-0.00983935035765171,-0.0,0.0,0.0,0.0,-0.005703705362975597,0.0011111729545518756,-0.0003636401961557567,13947.0,14310.0,13027.0,13699.0,0.43561363220214844,0.45995068550109863,0.37680870294570923,0.4193400740623474,0.0,0.0,0.0,0.0,14039.0,13808.0,13122.0,13333.0,1.7754520177841187,0.017962371402740845,0.032254733025208635,0.06155360992498968,0.04209133982658386,-0.03702874481678009,0.0
347,5,-0.00011476816871436313,0.00020691771351266652,0.0003988665121141821,-0.0005142465815879405,0.0036761099472641945,-0.0025146224070340395,0.016123533248901367,-0.013785028830170631,-0.0064756437204778194,0.21474124491214752,-0.1345667541027069,0.010570262558758259,0.0,0.0,0.0,0.0019410288659855723,0.004750675056129694,-0.0,0.0,0.0,0.0,-0.005703705362975597,0.0011111729545518756,-0.0003636401961557567,13947.0,14310.0,13027.0,13699.0,0.43561363220214844,0.45995068550109863,0.37680870294570923,0.4193400740623474,0.0,0.0,0.0,0.0,14039.0,13808.0,13122.0,13333.0,1.680189847946167,0.01855424963473392,0.03160990724856673,0.06189766400525098,-0.019233712926506996,0.0060450294986367226,0.0
352,5,-0.00013370245869737118,0.000205005839234218,0.000466488505480811,-0.002477813046425581,0.0016998680075630546,-0.009120490401983261,0.017421387135982513,-0.012759667821228504,-0.006405800115317106,0.08736145496368408,-0.1347745805978775,-0.013851781375706196,0.0,0.0,0.0,0.0019410288659855723,0.004750675056129694,-0.0,0.0,0.0,0.0,-0.00564465532079339,-0.0006572494166903198,-0.0008560071000829339,14104.0,14747.0,13448.0,13954.0,0.44606196880340576,0.4901546239852905,0.4031551480293274,0.43608027696609497,0.0,0.0,0.0,0.0,13723.0,14481.0,12859.0,13904.0,1.680189847946167,0.018396389519670306,0.03163205012127859,0.061838571586736106,-0.019233712926506996,0.0060450294986367226,0.0
357,5,-0.0001531881425762549,0.00021001906134188175,0.00048357935156673193,-0.0033294083550572395,7.836039731046185e-05,-0.0056990948505699635,0.017421387135982513,-0.012759667821228504,-0.006405800115317106,0.08736145496368408,-0.1347745805978775,-0.013851781375706196,0.0,0.0,0.0,-0.00169916613958776,-0.0025111257564276457,-0.0,0.0,0.0,0.0,-0.00564465532079339,-0.0006572494166903198,-0.0008560071000829339,14104.0,14747.0,13448.0,13954.0,0.44606196880340576,0.4901546239852905,0.4031551480293274,0.43608027696609497,0.0,0.0,0.0,0.0,13723.0,14481.0,12859.0,13904.0,1.6563419103622437,0.016990230377092765,0.031304329681053324,0.061391915491202396,0.010022343136370182,-0.00521667767316103,0.0
362,5,-0.00020466011483222246,0.00020826996478717774,0.0005314660957083106,-0.007508400361984968,0.0002412372996332124,-0.008026046678423882,0.016082005575299263,-0.010437863878905773,-0.006524036172777414,-0.229639932513237,-0.1084773913025856,-0.0014630985679104924,0.0,0.0,0.0,-0.00169916613958776,-0.0025111257564276457,-0.0,0.0,0.0,0.0,-0.004508765414357185,-0.0007396395085379481,-0.0006468473002314568,13664.0,13972.0,13141.0,14043.0,0.41707563400268555,0.43726056814193726,0.3838675618171692,0.441986083984375,0.0,0.0,0.0,0.0,14209.0,14559.0,13684.0,13815.0,1.6563419103622437,0.015133857997119362,0.03042921634138866,0.06170634436578252,0.010022343136370182,-0.00521667767316103,0.0
367,5,-0.00023437204072251916,0.00015212834114208817,0.00045690342085435987,-0.0065687913447618484,0.006833489052951336,0.005737100727856159,0.016082005575299263,-0.010437863878905773,-0.006524036172777414,-0.229639932513237,-0.1084773913025856,-0.0014630985679104924,0.0,0.0,0.0,8.604656613897532e-05,-0.007128127850592136,-0.0,0.0,0.0,0.0,-0.004508765414357185,-0.0007396395085379481,-0.0006468473002314568,13664.0,13972.0,13141.0,14043.0,0.41707563400268555,0.43726056814193726,0.3838675618171692,0.441986083984375,0.0,0.0,0.0,0.0,14209.0,14559.0,13684.0,13815.0,1.7045828104019165,0.009098945362575472,0.029903919715448268,0.05996573224401118,0.02927802875638008,0.0002718693285714835,0.0
373,5,-0.0002955422969534993,0.000143475437653251,0.0006411215290427208,-0.009967947378754616,0.0037717444356530905,-0.01981133408844471,0.013040786609053612,-0.009196612052619457,-0.006399097386747599,-0.26919224858283997,-0.09142610430717468,0.024852776899933815,0.0,0.0,0.0,8.604656613897532e-05,-0.007128127850592136,-0.0,0.0,0.0,0.0,-0.0006991272675804794,0.0017664842307567596,-0.0004125712439417839,13697.0,13819.0,13340.0,13976.0,0.4192170798778534,0.4271647036075592,0.39632412791252136,0.43748393654823303,0.0,0.0,0.0,0.0,13614.0,13951.0,13185.0,14072.0,1.7045828104019165,0.006044701819107176,0.02437770159549258,0.059313678802749986,0.02927802875638008,0.0002718693285714835,0.0
378,5,-0.0003723579866345972,0.000254729762673378,0.0006442381418310106,-0.013205059804022312,-0.011841821484267712,-0.008298524655401707,0.013040786609053612,-0.009196612052619457,-0.006399097386747599,-0.26919224858283997,-0.09142610430717468,0.024852776899933815,0.0,0.0,0.0,-0.004139830358326435,-0.00932225864380598,-0.0,0.0,0.0,0.0,-0.0006991272675804794,0.0017664842307567596,-0.0004125712439417839,13697.0,13819.0,13340.0,13976.0,0.4192170798778534,0.4271647036075592,0.39632412791252136,0.43748393654823303,0.0,0.0,0.0,0.0,13614.0,13951.0,13185.0,14072.0,1.7363059520721436,0.012975577419737771,0.02964101692402044,0.060837576345712914,0.03900221735239029,-0.013323400169610977,0.0
383,5,-0.0003176158934365958,0.0002695471339393407,0.0004931408329866827,0.0012870266800746322,-0.006514811888337135,0.014812265522778034,0.010929865762591362,-0.00835777260363102,-0.006530018988996744,-0.25302332639694214,-0.09865427762269974,-0.00870917271822691,0.0,0.0,0.0,-0.004139830358326435,-0.00932225864380598,-0.0,0.0,0.0,0.0,-0.001004837453365326,0.00030359861557371914,-0.0009712148457765579,13150.0,14185.0,12992.0,14100.0,0.3844015598297119,0.45151400566101074,0.3746546506881714,0.4457716941833496,0.0,0.0,0.0,0.0,13610.0,13785.0,13384.0,13691.0,1.7363059520721436,0.012134318727714744,0.028534605356851938,0.06136931873043956,0.03900221735239029,-0.013323400169610977,0.0
388,5,-0.00031853237305767834,0.0002705325314309448,0.0005155471153557301,0.00040483311749994755,-0.0027241732459515333,0.003236151998862624,0.010929865762591362,-0.00835777260363102,-0.006530018988996744,-0.25302332639694214,-0.09865427762269974,-0.00870917271822691,0.0,0.0,0.0,0.003818182274699211,-5.6786990171531215e-05,-0.0,0.0,0.0,0.0,-0.001004837453365326,0.00030359861557371914,-0.0009712148457765579,13150.0,14185.0,12992.0,14100.0,0.3844015598297119,0.45151400566101074,0.3746546506881714,0.4457716941833496,0.0,0.0,0.0,0.0,13610.0,13785.0,13384.0,13691.0,1.6575170755386353,0.011149579692635428,0.027731983186405178,0.061520476382796056,0.00022680655820295215,0.01173062901943922,0.0
393,5,-0.0003331548359710723,0.00027937995037063956,0.0005267981323413551,-0.0015927612548694015,-0.002151361433789134,-5.566167237702757e-05,0.008425384759902954,-0.007190696895122528,-0.006335735786706209,-0.142525777220726,-0.09530240297317505,0.019910741597414017,0.0,0.0,0.0,0.003818182274699211,-5.6786990171531215e-05,-0.0,0.0,0.0,0.0,-0.0005493182106874883,-0.0007617315277457237,3.6676196032203734e-05,13627.0,14066.0,13649.0,13868.0,0.4146595001220703,0.4435022473335266,0.4160786271095276,0.430342435836792,0.0,0.0,0.0,0.0,13496.0,14146.0,13574.0,13987.0,1.6575170755386353,0.010088541143102172,0.027511066564133223,0.06117680482846817,0.00022680655820295215,0.01173062901943922,0.0
398,5,-0.0003634917957242578,0.00028138281777501106,0.0005500052939169109,-0.0042775413021445274,-0.0011008859146386385,-0.0028071217238903046,0.008425384759902954,-0.007190696895122528,-0.006335735786706209,-0.142525777220726,-0.09530240297317505,0.019910741597414017,0.0,0.0,0.0,0.003818182274699211,-5.6786990171531215e-05,-0.0,0.0,0.0,0.0,-0.0005493182106874883,-0.0007617315277457237,3.6676196032203734e-05,13627.0,14066.0,13649.0,13868.0,0.4146595001220703,0.4435022473335266,0.4160786271095276,0.430342435836792,0.0,0.0,0.0,0.0,13496.0,14146.0,13574.0,13987.0,1.6575170755386353,0.009614562603541798,0.026547407989564956,0.06131938014140841,0.00022680655820295215,0.01173062901943922,0.0
403,5,-0.0003803317667916417,0.0002784141688607633,0.0005560917197726667,-0.0037318121176213026,-8.411680755671114e-05,-0.0018532205140218139,0.007876177318394184,-0.006516932975500822,-0.006464749108999968,-0.033064331859350204,-0.0727810487151146,-0.020981526002287865,0.0,0.0,0.0,0.001836893381550908,-0.004464500583708286,-0.0,0.0,0.0,0.0,-0.0020912743639200926,-0.0010373835684731603,-0.0003363726718816906,13618.0,14496.0,13492.0,14067.0,0.414066344499588,0.4726630747318268,0.40600845217704773,0.44356808066368103,0.0,0.0,0.0,0.0,13976.0,14105.0,13913.0,13700.0,1.676861047744751,0.009481257188485661,0.026305892878160195,0.06131109931274744,0.01803930103778839,0.005709382705390453,0.0
408,5,-0.0004191013576928526,0.0002674780844245106,0.0006076637655496597,-0.006145077757537365,0.0012786840088665485,-0.006929932627826929,0.007876177318394184,-0.006516932975500822,-0.006464749108999968,-0.033064331859350204,-0.0727810487151146,-0.020981526002287865,0.0,0.0,0.0,0.001836893381550908,-0.004464500583708286,-0.0,0.0,0.0,0.0,-0.0020912743639200926,-0.0010373835684731603,-0.0003363726718816906,13618.0,14496.0,13492.0,14067.0,0.414066344499588,0.4726630747318268,0.40600845217704773,0.44356808066368103,0.0,0.0,0.0,0.0,13976.0,14105.0,13913.0,13700.0,1.676861047744751,0.0087617740890779,0.024864213896268233,0.061406797687340975,0.01803930103778839,0.005709382705390453,0.0
413,5,-0.0004976841155439615,0.00020859068899881095,0.0006461726734414697,-0.011887962929904461,0.007577960379421711,-0.007393043953925371,0.007876177318394184,-0.006516932975500822,-0.006464749108999968,-0.033064331859350204,-0.0727810487151146,-0.020981526002287865,0.0,0.0,0.0,-0.0010472387075424194,-0.0062079099006950855,-0.0,0.0,0.0,0.0,-0.0020912743639200926,-0.0010373835684731603,-0.0003363726718816906,13618.0,14496.0,13492.0,14067.0,0.414066344499588,0.4726630747318268,0.40600845217704773,0.44356808066368103,0.0,0.0,0.0,0.0,13976.0,14105.0,13913.0,13700.0,1.6946563720703125,0.00664822011912451,0.02655634461506043,0.05996950737152737,0.025349881500005722,-0.003289544489234686,0.0
418,5,-0.0004851973499171436,0.0001699106942396611,0.0006508398801088333,-0.00325677078217268,0.007672782987356186,-0.0035172817297279835,0.007876177318394184,-0.006516932975500822,-0.006464749108999968,-0.033064331859350204,-0.0727810487151146,-0.020981526002287865,0.0,0.0,0.0,-0.0010472387075424194,-0.0062079099006950855,-0.0,0.0,0.0,0.0,-0.000826720439363271,0.0007875118171796203,0.000392999907489866,13687.0,13673.0,13465.0,13665.0,0.4185442626476288,0.4176262319087982,0.40424588322639465,0.4171006977558136,0.0,0.0,0.0,0.0,13624.0,13695.0,13458.0,13712.0,1.6946563720703125,0.0020147311941549504,0.021205281470280102,0.05924013211782721,0.025349881500005722,-0.003289544489234686,0.0
423,5,-0.0006237044581212103,0.00025726036983542144,0.0008190779481083155,-0.017923559993505478,-0.007412847131490707,-0.021595479920506477,0.007876177318394184,-0.006516932975500822,-0.006464749108999968,-0.033064331859350204,-0.0727810487151146,-0.020981526002287865,0.0,0.0,0.0,-0.008768892847001553,-0.003611010732129216,-0.0,0.0,0.0,0.0,-0.000826720439363271,0.0007875118171796203,0.000392999907489866,13687.0,13673.0,13465.0,13665.0,0.4185442626476288,0.4176262319087982,0.40424588322639465,0.4171006977558136,0.0,0.0,0.0,0.0,13624.0,13695.0,13458.0,13712.0,1.7106270790100098,0.008249968831968442,0.023842819294871122,0.06147786482486194,0.014883956871926785,-0.027803441509604454,0.0
428,5,-0.0005460865795612335,0.000264391623204574,0.0006209967541508377,0.00214471947401762,-0.0038208893965929747,0.015131551772356033,0.007723064161837101,-0.0058197081089019775,-0.006321904249489307,0.011345209553837776,-0.056410957127809525,-0.00898709986358881,0.0,0.0,0.0,-0.008768892847001553,-0.003611010732129216,-0.0,0.0,0.0,0.0,-0.0014340381603688002,0.00011368193372618407,-0.0001729934592731297,13644.0,13940.0,13446.0,13754.0,0.41576772928237915,0.43513625860214233,0.4030649662017822,0.42289209365844727,0.0,0.0,0.0,0.0,13844.0,13733.0,13661.0,13550.0,1.7106270790100098,0.010342544088046187,0.024906046911552536,0.06257208231515914,0.014883956871926785,-0.027803441509604454,0.0
434,5,-0.0005563226877711713,0.00028079678304493427,0.0006180770578794181,-0.0003704434202518314,-0.003496976802125573,0.006402982864528894,0.007723064161837101,-0.0058197081089019775,-0.006321904249489307,0.011345209553837776,-0.056410957127809525,-0.00898709986358881,0.0,0.0,0.0,0.005108303856104612,0.0012507138308137655,-0.0,0.0,0.0,0.0,-0.0014340381603688002,0.00011368193372618407,-0.0001729934592731297,13644.0,13940.0,13446.0,13754.0,0.41576772928237915,0.43513625860214233,0.4030649662017822,0.42289209365844727,0.0,0.0,0.0,0.0,13844.0,13733.0,13661.0,13550.0,1.670631766319275,0.00938490224878211,0.024207772435804156,0.06274273211966046,-0.005034829955548048,0.0158184003084898,0.0
439,5,-0.0005717180902138352,0.0002779900678433478,0.0005989025812596083,-0.0019956263713538647,-0.0010619836393743753,0.004862130153924227,0.008030600845813751,-0.005558138247579336,-0.006354853510856628,0.03773551061749458,-0.03638273850083351,-0.022188222035765648,0.0,0.0,0.0,0.005108303856104612,0.0012507138308137655,-0.0,0.0,0.0,0.0,-0.0024064353201538324,-0.0001788986992323771,0.00019865477224811912,14005.0,13854.0,13696.0,13502.0,0.43944215774536133,0.42941945791244507,0.4191499948501587,0.4066447615623474,0.0,0.0,0.0,0.0,13959.0,13858.0,13717.0,13524.0,1.670631766319275,0.010427075361520677,0.024644712806745156,0.06267479496999968,-0.005034829955548048,0.0158184003084898,0.0
444,5,-0.0006339232204481959,0.00025791223742999136,0.0006255182670429349,-0.008262868970632553,0.0019845447968691587,-0.0012490301160141826,0.008030600845813751,-0.005558138247579336,-0.006354853510856628,0.03773551061749458,-0.03638273850083351,-0.022188222035765648,0.0,0.0,0.0,0.001805124687962234,-0.0026614717207849026,-0.0,0.0,0.0,0.0,-0.0024064353201538324,-0.0001788986992323771,0.00019865477224811912,14005.0,13854.0,13696.0,13502.0,0.43944215774536133,0.42941945791244507,0.4191499948501587,0.4066447615623474,0.0,0.0,0.0,0.0,13959.0,13858.0,13717.0,13524.0,1.6582199335098267,0.010805235234916635,0.0237624917268229,0.06348007326310945,0.010634440928697586,0.005548268090933561,0.0
449,5,-0.0006548851379193366,0.00025310812634415925,0.0005850909510627389,-0.005820577032864094,0.001370311831124127,0.004351666662842035,0.008879564702510834,-0.005305153783410788,-0.006254155654460192,0.09799598157405853,-0.01636497676372528,-0.013133859261870384,0.0,0.0,0.0,0.001805124687962234,-0.0026614717207849026,-0.0,0.0,0.0,0.0,-0.004243037197738886,0.0002670386165846139,-3.472024036454968e-05,14005.0,13854.0,13696.0,13502.0,0.43944215774536133,0.42941945791244507,0.4191499948501587,0.4066447615623474,0.0,0.0,0.0,0.0,14120.0,14066.0,13554.0,13556.0,1.6582199335098267,0.011904732361162096,0.02331307077502506,0.0634874261482288,0.010634440928697586,0.005548268090933561,0.0
454,5,-0.0007583345286548138,0.00020215885888319463,0.0006732355104759336,-0.014742153696715832,0.006662038620561361,-0.008836682885885239,0.008879564702510834,-0.005305153783410788,-0.006254155654460192,0.09799598157405853,-0.01636497676372528,-0.013133859261870384,0.0,0.0,0.0,-0.0011804432142525911,-0.0062280031852424145,-0.0,0.0,0.0,0.0,-0.004243037197738886,0.0002670386165846139,-3.472024036454968e-05,14005.0,13854.0,13696.0,13502.0,0.43944215774536133,0.42941945791244507,0.4191499948501587,0.4066447615623474,0.0,0.0,0.0,0.0,14120.0,14066.0,13554.0,13556.0,1.6950421333312988,0.01045714502998212,0.022635410253044976,0.06277313885458737,0.025437716394662857,-0.003708804724738002,0.0
459,5,-0.0007279400015249848,0.0001539715303806588,0.0005816951161250472,-0.002249520504847169,0.008447294123470783,0.00745017547160387,0.009615904651582241,-0.005121760070323944,-0.006077570840716362,0.09410495311021805,-0.04568538814783096,-0.003971357364207506,0.0,0.0,0.0,-0.0011804432142525911,-0.0062280031852424145,-0.0,0.0,0.0,0.0,-0.0017225060146301985,0.000791677797678858,-0.00013340201985556632,14219.0,13995.0,13632.0,13447.0,0.45378097891807556,0.43876883387565613,0.414981871843338,0.40309539437294006,0.0,0.0,0.0,0.0,14128.0,14109.0,13562.0,13495.0,1.6950421333312988,0.007596207173971277,0.02078497362619687,0.06178740975796689,0.025437716394662857,-0.003708804724738002,0.0
464,5,-0.0009072039974853396,0.00020373980805743486,0.0008344179368577898,-0.022411489859223366,-0.002593275625258684,-0.027346670627593994,0.009615904651582241,-0.005121760070323944,-0.006077570840716362,0.09410495311021805,-0.04568538814783096,-0.003971357364207506,0.0,0.0,0.0,-0.00968624372035265,-0.003012800822034478,-0.0,0.0,0.0,0.0,-0.0017225060146301985,0.000791677797678858,-0.00013340201985556632,14219.0,13995.0,13632.0,13447.0,0.45378097891807556,0.43876883387565613,0.414981871843338,0.40309539437294006,0.0,0.0,0.0,0.0,14128.0,14109.0,13562.0,13495.0,1.7150987386703491,0.010602479873957342,0.02013050810542766,0.06277303438902782,0.01245060469955206,-0.030792200937867165,0.0
469,5,-0.000836112885735929,0.00022027581871952862,0.0005629952647723258,-0.0004336607817094773,-0.003021631622686982,0.021632054820656776,0.01087744627147913,-0.0046021523885428905,-0.006024412345141172,0.09925800561904907,-0.04153896123170853,-0.015177933499217033,0.0,0.0,0.0,-0.00968624372035265,-0.003012800822034478,-0.0,0.0,0.0,0.0,-0.0025793276727199554,-0.00026148161850869656,-0.0002369595313211903,13858.0,13708.0,13531.0,13594.0,0.42974498867988586,0.4198745787143707,0.40849658846855164,0.4125156104564667,0.0,0.0,0.0,0.0,13627.0,13982.0,13222.0,13850.0,1.7150987386703491,0.014829029280087468,0.022162281978560974,0.06423716176526925,0.01245060469955206,-0.030792200937867165,0.0
474,5,-0.0008908577146939933,0.00021363717678468674,0.0005841139936819673,-0.006742844823747873,-0.00041201483691111207,0.0061185769736766815,0.01087744627147913,-0.0046021523885428905,-0.006024412345141172,0.09925800561904907,-0.04153896123170853,-0.015177933499217033,0.0,0.0,0.0,-0.00968624372035265,-0.003012800822034478,-0.0,0.0,0.0,0.0,-0.0025793276727199554,-0.00026148161850869656,-0.0002369595313211903,13858.0,13708.0,13531.0,13594.0,0.42974498867988586,0.4198745787143707,0.40849658846855164,0.4125156104564667,0.0,0.0,0.0,0.0,13627.0,13982.0,13222.0,13850.0,1.7150987386703491,0.01500426926627178,0.02125294375247521,0.06406163301463152,0.01245060469955206,-0.030792200937867165,0.0
479,5,-0.0009325468563474715,0.00020942185074090958,0.0006306563154794276,-0.007699837442487478,0.0003410328645259142,-0.003137648804113269,0.011723950505256653,-0.00408274307847023,-0.005866426974534988,0.103482186794281,-0.07618852704763412,0.013728542253375053,0.0,0.0,0.0,0.0008718327735550702,-0.007340521086007357,-0.0,0.0,0.0,0.0,-0.0025793276727199554,-0.00026148161850869656,-0.0002369595313211903,13835.0,13765.0,13544.0,13352.0,0.4282146096229553,0.4236128330230713,0.40929973125457764,0.3970927596092224,0.0,0.0,0.0,0.0,13744.0,13879.0,13427.0,13446.0,1.707373023033142,0.015889892199480768,0.021676935683726518,0.06412302360115782,0.03019973635673523,0.0027591167017817497,-0.0
