timestamp,dt,pos_x,pos_y,pos_z,vel_x,vel_y,vel_z,roll,pitch,yaw,agv_x,agv_y,agv_z,x_ref,y_ref,z_ref,roll_ref,pitch_ref,yaw_ref,x_vel_ref,y_vel_ref,z_vel_ref,x_torque,y_torque,z_torque,w0,w1,w2,w3,u0,u1,u2,u3,m0req,m1req,m2req,m3req,thrust0,thrust1,thrust2,thrust3,thrust_ref,roll_vicon,pitch_vicon,yaw_vicon,acc_x,acc_y,acc_z
5,5,0.0,0.0,0.0,-0.0009216180769726634,-0.0010875131702050567,-0.005090097431093454,-0.004114181734621525,-0.10275088995695114,0.0028946222737431526,0.0004882453940808773,-0.01810789294540882,0.0005850804154761136,0.0,0.0,0.0,0.0013413686538115144,-0.0008744227234274149,-0.0,0.0,0.0,0.0,0.001219850149936974,0.03038628399372101,0.00020249142835382372,1495.0,1495.0,1495.0,1495.0,0.0,0.0,0.0,0.0,0.0,0.0,0.0,0.0,1495.0,1495.0,1495.0,1495.0,1.6402473449707031,-0.03647294309919126,0.10525872710278551,0.02006918011326994,0.0034560677595436573,0.004078174475580454,0.0
30,25,0.0,0.0,0.0,-0.0022447591181844473,-0.00041340835741721094,0.002029321389272809,-0.004114181734621525,-0.10275088995695114,0.0028946222737431526,0.0004882453940808773,-0.01810789294540882,0.0005850804154761136,0.0,0.0,0.0,0.0013413686538115144,-0.0008744227234274149,-0.0,0.0,0.0,0.0,0.001219850149936974,0.03038628399372101,0.00020249142835382372,1495.0,1495.0,1495.0,1495.0,0.0,0.0,0.0,0.0,0.0,0.0,0.0,0.0,1495.0,1495.0,1495.0,1495.0,1.6402473449707031,-0.037241802517462196,0.10502996338742689,0.020124927625904898,0.0034560677595436573,0.004078174475580454,0.0
35,5,0.0,0.0,0.0,-0.0018965920899063349,-0.0011320250341668725,0.004633864853531122,-0.004114181734621525,-0.10275088995695114,0.0028946222737431526,0.0004882453940808773,-0.01810789294540882,0.0005850804154761136,0.0,0.0,0.0,0.0005072200438007712,-0.0021185751538723707,-0.0,0.0,0.0,0.0,0.001219850149936974,0.03038628399372101,0.00020249142835382372,1495.0,1495.0,1495.0,1495.0,0.0,0.0,0.0,0.0,0.0,0.0,0.0,0.0,1495.0,1495.0,1495.0,1495.0,1.6489428281784058,-0.03755048393004212,0.10442056113499948,0.020250559407762613,0.008417846634984016,0.001550281303934753,0.0
40,5,0.0,0.0,0.0,-0.0010713135125115514,-0.0020832743030041456,0.0027882521972060204,-0.0041089775040745735,-0.1025477722287178,0.002921618986874819,-0.001681479043327272,-0.015040956437587738,-0.0029232418164610863,0.0,0.0,0.0,0.0005072200438007712,-0.0021185751538723707,-0.0,0.0,0.0,0.0,0.0016412775730714202,0.0301322303712368,0.0003435986291151494,1495.0,1495.0,1495.0,1495.0,0.0,0.0,0.0,0.0,0.0,0.0,0.0,0.0,1495.0,1495.0,1495.0,1495.0,1.6489428281784058,-0.03646851501129291,0.10473630300479213,0.019819570844870352,0.008417846634984016,0.001550281303934753,0.0
50,10,0.0,0.0,0.0,0.00031714371289126575,-0.0018473132513463497,0.0022358933929353952,-0.0040910448879003525,-0.10245921462774277,0.002947284374386072,0.0017900604289025068,-0.014813746325671673,0.0001167173104477115,0.0,0.0,0.0,0.002555074170231819,-0.0010107201524078846,-0.0,0.0,0.0,0.0,0.0016264405567198992,0.030191002413630486,0.00038401290657930076,1495.0,1495.0,1495.0,1495.0,0.0,0.0,0.0,0.0,0.0,0.0,0.0,0.0,1495.0,1495.0,1495.0,1495.0,1.649553894996643,-0.03677984675981006,0.10433895129631172,0.019870225917137697,0.004017425701022148,0.007812278810888529,0.0
59,9,-8.99285680588946e-07,-8.748129403102212e-06,1.2386334674374666e-05,1.894320303108543e-05,0.0003108502714894712,-0.0005920028197579086,-0.0040910448879003525,-0.10245921462774277,0.002947284374386072,0.0017900604289025068,-0.014813746325671673,0.0001167173104477115,0.0,0.0,0.0,0.002272215439006686,0.00030006971792317927,-0.0,0.0,0.0,0.0,0.0016264405567198992,0.030191002413630486,0.00038401290657930076,1495.0,1495.0,1495.0,1495.0,0.0,0.0,0.0,0.0,0.0,0.0,0.0,0.0,1495.0,1495.0,1495.0,1495.0,1.6448049545288086,-0.03681356124311565,0.10432823732128536,0.020019466368919703,-0.001189288916066289,0.00692742457613349,0.0
64,5,-3.726208160514943e-05,-5.6461030908394605e-06,5.26650546817109e-05,-0.0036823207046836615,-0.0007051110733300447,-0.0013534070458263159,-0.0040617287158966064,-0.10234279185533524,0.002921121893450618,0.0015911561204120517,-0.008325380273163319,-0.0019604351837188005,0.0,0.0,0.0,0.0008470552857033908,-0.0034943753853440285,-0.0,0.0,0.0,0.0,0.0013578254729509354,0.029912063851952553,0.00029018829809501767,15561.0,11030.0,11504.0,15539.0,0.5489987134933472,0.2637935280799866,0.2888193130493164,0.5473312139511108,0.0,0.0,0.0,0.0,15526.0,11083.0,11471.0,15561.0,1.6643118858337402,-0.03773522591457075,0.10409310988366016,0.020232819532365866,0.014013774693012238,0.002613093238323927,0.0
71,7,-3.43177052855026e-05,-1.6214144125115126e-05,3.559688775567338e-05,-0.0011196029372513294,0.0009861205471679568,0.001506817527115345,-0.0040617287158966064,-0.10234279185533524,0.002921121893450618,0.0015911561204120517,-0.008325380273163319,-0.0019604351837188005,0.0,0.0,0.0,0.0008470552857033908,-0.0034943753853440285,-0.0,0.0,0.0,0.0,0.0013578254729509354,0.029912063851952553,0.00029018829809501767,15561.0,11030.0,11504.0,15539.0,0.5489987134933472,0.2637935280799866,0.2888193130493164,0.5473312139511108,0.0,0.0,0.0,0.0,15526.0,11083.0,11471.0,15561.0,1.6643118858337402,-0.03641236846960691,0.10426853482788619,0.019889193567398582,0.014013774693012238,0.002613093238323927,0.0
77,5,-3.907351492671296e-05,-2.5510966224828735e-05,2.8531881980597973e-05,-0.001018538256175816,0.0015100667951628566,0.0014505276922136545,-0.004043073393404484,-0.1022786945104599,0.0028981491923332214,-0.0025486175436526537,-0.006494466681033373,-0.0008439720841124654,0.0,0.0,0.0,-0.0019033337011933327,-0.0010179276578128338,-0.0,0.0,0.0,0.0,0.0013580045197159052,0.029872603714466095,0.0001554565824335441,15536.0,11061.0,11475.0,15563.0,0.5471221804618835,0.2654065787792206,0.28725412487983704,0.5491599440574646,0.0,0.0,0.0,0.0,15582.0,10991.0,11539.0,15519.0,1.644910454750061,-0.03674026279399998,0.10436386001438952,0.019789457421570542,0.0040346900932490826,-0.005803169682621956,-0.0
83,6,-3.356892921146937e-05,-1.0327278232580284e-06,3.922796167898923e-05,0.00031953604775480926,-0.0018356353975832462,-0.0006606288370676339,-0.004043073393404484,-0.1022786945104599,0.0028981491923332214,-0.0025486175436526537,-0.006494466681033373,-0.0008439720841124654,0.0,0.0,0.0,-0.0019033337011933327,-0.0010179276578128338,-0.0,0.0,0.0,0.0,0.0013580045197159052,0.029872603714466095,0.0001554565824335441,15536.0,11061.0,11475.0,15563.0,0.5471221804618835,0.2654065787792206,0.28725412487983704,0.5491599440574646,0.0,0.0,0.0,0.0,15582.0,10991.0,11539.0,15519.0,1.644910454750061,-0.036850675759350304,0.10465268313367963,0.020178917279226948,0.0040346900932490826,-0.005803169682621956,-0.0
88,5,-3.281965837231837e-05,-1.3494797713065054e-05,3.610289786593057e-05,0.00021772683248855174,0.0007611942710354924,0.0001107561620301567,-0.004043073393404484,-0.1022786945104599,0.0028981491923332214,-0.0025486175436526537,-0.006494466681033373,-0.0008439720841124654,0.0,0.0,0.0,-0.0019033337011933327,-0.0010179276578128338,-0.0,0.0,0.0,0.0,0.0013580045197159052,0.029872603714466095,0.0001554565824335441,15536.0,11061.0,11475.0,15563.0,0.5471221804618835,0.2654065787792206,0.28725412487983704,0.5491599440574646,0.0,0.0,0.0,0.0,15582.0,10991.0,11539.0,15519.0,1.644910454750061,-0.037342704659148435,0.10429104867999563,0.020060794717501978,0.0040346900932490826,-0.005803169682621956,-0.0
93,5,-3.3317326597170904e-05,-1.2551740837807301e-05,4.84686424897518e-05,2.737081376835704e-05,0.00019131088629364967,-0.0014395868638530374,-0.004057489801198244,-0.10219169408082962,0.0028972108848392963,0.0005415698979049921,-0.008874079212546349,-0.0016420552274212241,0.0,0.0,0.0,-0.0009670951985754073,0.00016143654647748917,-0.0,0.0,0.0,0.0,0.0014720956096425653,0.02963036298751831,0.00021552262478508055,15574.0,11141.0,11583.0,15598.0,0.5499301552772522,0.26954036951065063,0.2930981516838074,0.5517431497573853,0.0,0.0,0.0,0.0,15581.0,11135.0,11610.0,15576.0,1.6338809728622437,-0.037175892126073196,0.1042474908842815,0.01996285824362133,-0.0006355854566209018,-0.0029288562946021557,-0.0
98,5,-2.2743039153283462e-05,-1.6881784176803194e-05,2.4461400244035758e-05,0.0012798625975847244,0.0005961295682936907,0.002305034315213561,-0.004057489801198244,-0.10219169408082962,0.0028972108848392963,0.0005415698979049921,-0.008874079212546349,-0.0016420552274212241,0.0,0.0,0.0,-0.0009670951985754073,0.00016143654647748917,-0.0,0.0,0.0,0.0,0.0014720956096425653,0.02963036298751831,0.00021552262478508055,15574.0,11141.0,11583.0,15598.0,0.5499301552772522,0.26954036951065063,0.2930981516838074,0.5517431497573853,0.0,0.0,0.0,0.0,15581.0,11135.0,11610.0,15576.0,1.6338809728622437,-0.037611514771961715,0.10397827651967603,0.020189834748137618,-0.0006355854566209018,-0.0029288562946021557,-0.0
103,5,-2.2743039153283462e-05,-1.6881784176803194e-05,2.4461400244035758e-05,0.0012798625975847244,0.0005961295682936907,0.002305034315213561,-0.004057489801198244,-0.10219169408082962,0.0028972108848392963,0.0005415698979049921,-0.008874079212546349,-0.0016420552274212241,0.0,0.0,0.0,-0.0007660495466552675,0.0011827981797978282,-0.0,0.0,0.0,0.0,0.0014720956096425653,0.02963036298751831,0.00021552262478508055,15574.0,11141.0,11583.0,15598.0,0.5499301552772522,0.26954036951065063,0.2930981516838074,0.5517431497573853,0.0,0.0,0.0,0.0,15581.0,11135.0,11610.0,15576.0,1.6399116516113281,-0.037611514771961715,0.10397827651967603,0.020189834748137618,-0.004673936404287815,-0.0023285511415451765,-0.0
108,5,-2.2743039153283462e-05,-1.6881784176803194e-05,2.4461400244035758e-05,0.0012798625975847244,0.0005961295682936907,0.002305034315213561,-0.004060080740600824,-0.10216160863637924,0.002911421237513423,-0.00016941512876655906,0.004587632138282061,0.000962254183832556,0.0,0.0,0.0,-0.0007660495466552675,0.0011827981797978282,-0.0,0.0,0.0,0.0,0.0006796166417188942,0.0304554495960474,0.0003244822728447616,15637.0,10996.0,11398.0,15509.0,0.5546800494194031,0.26202332973480225,0.2831099033355713,0.5450971722602844,0.0,0.0,0.0,0.0,15629.0,11062.0,11663.0,15539.0,1.6399116516113281,-0.037611514771961715,0.10397827651967603,0.020189834748137618,-0.0046738567762076855,-0.002328610047698021,-0.0
113,5,-1.0750386536528822e-05,-1.0713684787333477e-05,2.2149444703245535e-05,0.0003921686438843608,3.496799399727024e-05,0.00011367104889359325,-0.004066238179802895,-0.10221612453460693,0.002904292894527316,-0.0032550417818129063,0.005627199076116085,-0.003568706102669239,0.0,0.0,0.0,-0.0007660689880140126,0.001182778156362474,-0.0,0.0,0.0,0.0,0.0009607677347958088,0.031024934723973274,0.00012543899356387556,15558.0,10951.0,11253.0,15574.0,0.5487634539604187,0.25971344113349915,0.2754238545894623,0.5499801635742188,0.0,0.0,0.0,0.0,15610.0,10876.0,11317.0,15528.0,1.6399115324020386,-0.03582002097076236,0.1048749283114541,0.019607547315847487,-0.0046738567762076855,-0.002328610047698021,-0.0
118,5,-1.006080401566578e-05,-7.598826869070763e-06,2.4006749299587682e-05,0.00023961745318956673,-0.00035979575477540493,-0.00017740795738063753,-0.004064055625349283,-0.1022513285279274,0.0029323718044906855,0.0001754031254677102,-0.0013740328140556812,0.0024953472893685102,0.0,0.0,0.0,0.0004326476773712784,0.0002145451435353607,-0.0,0.0,0.0,0.0,0.0009845125023275614,0.03134949877858162,0.00032127153826877475,15681.0,10830.0,11399.0,15511.0,0.5579183101654053,0.2535659670829773,0.2831559181213379,0.5452713966369629,0.0,0.0,0.0,0.0,15622.0,10914.0,11296.0,15586.0,1.6299678087234497,-0.03715221956374981,0.10436978782558602,0.020196102287067547,-0.000842654553707689,0.001307139522396028,0.0
125,7,-9.71046210906934e-06,-1.758554390107747e-05,4.594246274791658e-05,0.00013788801152259111,0.001054487656801939,-0.00270324875600636,-0.004064055625349283,-0.1022513285279274,0.0029323718044906855,0.0001754031254677102,-0.0013740328140556812,0.0024953472893685102,0.0,0.0,0.0,0.0004326476773712784,0.0002145451435353607,-0.0,0.0,0.0,0.0,0.0009845125023275614,0.03134949877858162,0.00032127153826877475,15681.0,10830.0,11399.0,15511.0,0.5579183101654053,0.2535659670829773,0.2831559181213379,0.5452713966369629,0.0,0.0,0.0,0.0,15622.0,10914.0,11296.0,15586.0,1.6299678087234497,-0.03737004142293247,0.10406168174512787,0.02004705842072585,-0.000842654553707689,0.001307139522396028,0.0
130,5,-3.3456085475336295e-06,-2.6188201445620507e-05,4.995018389308825e-05,0.0008189375512301922,0.001454113982617855,-0.0015622259816154838,-0.004064055625349283,-0.1022513285279274,0.0029323718044906855,0.0001754031254677102,-0.0013740328140556812,0.0024953472893685102,0.0,0.0,0.0,-0.0013353629037737846,0.00011740562331397086,-0.0,0.0,0.0,0.0,0.0009845125023275614,0.03134949877858162,0.00032127153826877475,15681.0,10830.0,11399.0,15511.0,0.5579183101654053,0.2535659670829773,0.2831559181213379,0.5452713966369629,0.0,0.0,0.0,0.0,15622.0,10914.0,11296.0,15586.0,1.6368118524551392,-0.03794482626650489,0.10426236024938591,0.020098599402872567,-0.00046306205331347883,-0.0040514119900763035,0.0
135,5,-4.817915851162979e-06,-3.0268241971498355e-05,4.969881410943344e-05,0.00015089818043634295,0.001071250531822443,-0.0005947262397967279,-0.004062735941261053,-0.10240379720926285,0.0029425513930618763,0.0021769944578409195,0.008186765015125275,0.0008048411109484732,0.0,0.0,0.0,-0.0013353629037737846,0.00011740562331397086,-0.0,0.0,0.0,0.0,0.0013558934442698956,0.031105801463127136,0.0003519640595186502,15599.0,10793.0,11347.0,15522.0,0.5518105030059814,0.25168463587760925,0.2804053723812103,0.5460672974586487,0.0,0.0,0.0,0.0,15671.0,10832.0,11344.0,15559.0,1.6368118524551392,-0.038054376212471236,0.10441525671094912,0.020115553176237696,-0.00046306205331347883,-0.0040514119900763035,0.0
140,5,-6.954342552489834e-06,-3.256891432101838e-05,2.8088335966458544e-05,-0.00019601196981966496,0.0007045808015391231,0.0023553669452667236,-0.004062735941261053,-0.10240379720926285,0.0029425513930618763,0.0021769944578409195,0.008186765015125275,0.0008048411109484732,0.0,0.0,0.0,-0.0009318501688539982,-0.0001965983974514529,-0.0,0.0,0.0,0.0,0.0013558934442698956,0.031105801463127136,0.0003519640595186502,15599.0,10793.0,11347.0,15522.0,0.5518105030059814,0.25168463587760925,0.2804053723812103,0.5460672974586487,0.0,0.0,0.0,0.0,15671.0,10832.0,11344.0,15559.0,1.63368821144104,-0.03763412447906862,0.10445500751925783,0.02011650568551787,0.0007739285356365144,-0.002821783535182476,-0.0
145,5,3.4696136026468594e-06,-2.6387435354990885e-05,1.8059845388052054e-05,0.0011724699288606644,-0.0004599450039677322,0.002145565813407302,-0.004088356625288725,-0.10253501683473587,0.0029446289408951998,-0.000373560149455443,0.012076941318809986,-0.0012219521449878812,0.0,0.0,0.0,-0.0009318501688539982,-0.0001965983974514529,-0.0,0.0,0.0,0.0,0.0008746538078412414,0.03137156367301941,0.00032171254861168563,15641.0,10879.0,11293.0,15552.0,0.5549443960189819,0.25605934858322144,0.27751296758651733,0.5482951402664185,0.0,0.0,0.0,0.0,15584.0,10805.0,11294.0,15567.0,1.63368821144104,-0.03633713225307749,0.10509121336517897,0.01968594065432821,0.0007739285356365144,-0.002821783535182476,-0.0
150,5,1.932638042489998e-05,-1.1306132364552468e-05,-7.664017175557092e-06,0.00237179989926517,-0.0019937343895435333,0.003945089876651764,-0.004088356625288725,-0.10253501683473587,0.0029446289408951998,-0.000373560149455443,0.012076941318809986,-0.0012219521449878812,0.0,0.0,0.0,-0.0009318501688539982,-0.0001965983974514529,-0.0,0.0,0.0,0.0,0.0008746538078412414,0.03137156367301941,0.00032171254861168563,15641.0,10879.0,11293.0,15552.0,0.5549443960189819,0.25605934858322144,0.27751296758651733,0.5482951402664185,0.0,0.0,0.0,0.0,15584.0,10805.0,11294.0,15567.0,1.63368821144104,-0.03569583631795043,0.10555146383685635,0.019668941198991752,0.0007739285356365144,-0.002821783535182476,-0.0
156,5,1.861816599557642e-05,-1.3433799722406548e-05,2.4369865059270523e-05,0.0008637343998998404,-0.0005421736277639866,-0.002266029827296734,-0.004088356625288725,-0.10253501683473587,0.0029446289408951998,-0.000373560149455443,0.012076941318809986,-0.0012219521449878812,0.0,0.0,0.0,0.0024133888073265553,0.0022536430042237043,-0.0,0.0,0.0,0.0,0.0008746538078412414,0.03137156367301941,0.00032171254861168563,15641.0,10879.0,11293.0,15552.0,0.5549443960189819,0.25605934858322144,0.27751296758651733,0.5482951402664185,0.0,0.0,0.0,0.0,15584.0,10805.0,11294.0,15567.0,1.6573187112808228,-0.03649897774483421,0.10510150986189433,0.019965635863153103,-0.008999977260828018,0.007413804065436125,0.0
161,5,4.6134970034472644e-05,-7.05407583154738e-05,9.7195319540333e-05,0.0036475099623203278,0.006635965313762426,-0.009645466692745686,-0.0040828329510986805,-0.10270144045352936,0.002927606925368309,0.0043848128989338875,0.016841256991028786,-0.003378552384674549,0.0,0.0,0.0,0.0024133888073265553,0.0022536430042237043,-0.0,0.0,0.0,0.0,0.0009535601129755378,0.03130074217915535,0.00027823238633573055,15619.0,10869.0,11272.0,15553.0,0.5533109307289124,0.2555614411830902,0.27641335129737854,0.5484024882316589,0.0,0.0,0.0,0.0,15645.0,10875.0,11310.0,15538.0,1.6573187112808228,-0.03993144925899315,0.10156586729229107,0.019561538135029023,-0.008999977260828018,0.007413804065436125,0.0
166,5,-2.400605626462493e-05,-5.5844473536126316e-05,0.00014618282148148865,-0.006957918871194124,0.0008908321033231914,-0.009736686944961548,-0.0040828329510986805,-0.10270144045352936,0.002927606925368309,0.0043848128989338875,0.016841256991028786,-0.003378552384674549,0.0,0.0,0.0,-0.008004405535757542,0.0033940847497433424,-0.0,0.0,0.0,0.0,0.0009535601129755378,0.03130074217915535,0.00027823238633573055,15619.0,10869.0,11272.0,15553.0,0.5533109307289124,0.2555614411830902,0.27641335129737854,0.5484024882316589,0.0,0.0,0.0,0.0,15645.0,10875.0,11310.0,15538.0,1.7034838199615479,-0.04008735954433683,0.10526736906795021,0.019290922163083472,-0.013931498862802982,-0.025273608043789864,0.0
171,5,6.955290882615373e-05,-2.2043641365598887e-05,2.820924055413343e-05,0.008443908765912056,-0.0036997669376432896,0.01026215497404337,-0.004065739456564188,-0.10280343890190125,0.0027722835075110197,0.004521590657532215,0.00629380950704217,0.043266549706459045,0.0,0.0,0.0,-0.008004405535757542,0.0033940847497433424,-0.0,0.0,0.0,0.0,0.0009128177771344781,0.031255338340997696,-3.908893631887622e-05,15715.0,10732.0,11423.0,15441.0,0.5605037808418274,0.2486439049243927,0.28442826867103577,0.5401121973991394,0.0,0.0,0.0,0.0,15482.0,11088.0,11052.0,15693.0,1.7034838199615479,-0.03765972200335769,0.10524337782492774,0.020299085422909938,-0.013931498862802982,-0.025273608043789864,0.0
176,5,7.08733859937638e-05,-5.67310671613086e-05,7.454166916431859e-05,0.0035360201727598906,0.002682584337890148,-0.0014550298219546676,-0.004065739456564188,-0.10280343890190125,0.0027722835075110197,0.004521590657532215,0.00629380950704217,0.043266549706459045,0.0,0.0,0.0,0.00431482307612896,0.007734747603535652,-0.0,0.0,0.0,0.0,0.0009128177771344781,0.031255338340997696,-3.908893631887622e-05,15715.0,10732.0,11423.0,15441.0,0.5605037808418274,0.2486439049243927,0.28442826867103577,0.5401121973991394,0.0,0.0,0.0,0.0,15482.0,11088.0,11052.0,15693.0,1.7194842100143433,-0.03899403595032225,0.10345324316551971,0.019232025652289278,-0.03204703703522682,0.013752046041190624,-0.0
181,5,9.262556704925373e-05,-5.391405284171924e-05,0.0001189642571262084,0.004024670459330082,0.0007349919178523123,-0.005912722088396549,-0.004095037002116442,-0.10303039848804474,0.002488986123353243,-0.01613057777285576,0.045916568487882614,-0.2098415046930313,0.0,0.0,0.0,0.00431482307612896,0.007734747603535652,-0.0,0.0,0.0,0.0,0.0019248914904892445,0.03252153843641281,-0.0031772716902196407,14039.0,12909.0,8803.0,17288.0,0.44166865944862366,0.36953210830688477,0.16136711835861206,0.6847507357597351,0.0,0.0,0.0,0.0,16799.0,8975.0,12917.0,14516.0,1.7194842100143433,-0.039733235524989106,0.10200326813392745,0.019451808120318072,-0.03204703703522682,0.013752046041190624,-0.0
186,5,9.772093471838161e-05,-7.212237960629864e-06,1.5303761529139592e-06,0.002221312141045928,-0.005310220643877983,0.011726976372301579,-0.004095037002116442,-0.10303039848804474,0.002488986123353243,-0.01613057777285576,0.045916568487882614,-0.2098415046930313,0.0,0.0,0.0,-0.0009872827213257551,0.0038801247719675303,-0.0,0.0,0.0,0.0,0.0019248914904892445,0.03252153843641281,-0.0031772716902196407,14039.0,12909.0,8803.0,17288.0,0.44166865944862366,0.36953210830688477,0.16136711835861206,0.6847507357597351,0.0,0.0,0.0,0.0,16799.0,8975.0,12917.0,14516.0,1.6687344312667847,-0.036763351886683365,0.10536305415970051,0.020624234843983496,-0.015602116473019123,-0.0030537759885191917,0.0
191,5,9.080173913389444e-05,-5.101804345031269e-05,6.916293932590634e-05,5.82207394472789e-05,0.00313260848633945,-0.0034251168835908175,-0.0041748699732124805,-0.10314548015594482,0.003485637018457055,0.0029389350675046444,-0.010377997532486916,0.15032781660556793,0.0,0.0,0.0,-0.0009872827213257551,0.0038801247719675303,-0.0,0.0,0.0,0.0,-0.0009231659932993352,0.0319078229367733,0.006149998400360346,17637.0,8434.0,13635.0,13823.0,0.7140582799911499,0.14680765569210052,0.41518425941467285,0.42743366956710815,0.0,0.0,0.0,0.0,15547.0,11871.0,10573.0,16307.0,1.6687344312667847,-0.03841709812253163,0.10355698671657042,0.01934877276581248,-0.015602116473019123,-0.0030537759885191917,0.0
196,5,0.00010443932114867494,-2.4493043383699842e-05,3.630643186625093e-05,0.0016597984358668327,-0.0019299568375572562,0.002572734374552965,-0.0041748699732124805,-0.10314548015594482,0.003485637018457055,0.0029389350675046444,-0.010377997532486916,0.15032781660556793,0.0,0.0,0.0,-0.003913304302841425,0.00017973166541196406,-0.0,0.0,0.0,0.0,-0.0009231659932993352,0.0319078229367733,0.006149998400360346,17637.0,8434.0,13635.0,13823.0,0.7140582799911499,0.14680765569210052,0.41518425941467285,0.42743366956710815,0.0,0.0,0.0,0.0,15547.0,11871.0,10573.0,16307.0,1.658374309539795,-0.03789643790720487,0.10514909921503186,0.02000686599866577,-0.0007182171102613211,-0.012029088102281094,0.0
201,5,0.00011203120811842382,-2.2203643311513588e-05,2.1573108824668452e-05,0.0015749462181702256,-0.0010467107640579343,0.0027970923110842705,-0.004260574467480183,-0.10335903614759445,0.002747678430750966,-0.017614765092730522,0.047388866543769836,0.0082976333796978,0.0,0.0,0.0,-0.003913304302841425,0.00017973166541196406,-0.0,0.0,0.0,0.0,0.0028338409028947353,0.03482724353671074,-0.002574378624558449,15573.0,11435.0,10920.0,16568.0,0.5498960614204407,0.28508710861206055,0.25812286138534546,0.6263781189918518,0.0,0.0,0.0,0.0,15798.0,11197.0,10287.0,16911.0,1.658374309539795,-0.03729159497390699,0.10598948596353044,0.020438180566264112,-0.0007182171102613211,-0.012029088102281094,0.0
206,5,0.00014545068552251905,-2.932409552158788e-05,2.736178066697903e-05,0.004640315193682909,0.00043577002361416817,0.00042419618694111705,-0.004260574467480183,-0.10335903614759445,0.002747678430750966,-0.017614765092730522,0.047388866543769836,0.0082976333796978,0.0,0.0,0.0,0.0012459196150302887,0.0016444314969703555,-0.0,0.0,0.0,0.0,0.0028338409028947353,0.03482724353671074,-0.002574378624558449,15573.0,11435.0,10920.0,16568.0,0.5498960614204407,0.28508710861206055,0.25812286138534546,0.6263781189918518,0.0,0.0,0.0,0.0,15798.0,11197.0,10287.0,16911.0,1.6462141275405884,-0.03698431945977789,0.10662334555821182,0.019705628866278777,-0.006523091811686754,0.0038017600309103727,-0.0
211,5,0.00016165434499271214,-2.3208414859254844e-05,2.8589091016328894e-05,0.003800565144047141,-0.0005595738184638321,2.2401216483558528e-05,-0.004189172759652138,-0.10367479920387268,0.003199120983481407,0.01422063633799553,0.026908673346042633,-0.06616342067718506,0.0,0.0,0.0,0.0012459196150302887,0.0016444314969703555,-0.0,0.0,0.0,0.0,0.0007104530814103782,0.032689474523067474,0.0003272067115176469,15580.0,11304.0,10891.0,16020.0,0.5503653287887573,0.2781012952327728,0.25664839148521423,0.5836194157600403,0.0,0.0,0.0,0.0,16716.0,9395.0,12497.0,14880.0,1.6462141275405884,-0.03668041246176883,0.10657339009860776,0.020183974706528798,-0.006523091811686754,0.0038017600309103727,-0.0
216,5,0.00018267208361066878,-3.8133930502226576e-05,7.657982496311888e-05,0.004042355343699455,0.001567232422530651,-0.005749927833676338,-0.004189172759652138,-0.10367479920387268,0.003199120983481407,0.01422063633799553,0.026908673346042633,-0.06616342067718506,0.0,0.0,0.0,0.0006373469368554652,0.003769676899537444,-0.0,0.0,0.0,0.0,0.0007104530814103782,0.032689474523067474,0.0003272067115176469,15580.0,11304.0,10891.0,16020.0,0.5503653287887573,0.2781012952327728,0.25664839148521423,0.5836194157600403,0.0,0.0,0.0,0.0,16716.0,9395.0,12497.0,14880.0,1.6670442819595337,-0.038942672347421825,0.10500268780012215,0.020047031722152636,-0.015142655931413174,0.0019693891517817974,-0.0
221,5,0.0001936934859259054,-5.8410449128132313e-05,0.00012163501378381625,0.002939510392025113,0.003060075221583247,-0.007706593256443739,-0.0041176145896315575,-0.10409412533044815,0.0030601490288972855,0.011945013888180256,0.037916138768196106,0.07511253654956818,0.0,0.0,0.0,0.0006373469368554652,0.003769676899537444,-0.0,0.0,0.0,0.0,-0.00011154246021760628,0.03266318514943123,0.0022741553839296103,16537.0,9848.0,12184.0,14907.0,0.623916506767273,0.2063208818435669,0.3266713619232178,0.5014655590057373,0.0,0.0,0.0,0.0,15114.0,11951.0,10076.0,16384.0,1.6670442819595337,-0.03886842568552662,0.10529037607081633,0.01899559533588353,-0.015142655931413174,0.0019693891517817974,-0.0
227,5,0.0002429248415865004,-1.0336718332837336e-05,2.8522834327304736e-05,0.007083566393703222,-0.004544817842543125,0.008090823888778687,-0.0041176145896315575,-0.10409412533044815,0.0030601490288972855,0.011945013888180256,0.037916138768196106,0.07511253654956818,0.0,0.0,0.0,-0.0038082152605056763,0.003002031007781625,-0.0,0.0,0.0,0.0,-0.00011154246021760628,0.03266318514943123,0.0022741553839296103,16537.0,9848.0,12184.0,14907.0,0.623916506767273,0.2063208818435669,0.3266713619232178,0.5014655590057373,0.0,0.0,0.0,0.0,15114.0,11951.0,10076.0,16384.0,1.671415090560913,-0.035654309070349194,0.10777571374872315,0.02012596366276962,-0.012090593576431274,-0.011798110790550709,0.0
232,5,0.00023782413336448371,-4.277739208191633e-06,8.443885599263012e-05,0.0022213412448763847,-0.002545004477724433,-0.003473592922091484,-0.0041045621037483215,-0.10463038086891174,0.002868030918762088,-0.004495894070714712,0.04354950040578842,-0.023151855915784836,0.0,0.0,0.0,-0.0038082152605056763,0.003002031007781625,-0.0,0.0,0.0,0.0,0.0017675928538665175,0.03350270166993141,-0.0012179050827398896,15386.0,11181.0,10711.0,16116.0,0.5360197424888611,0.2716398537158966,0.24756953120231628,0.5909850001335144,0.0,0.0,0.0,0.0,16089.0,10526.0,11425.0,15643.0,1.671415090560913,-0.03570170525051135,0.10790867627824563,0.019998721285986544,-0.012090593576431274,-0.011798110790550709,0.0
237,5,0.00024021812714636326,-2.7992529794573784e-05,0.0001357809960609302,0.0011758154723793268,0.0018277729395776987,-0.007550493814051151,-0.0041045621037483215,-0.10463038086891174,0.002868030918762088,-0.004495894070714712,0.04354950040578842,-0.023151855915784836,0.0,0.0,0.0,0.0030890866182744503,0.0024067724589258432,-0.0,0.0,0.0,0.0,0.0017675928538665175,0.03350270166993141,-0.0012179050827398896,15386.0,11181.0,10711.0,16116.0,0.5360197424888611,0.2716398537158966,0.24756953120231628,0.5909850001335144,0.0,0.0,0.0,0.0,16089.0,10526.0,11425.0,15643.0,1.6624099016189575,-0.03611386611796293,0.10747062796628062,0.019762020242266434,-0.00964101031422615,0.009518653154373169,0.0
242,5,0.00023722789774183184,2.929042466348619e-06,0.0002566139155533165,0.0001114991246140562,-0.0029794794972985983,-0.017520148307085037,-0.0038364906795322895,-0.10504427552223206,0.003169511677697301,-0.000662689155433327,-0.006753262132406235,0.0032152752391994,0.0,0.0,0.0,0.0030890866182744503,0.0024067724589258432,-0.0,0.0,0.0,0.0,0.0013947454281151295,0.033873945474624634,0.001686590607278049,16146.0,10300.0,11753.0,15492.0,0.5933143496513367,0.22749638557434082,0.3023860454559326,0.5438475012779236,0.0,0.0,0.0,0.0,14957.0,12359.0,10088.0,16388.0,1.6624099016189575,-0.036761723095646036,0.10635860580686107,0.019965330608780384,-0.00964101031422615,0.009518653154373169,0.0
247,5,-1.994278818528983e-06,-0.00016493952716700733,0.0009973860578611493,-0.026436971500515938,0.018786106258630753,-0.08111312240362167,-0.0038364906795322895,-0.10504427552223206,0.003169511677697301,-0.000662689155433327,-0.006753262132406235,0.0032152752391994,0.0,0.0,0.0,0.00364387477748096,0.00043260364327579737,-0.0,0.0,0.0,0.0,0.0013947454281151295,0.033873945474624634,0.001686590607278049,16146.0,10300.0,11753.0,15492.0,0.5933143496513367,0.22749638557434082,0.3023860454559326,0.5438475012779236,0.0,0.0,0.0,0.0,14957.0,12359.0,10088.0,16388.0,1.6564029455184937,-0.016158723340032908,0.1067842686514304,0.016166613942440126,-0.0017266534268856049,0.011187582276761532,0.0
252,5,-2.9334372811717913e-05,-0.00015682651428505778,0.0011514895595610142,-0.01385559979826212,0.006540881469845772,-0.05093766748905182,-0.003478527534753084,-0.10344912856817245,0.0029899191576987505,0.042827777564525604,-0.31664276123046875,0.0738670602440834,0.0,0.0,0.0,0.00364387477748096,0.00043260364327579737,-0.0,0.0,0.0,0.0,0.0011521868873387575,0.01628943718969822,-0.0011665899073705077,16031.0,10893.0,12569.0,14618.0,0.5844393372535706,0.2567501366138458,0.3491157591342926,0.4811097979545593,0.0,0.0,0.0,0.0,15438.0,11724.0,12447.0,14727.0,1.6564029455184937,-0.015795753689322248,0.10321130198717243,0.01570700778572836,-0.0017266534268856049,0.011187582276761532,0.0
257,5,-2.9334372811717913e-05,-0.00015682651428505778,0.0011514895595610142,-0.01385559979826212,0.006540881469845772,-0.05093766748905182,-0.003478527534753084,-0.10344912856817245,0.0029899191576987505,0.042827777564525604,-0.31664276123046875,0.0738670602440834,0.0,0.0,0.0,-0.007694599684327841,-0.012148349545896053,-0.0,0.0,0.0,0.0,0.0011521868873387575,0.01628943718969822,-0.0011665899073705077,16031.0,10893.0,12569.0,14618.0,0.5844393372535706,0.2567501366138458,0.3491157591342926,0.4811097979545593,0.0,0.0,0.0,0.0,15438.0,11724.0,12447.0,14727.0,1.7804378271102905,-0.015795753689322248,0.10321130198717243,0.01570700778572836,0.052116163074970245,-0.02539297565817833,0.0
262,5,-0.00018498150166124105,-0.00012971980322618037,0.0015460706781595945,-0.011428291909396648,-0.003137499326840043,-0.03498435392975807,-0.0031657577492296696,-0.09969251602888107,0.0029108980670571327,0.061662670224905014,-0.650098443031311,-0.08855537325143814,0.0,0.0,0.0,-0.007694599684327841,-0.012148349545896053,-0.0,0.0,0.0,0.0,-0.0004945844411849976,0.00581004424020648,0.0013972866581752896,14057.0,13058.0,11911.0,15298.0,0.44292405247688293,0.3787316381931305,0.3111731708049774,0.5295810699462891,0.0,0.0,0.0,0.0,14209.0,12973.0,12654.0,14626.0,1.7804378271102905,-0.015034681769019082,0.09431241070922201,0.016059960195214756,0.052116163074970245,-0.02539297565817833,0.0
267,5,-0.00032772572012618184,-0.0001287750928895548,0.0017644675681367517,-0.021700622513890266,-0.0013683645520359278,-0.040201373398303986,-0.0031657577492296696,-0.09969251602888107,0.0029108980670571327,0.061662670224905014,-0.650098443031311,-0.08855537325143814,0.0,0.0,0.0,0.00341239757835865,-0.01042200718075037,-0.0,0.0,0.0,0.0,-0.0004945844411849976,0.00581004424020648,0.0013972866581752896,14057.0,13058.0,11911.0,15298.0,0.44292405247688293,0.3787316381931305,0.3111731708049774,0.5295810699462891,0.0,0.0,0.0,0.0,14209.0,12973.0,12654.0,14626.0,1.7469455003738403,-0.014148735954299076,0.08904137863784142,0.015529744580314073,0.0438704639673233,0.011049585416913033,0.0
272,5,-0.0004946531844325364,-0.00010993820615112782,0.001973366132006049,-0.02871154621243477,-0.0028077734168618917,-0.04114837571978569,-0.0031657577492296696,-0.09969251602888107,0.0029108980670571327,0.061662670224905014,-0.650098443031311,-0.08855537325143814,0.0,0.0,0.0,0.00341239757835865,-0.01042200718075037,-0.0,0.0,0.0,0.0,-0.0004945844411849976,0.00581004424020648,0.0013972866581752896,14057.0,13058.0,11911.0,15298.0,0.44292405247688293,0.3787316381931305,0.3111731708049774,0.5295810699462891,0.0,0.0,0.0,0.0,14209.0,12973.0,12654.0,14626.0,1.7469455003738403,-0.013140339512261533,0.08220938390572116,0.015606388643057086,0.0438704639673233,0.011049585416913033,0.0
277,5,-0.0007017595926299691,-0.00010953549644909799,0.0022666959557682276,-0.036337386816740036,-0.0011714344145730138,-0.05165893957018852,-0.0019139425130560994,-0.09025654941797256,0.002952677896246314,0.15209811925888062,-1.0024183988571167,0.06454802304506302,0.0,0.0,0.0,0.0027931148651987314,-0.02390722930431366,-0.0,0.0,0.0,0.0,-0.005459155421704054,-0.009925181046128273,-0.0008825961267575622,13385.0,15427.0,14148.0,13290.0,0.3991437256336212,0.5390737652778625,0.44902780652046204,0.39319249987602234,0.0,0.0,0.0,0.0,13981.0,13498.0,13829.0,13149.0,1.9163824319839478,-0.01351192062414231,0.07333566173330781,0.015362368621602389,0.11038759350776672,0.009921526536345482,0.0
283,5,-0.0008552360231988132,-6.803575524827465e-05,0.002339078113436699,-0.03295212984085083,-0.005448542069643736,-0.02934941090643406,-0.0019139425130560994,-0.09025654941797256,0.002952677896246314,0.15209811925888062,-1.0024183988571167,0.06454802304506302,0.0,0.0,0.0,0.0027931148651987314,-0.02390722930431366,-0.0,0.0,0.0,0.0,-0.005459155421704054,-0.009925181046128273,-0.0008825961267575622,13385.0,15427.0,14148.0,13290.0,0.3991437256336212,0.5390737652778625,0.44902780652046204,0.39319249987602234,0.0,0.0,0.0,0.0,13981.0,13498.0,13829.0,13149.0,1.9163824319839478,-0.012246679935566628,0.06620651102091944,0.01597612363445161,0.11038759350776672,0.009921526536345482,0.0
288,5,-0.0009936676360666752,-3.537233351380564e-05,0.002437625778838992,-0.02979264035820961,-0.006099028047174215,-0.02356550469994545,-0.00032031687442213297,-0.08140453696250916,0.002787479665130377,0.21571865677833557,-1.3210604190826416,-0.052384864538908005,0.0,0.0,0.0,0.00550873251631856,-0.027107825502753258,-0.0,0.0,0.0,0.0,-0.003339415183290839,-0.019731810316443443,0.0019478409085422754,13502.0,14887.0,15872.0,11111.0,0.40659448504447937,0.5000232458114624,0.572335958480835,0.2679918110370636,0.0,0.0,0.0,0.0,13735.0,15178.0,15032.0,12199.0,1.9640769958496094,-0.011438267290595881,0.057673455483169045,0.015527565209234337,0.12827597558498383,0.020054634660482407,0.0
293,5,-0.0011343385558575392,1.0370094969402999e-05,0.0025517605245113373,-0.028797568753361702,-0.007928702980279922,-0.02312236651778221,-0.00032031687442213297,-0.08140453696250916,0.002787479665130377,0.21571865677833557,-1.3210604190826416,-0.052384864538908005,0.0,0.0,0.0,0.00550873251631856,-0.027107825502753258,-0.0,0.0,0.0,0.0,-0.003339415183290839,-0.019731810316443443,0.0019478409085422754,13502.0,14887.0,15872.0,11111.0,0.40659448504447937,0.5000232458114624,0.572335958480835,0.2679918110370636,0.0,0.0,0.0,0.0,13735.0,15178.0,15032.0,12199.0,1.9640769958496094,-0.011091004658374185,0.050046536956477955,0.015438936016888633,0.12827597558498383,0.020054634660482407,0.0
298,5,-0.0012812744826078415,4.7014938900247216e-05,0.002606024267151952,-0.02915133163332939,-0.007568862289190292,-0.015760598704218864,0.002472315449267626,-0.06418238580226898,0.003164806170389056,0.24663972854614258,-1.5598151683807373,0.06609997153282166,0.0,0.0,0.0,0.008306682109832764,-0.024508392438292503,-0.0,0.0,0.0,0.0,-0.0035975631326436996,-0.02855444885790348,-0.001471062540076673,12316.0,16917.0,15730.0,12853.0,0.33424192667007446,0.6543914675712585,0.5616014003753662,0.36614763736724854,0.0,0.0,0.0,0.0,12364.0,15827.0,15171.0,12077.0,1.9346058368682861,-0.011156808662105614,0.042541247104470103,0.015988691459369726,0.11423540860414505,0.029786506667733192,0.0
303,5,-0.0013868707465007901,8.425994747085497e-05,0.0026438769418746233,-0.024332093074917793,-0.007496946025639772,-0.01084653940051794,0.002472315449267626,-0.06418238580226898,0.003164806170389056,0.24663972854614258,-1.5598151683807373,0.06609997153282166,0.0,0.0,0.0,0.008306682109832764,-0.024508392438292503,-0.0,0.0,0.0,0.0,-0.0035975631326436996,-0.02855444885790348,-0.001471062540076673,12316.0,16917.0,15730.0,12853.0,0.33424192667007446,0.6543914675712585,0.5616014003753662,0.36614763736724854,0.0,0.0,0.0,0.0,12364.0,15827.0,15171.0,12077.0,1.9346058368682861,-0.012158215246251429,0.03630428834908961,0.01614592890018758,0.11423540860414505,0.029786506667733192,0.0
308,5,-0.0015728416619822383,9.853238589130342e-05,0.002857756335288286,-0.03204934298992157,-0.004711471032351255,-0.030004149302840233,0.0043477159924805164,-0.0518772266805172,0.002756604226306081,0.19532984495162964,-1.4922064542770386,-0.043660786002874374,0.0,0.0,0.0,0.008129168301820755,-0.021641839295625687,-0.0,0.0,0.0,0.0,-0.0015495563857257366,-0.026562923565506935,0.0012695506447926164,13388.0,16162.0,16643.0,12377.0,0.3993586003780365,0.5945775508880615,0.6323446035385132,0.33779624104499817,0.0,0.0,0.0,0.0,13036.0,16320.0,16328.0,12151.0,1.8963857889175415,-0.01399101150576634,0.030589725280437075,0.015439908185606418,0.09888365864753723,0.028574107214808464,0.0
313,5,-0.0015262794913724065,0.0001971356978174299,0.002660177182406187,-0.007232283242046833,-0.013716986402869225,0.011707847006618977,0.0043477159924805164,-0.0518772266805172,0.002756604226306081,0.19532984495162964,-1.4922064542770386,-0.043660786002874374,0.0,0.0,0.0,0.008129168301820755,-0.021641839295625687,-0.0,0.0,0.0,0.0,-0.0015495563857257366,-0.026562923565506935,0.0012695506447926164,13388.0,16162.0,16643.0,12377.0,0.3993586003780365,0.5945775508880615,0.6323446035385132,0.33779624104499817,0.0,0.0,0.0,0.0,13036.0,16320.0,16328.0,12151.0,1.8963857889175415,-0.012256015626947886,0.029313831259610058,0.016144021590131504,0.09888365864753723,0.028574107214808464,0.0
318,5,-0.0015199861954897642,0.0002548028714954853,0.0025872508995234966,-0.0021377080120146275,-0.012406855821609497,0.013434267602860928,0.006365499924868345,-0.027969587594270706,0.0026126697193831205,0.012293552979826927,-0.6509599685668945,0.01957792043685913,0.0,0.0,0.0,0.01578916609287262,-0.008217204362154007,-0.0,0.0,0.0,0.0,-0.0003559050092007965,-0.018352963030338287,-0.00014707008085679263,13594.0,15582.0,15757.0,13522.0,0.4125087559223175,0.5505319237709045,0.5636757016181946,0.4078894555568695,0.0,0.0,0.0,0.0,12968.0,16422.0,15983.0,13323.0,1.79471755027771,-0.012441252457572596,0.028046233380027756,0.016274398530262097,0.035531461238861084,0.052520766854286194,-0.0
323,5,-0.0015813176287338138,0.0002813450410030782,0.0025826164055615664,-0.008214856497943401,-0.008147801272571087,0.0059298621490597725,0.006365499924868345,-0.027969587594270706,0.0026126697193831205,0.012293552979826927,-0.6509599685668945,0.01957792043685913,0.0,0.0,0.0,0.01578916609287262,-0.008217204362154007,-0.0,0.0,0.0,0.0,-0.0003559050092007965,-0.018352963030338287,-0.00014707008085679263,13594.0,15582.0,15757.0,13522.0,0.4125087559223175,0.5505319237709045,0.5636757016181946,0.4078894555568695,0.0,0.0,0.0,0.0,12968.0,16422.0,15983.0,13323.0,1.79471755027771,-0.01297140227826167,0.02889964186442691,0.016049339231452662,0.035531461238861084,0.052520766854286194,-0.0
328,5,-0.0014896697830408812,0.00037162259104661644,0.0024707545526325703,0.007711795624345541,-0.014092426747083664,0.015795376151800156,0.006365499924868345,-0.027969587594270706,0.0026126697193831205,0.012293552979826927,-0.6509599685668945,0.01957792043685913,0.0,0.0,0.0,0.009829359129071236,-0.009310007095336914,-0.0,0.0,0.0,0.0,0.0006679718499071896,-0.003953563515096903,0.0007692000363022089,14412.0,14551.0,14748.0,14352.0,0.4668862819671631,0.47647625207901,0.4902283549308777,0.4627948999404907,0.0,0.0,0.0,0.0,14516.0,14724.0,15985.0,13257.0,1.7619361877441406,-0.011688045393251396,0.030046065770646155,0.016604001366961288,0.03952435776591301,0.032100457698106766,-0.0
333,5,-0.0014733015559613705,0.00042440692777745426,0.002447637962177396,0.005048912484198809,-0.011971092782914639,0.009092126041650772,0.006365499924868345,-0.027969587594270706,0.0026126697193831205,0.012293552979826927,-0.6509599685668945,0.01957792043685913,0.0,0.0,0.0,0.009829359129071236,-0.009310007095336914,-0.0,0.0,0.0,0.0,0.0006679718499071896,-0.003953563515096903,0.0007692000363022089,14412.0,14551.0,14748.0,14352.0,0.4668862819671631,0.47647625207901,0.4902283549308777,0.4627948999404907,0.0,0.0,0.0,0.0,14516.0,14724.0,15985.0,13257.0,1.7619361877441406,-0.01229715807496618,0.031455011529011694,0.01772834934386377,0.03952435776591301,0.032100457698106766,-0.0
338,5,-0.0014651055680587888,0.00045027234591543674,0.00239104893989861,0.003003074787557125,-0.007892287336289883,0.010427548550069332,0.006535882130265236,-0.024280287325382233,0.0029644693713635206,0.05359344929456711,0.29231327772140503,0.037652477622032166,0.0,0.0,0.0,0.01451469399034977,0.002554310020059347,-0.0,0.0,0.0,0.0,-0.00022138230269774795,0.007399818394333124,0.0010258634574711323,15211.0,12691.0,13907.0,14632.0,0.5232920050621033,0.3563845753669739,0.43291550874710083,0.482125461101532,0.0,0.0,0.0,0.0,14710.0,14277.0,14372.0,14702.0,1.7554707527160645,-0.011591364162227344,0.03427476402413249,0.017983243172062995,-0.010803709737956524,0.04722612723708153,-0.0
343,5,-0.0015329124871641397,0.0004394053539726883,0.0024504668544977903,-0.006935591343790293,-0.001852873945608735,-0.0029591431375592947,0.006535882130265236,-0.024280287325382233,0.0029644693713635206,0.05359344929456711,0.29231327772140503,0.037652477622032166,0.0,0.0,0.0,0.01451469399034977,0.002554310020059347,-0.0,0.0,0.0,0.0,-0.00022138230269774795,0.007399818394333124,0.0010258634574711323,15211.0,12691.0,13907.0,14632.0,0.5232920050621033,0.3563845753669739,0.43291550874710083,0.482125461101532,0.0,0.0,0.0,0.0,14710.0,14277.0,14372.0,14702.0,1.7554707527160645,-0.012783595199392962,0.03597624821156585,0.01858149327080287,-0.010803709737956524,0.04722612723708153,-0.0
348,5,-0.0014835360925644636,0.00044555868953466415,0.0022773139644414186,0.0031509201508015394,-0.0014795497991144657,0.01959468051791191,0.007209128234535456,-0.028353838250041008,0.0030433961655944586,0.08926896750926971,0.336500883102417,-0.03316964954137802,0.0,0.0,0.0,0.0029350747354328632,-0.00830897968262434,-0.0,0.0,0.0,0.0,0.0011681710602715611,0.01484664622694254,-0.0002075804804917425,14893.0,13176.0,12783.0,15075.0,0.500493586063385,0.38602375984191895,0.3619212508201599,0.5134975910186768,0.0,0.0,0.0,0.0,15290.0,12625.0,13670.0,14827.0,1.7217347621917725,-0.009405827514721849,0.03962792645646602,0.018880208054640236,0.03447140380740166,0.009366834536194801,0.0
353,5,-0.001467509544454515,0.0004513984895311296,0.0022026842925697565,0.0031835599802434444,-0.0012925970368087292,0.016793429851531982,0.007209128234535456,-0.028353838250041008,0.0030433961655944586,0.08926896750926971,0.336500883102417,-0.03316964954137802,0.0,0.0,0.0,0.0029350747354328632,-0.00830897968262434,-0.0,0.0,0.0,0.0,0.0011681710602715611,0.01484664622694254,-0.0002075804804917425,14893.0,13176.0,12783.0,15075.0,0.500493586063385,0.38602375984191895,0.3619212508201599,0.5134975910186768,0.0,0.0,0.0,0.0,15290.0,12625.0,13670.0,14827.0,1.7217347621917725,-0.007920683618368056,0.039769250994667604,0.019723432643798004,0.03447140380740166,0.009366834536194801,0.0
359,5,-0.0014733228599652648,0.000437292386777699,0.002135368762537837,0.0005758252227678895,0.0011756924213841558,0.014795232564210892,0.007893532514572144,-0.030558669939637184,0.002884909277781844,0.12123249471187592,0.13810160756111145,0.020205356180667877,0.0,0.0,0.0,0.0024004443548619747,0.0009643729426898062,-0.0,0.0,0.0,0.0,-0.0012764348648488522,0.011620084755122662,0.0004029521078336984,15056.0,13078.0,13433.0,14423.0,0.5120872259140015,0.3799590766429901,0.40221312642097473,0.4676767885684967,0.0,0.0,0.0,0.0,14814.0,13300.0,12730.0,15090.0,1.648171067237854,-0.007340669390025258,0.03887180933775074,0.020190186484450243,-0.0038299921434372663,0.007333338260650635,-0.0
364,5,-0.0015507502248510718,0.00042382325045764446,0.0021077971905469894,-0.009060956537723541,0.002086574910208583,0.009226701222360134,0.007893532514572144,-0.030558669939637184,0.002884909277781844,0.12123249471187592,0.13810160756111145,0.020205356180667877,0.0,0.0,0.0,0.0024004443548619747,0.0009643729426898062,-0.0,0.0,0.0,0.0,-0.0012764348648488522,0.011620084755122662,0.0004029521078336984,15056.0,13078.0,13433.0,14423.0,0.5120872259140015,0.3799590766429901,0.40221312642097473,0.4676767885684967,0.0,0.0,0.0,0.0,14814.0,13300.0,12730.0,15090.0,1.648171067237854,-0.004078671333335293,0.038510821208953515,0.020936198090826776,-0.0038299921434372663,0.007333338260650635,-0.0
369,5,-0.0016315360553562641,0.0004297583072911948,0.002058394020423293,-0.013318675570189953,0.000122423967695795,0.009619048796594143,0.009325253777205944,-0.030911507084965706,0.003373873420059681,0.13410399854183197,-0.14430327713489532,0.042199235409498215,0.0,0.0,0.0,-0.0017010769806802273,-0.010144191794097424,-0.0,0.0,0.0,0.0,-0.0003578216128516942,0.008673964068293571,0.0014399790670722723,15063.0,12908.0,13987.0,13940.0,0.5126293301582336,0.36949923634529114,0.43825289607048035,0.4350893199443817,0.0,0.0,0.0,0.0,15283.0,12595.0,13673.0,14291.0,1.7407655715942383,-0.0007355066784741757,0.03889980707200822,0.021286649199336444,0.04255019500851631,-0.005488737020641565,-0.0
374,5,-0.001693203579634428,0.00043664072290994227,0.001919447910040617,-0.012727574445307255,-0.0007769223302602768,0.02052116021513939,0.009325253777205944,-0.030911507084965706,0.003373873420059681,0.13410399854183197,-0.14430327713489532,0.042199235409498215,0.0,0.0,0.0,-0.0017010769806802273,-0.010144191794097424,-0.0,0.0,0.0,0.0,-0.0003578216128516942,0.008673964068293571,0.0014399790670722723,15063.0,12908.0,13987.0,13940.0,0.5126293301582336,0.36949923634529114,0.43825289607048035,0.4350893199443817,0.0,0.0,0.0,0.0,15283.0,12595.0,13673.0,14291.0,1.7407655715942383,0.003984040549355296,0.038943714962524696,0.02250023511817337,0.04255019500851631,-0.005488737020641565,-0.0
379,5,-0.0017839183565229177,0.0004228019097354263,0.0018340282840654254,-0.015976808965206146,0.001349888276308775,0.01845882274210453,0.010458601638674736,-0.02878686785697937,0.0034139049239456654,0.161749929189682,-0.46590760350227356,0.014049001038074493,0.0,0.0,0.0,0.00161399703938514,-0.013319934718310833,-0.0,0.0,0.0,0.0,-0.004617065656930208,-0.003415000392124057,0.00029519901727326214,14036.0,14304.0,14014.0,13090.0,0.4414904713630676,0.45951950550079346,0.4400513172149658,0.38067346811294556,0.0,0.0,0.0,0.0,14054.0,14659.0,14312.0,12651.0,1.7787508964538574,0.005889156120143081,0.036756868667215566,0.022639596916791717,0.0570894330739975,0.0053214021027088165,-0.0
384,5,-0.0019137695198878646,0.0003784869913943112,0.001817266340367496,-0.02197285369038582,0.005857746582478285,0.009394951164722443,0.010458601638674736,-0.02878686785697937,0.0034139049239456654,0.161749929189682,-0.46590760350227356,0.014049001038074493,0.0,0.0,0.0,0.00161399703938514,-0.013319934718310833,-0.0,0.0,0.0,0.0,-0.004617065656930208,-0.003415000392124057,0.00029519901727326214,14036.0,14304.0,14014.0,13090.0,0.4414904713630676,0.45951950550079346,0.4400513172149658,0.38067346811294556,0.0,0.0,0.0,0.0,14054.0,14659.0,14312.0,12651.0,1.7787508964538574,0.00784038747708252,0.03366406625178178,0.023261232047605874,0.0570894330739975,0.0053214021027088165,-0.0
389,5,-0.002052831929177046,0.000333852251060307,0.0018612814601510763,-0.02547663263976574,0.007699267007410526,-0.0015238322084769607,0.010458601638674736,-0.02878686785697937,0.0034139049239456654,0.161749929189682,-0.46590760350227356,0.014049001038074493,0.0,0.0,0.0,-0.005715155974030495,-0.02056599035859108,-0.0,0.0,0.0,0.0,-0.004617065656930208,-0.003415000392124057,0.00029519901727326214,14036.0,14304.0,14014.0,13090.0,0.4414904713630676,0.45951950550079346,0.4400513172149658,0.38067346811294556,0.0,0.0,0.0,0.0,14054.0,14659.0,14312.0,12651.0,1.8763819932937622,0.008879554487254696,0.03048696873603473,0.02309787682643148,0.09297904372215271,-0.019877126440405846,-0.0
394,5,-0.0022354391403496265,0.0002780681534204632,0.0019475625595077872,-0.032103512436151505,0.00977380108088255,-0.01096326019614935,0.012433244846761227,-0.02248912677168846,0.003566659986972809,0.13114459812641144,-0.5964810252189636,0.009417240507900715,0.0,0.0,0.0,-0.005715155974030495,-0.02056599035859108,-0.0,0.0,0.0,0.0,-0.006461602170020342,-0.010116213001310825,0.0008245871867984533,13828.0,14857.0,14463.0,12494.0,0.4277617633342743,0.49793341755867004,0.4704180657863617,0.34465232491493225,0.0,0.0,0.0,0.0,13472.0,15227.0,14525.0,12995.0,1.8763819932937622,0.007360431870417908,0.028206111762805963,0.022538043716617693,0.09297904372215271,-0.019877126440405846,-0.0
399,5,-0.002400779165327549,0.0002851636381819844,0.0021221847273409367,-0.032682228833436966,0.0030580596067011356,-0.025339968502521515,0.012433244846761227,-0.02248912677168846,0.003566659986972809,0.13114459812641144,-0.5964810252189636,0.009417240507900715,0.0,0.0,0.0,-0.005715155974030495,-0.02056599035859108,-0.0,0.0,0.0,0.0,-0.00317638972774148,-0.011612361297011375,-0.0005221404135227203,13316.0,15146.0,14490.0,13289.0,0.39477792382240295,0.5185673236846924,0.47230055928230286,0.3931051194667816,0.0,0.0,0.0,0.0,14203.0,15188.0,15359.0,12883.0,1.8763819932937622,0.0076962266886763065,0.024778120118518727,0.022610356773839362,0.09297904372215271,-0.019877126440405846,-0.0
404,5,-0.0024559046141803265,0.000317695114063099,0.0020707270596176386,-0.01968793384730816,-0.0026805505622178316,-0.003961063455790281,0.013005207292735577,-0.018025672063231468,0.00330067565664649,-0.04754677414894104,-0.5065900087356567,-0.012994274497032166,0.0,0.0,0.0,-0.0026951211038976908,-0.028474481776356697,-0.0,0.0,0.0,0.0,-0.00317638972774148,-0.011612361297011375,-0.0005221404135227203,13316.0,15146.0,14490.0,13289.0,0.39477792382240295,0.5185673236846924,0.47230055928230286,0.3931051194667816,0.0,0.0,0.0,0.0,14203.0,15188.0,15359.0,12883.0,1.979866623878479,0.01005851650097333,0.024615944109478653,0.0230249769621442,0.13582615554332733,-0.009890581481158733,0.0
409,5,-0.002552909543737769,0.00031892649712972343,0.0021162298507988453,-0.01951577700674534,-0.0012199872871860862,-0.00704475212842226,0.013005207292735577,-0.018025672063231468,0.00330067565664649,-0.04754677414894104,-0.5065900087356567,-0.012994274497032166,0.0,0.0,0.0,-0.0026951211038976908,-0.028474481776356697,-0.0,0.0,0.0,0.0,-0.00317638972774148,-0.011612361297011375,-0.0005221404135227203,13316.0,15146.0,14490.0,13289.0,0.39477792382240295,0.5185673236846924,0.47230055928230286,0.3931051194667816,0.0,0.0,0.0,0.0,14203.0,15188.0,15359.0,12883.0,1.979866623878479,0.00896842618611139,0.02345243984077719,0.023257786780537252,0.13582615554332733,-0.009890581481158733,0.0
414,5,-0.002651659771800041,0.00031035422580316663,0.0022187791764736176,-0.019656332209706306,0.0005406777490861714,-0.015123814344406128,0.012040916830301285,-0.012754241935908794,0.0033456559758633375,-0.12304925173521042,-0.3695164918899536,-0.02365686744451523,0.0,0.0,0.0,0.0018415612867102027,-0.019510064274072647,-0.0,0.0,0.0,0.0,-0.0033446045126765966,-0.011820165440440178,0.0006496594869531691,13882.0,15356.0,15040.0,13403.0,0.43129485845565796,0.5338827967643738,0.5109256505966187,0.40027862787246704,0.0,0.0,0.0,0.0,13586.0,15625.0,14528.0,13949.0,1.8570349216461182,0.0064686788229388155,0.022937883182798203,0.02246519601348407,0.08729761093854904,0.006338906474411488,0.0
419,5,-0.002736783353611827,0.0003224637475796044,0.002335140947252512,-0.018077349290251732,-0.0012368711177259684,-0.020012961700558662,0.012040916830301285,-0.012754241935908794,0.0033456559758633375,-0.12304925173521042,-0.3695164918899536,-0.02365686744451523,0.0,0.0,0.0,0.0018415612867102027,-0.019510064274072647,-0.0,0.0,0.0,0.0,-0.0033446045126765966,-0.011820165440440178,0.0006496594869531691,13882.0,15356.0,15040.0,13403.0,0.43129485845565796,0.5338827967643738,0.5109256505966187,0.40027862787246704,0.0,0.0,0.0,0.0,13586.0,15625.0,14528.0,13949.0,1.8570349216461182,0.005081245774265162,0.021023654497704627,0.022341414365261204,0.08729761093854904,0.006338906474411488,0.0
425,5,-0.00273663317784667,0.0003897800634149462,0.0021835651714354753,-0.007212940603494644,-0.008572708815336227,0.010183915495872498,0.011203647591173649,-0.0105216596275568,0.0030180979520082474,-0.09382076561450958,-0.14035065472126007,-0.011554965749382973,0.0,0.0,0.0,0.001877250848338008,-0.018644986674189568,-0.0,0.0,0.0,0.0,-0.0031734900549054146,-0.007258914411067963,-0.00013165862765163183,14153.0,15125.0,14635.0,13827.0,0.44935381412506104,0.5170379281044006,0.4823305010795593,0.4276597499847412,0.0,0.0,0.0,0.0,14529.0,14797.0,14684.0,13739.0,1.8458409309387207,0.007393626045282972,0.02364686227017873,0.023193321259926337,0.08292439579963684,0.006422804202884436,0.0
430,5,-0.002772178500890732,0.0004088784917257726,0.002157858805730939,-0.007150600664317608,-0.005720894783735275,0.007158346939831972,0.011203647591173649,-0.0105216596275568,0.0030180979520082474,-0.09382076561450958,-0.14035065472126007,-0.011554965749382973,0.0,0.0,0.0,0.001877250848338008,-0.018644986674189568,-0.0,0.0,0.0,0.0,-0.0031734900549054146,-0.007258914411067963,-0.00013165862765163183,14153.0,15125.0,14635.0,13827.0,0.44935381412506104,0.5170379281044006,0.4823305010795593,0.4276597499847412,0.0,0.0,0.0,0.0,14529.0,14797.0,14684.0,13739.0,1.8458409309387207,0.0077061217358203125,0.024102993921957288,0.022723908758247157,0.08292439579963684,0.006422804202884436,0.0
435,5,-0.0028294469229876995,0.0004327711649239063,0.0021126356441527605,-0.009732463397085667,-0.00515547813847661,0.008290103636682034,0.010336973704397678,-0.009737069718539715,0.0027553944382816553,-0.08253242075443268,0.04299815744161606,-0.05721867084503174,0.0,0.0,0.0,0.007289315573871136,-0.009967183694243431,-0.0,0.0,0.0,0.0,-0.002541857771575451,-0.004640116356313229,-0.0006906112539581954,14310.0,15586.0,14592.0,14742.0,0.459933340549469,0.550805389881134,0.479300320148468,0.4898276627063751,0.0,0.0,0.0,0.0,14439.0,15464.0,14582.0,14754.0,1.7552039623260498,0.006473493411102601,0.02425091618940083,0.023142046192424045,0.042153459042310715,0.02371460571885109,-0.0
440,5,-0.002873250748962164,0.0004453760338947177,0.0020865960977971554,-0.009149445220828056,-0.003574773669242859,0.006440801080316305,0.010336973704397678,-0.009737069718539715,0.0027553944382816553,-0.08253242075443268,0.04299815744161606,-0.05721867084503174,0.0,0.0,0.0,0.007289315573871136,-0.009967183694243431,-0.0,0.0,0.0,0.0,-0.002541857771575451,-0.004640116356313229,-0.0006906112539581954,14310.0,15586.0,14592.0,14742.0,0.459933340549469,0.550805389881134,0.479300320148468,0.4898276627063751,0.0,0.0,0.0,0.0,14439.0,15464.0,14582.0,14754.0,1.7552039623260498,0.005975842607237903,0.02437533187355225,0.02249594534176683,0.042153459042310715,0.02371460571885109,-0.0
445,5,-0.002967247273772955,0.0004373204428702593,0.002098962664604187,-0.014939344488084316,-0.0004632381605915725,0.0010923132067546248,0.009678246453404427,-0.010317875072360039,0.0026054021436721087,-0.10617893934249878,0.0972471609711647,0.01605108194053173,0.0,0.0,0.0,0.004846515599638224,-0.011797348037362099,-0.0,0.0,0.0,0.0,-0.00013744943134952337,0.0011570279020816088,-0.0009186791139654815,14645.0,14166.0,14579.0,14094.0,0.48300787806510925,0.4502033293247223,0.4784412682056427,0.4453824460506439,0.0,0.0,0.0,0.0,14583.0,14207.0,14458.0,14241.0,1.7664974927902222,0.0032308493347715616,0.02543693860111221,0.021490613987127673,0.05021508038043976,0.01586894690990448,-0.0
450,5,-0.0029827249236404896,0.00042585175833664834,0.0020254545379430056,-0.007833057083189487,0.0011909445747733116,0.00925790797919035,0.009678246453404427,-0.010317875072360039,0.0026054021436721087,-0.10617893934249878,0.0972471609711647,0.01605108194053173,0.0,0.0,0.0,0.004846515599638224,-0.011797348037362099,-0.0,0.0,0.0,0.0,-0.00013744943134952337,0.0011570279020816088,-0.0009186791139654815,14645.0,14166.0,14579.0,14094.0,0.48300787806510925,0.4502033293247223,0.4784412682056427,0.4453824460506439,0.0,0.0,0.0,0.0,14583.0,14207.0,14458.0,14241.0,1.7664974927902222,0.0002813526248611757,0.02450295188666708,0.021137117879139515,0.05021508038043976,0.01586894690990448,-0.0
455,5,-0.0030527657363563776,0.00042152966489084065,0.0021299084182828665,-0.011538124643266201,0.0009950310923159122,-0.008831288665533066,0.008367485366761684,-0.011686154641211033,0.0023803533986210823,-0.11553069949150085,0.1119612529873848,-0.04928445816040039,0.0,0.0,0.0,-0.0006504377233795822,-0.010890533216297626,-0.0,0.0,0.0,0.0,0.0014918565284460783,0.003067260142415762,0.0003295602509751916,14013.0,14639.0,13868.0,14787.0,0.4399420917034149,0.4825732409954071,0.43034693598747253,0.49297866225242615,0.0,0.0,0.0,0.0,14356.0,14298.0,14213.0,14460.0,1.748786449432373,-0.0022146845318668576,0.022190554328574513,0.020675879308420835,0.045891173183918,-0.002108390210196376,-0.0
460,5,-0.0031764765735715628,0.0004787253274116665,0.0022260108962655067,-0.019460557028651237,-0.006465466693043709,-0.015064835548400879,0.008367485366761684,-0.011686154641211033,0.0023803533986210823,-0.11553069949150085,0.1119612529873848,-0.04928445816040039,0.0,0.0,0.0,-0.0006504377233795822,-0.010890533216297626,-0.0,0.0,0.0,0.0,0.0014918565284460783,0.003067260142415762,0.0003295602509751916,14013.0,14639.0,13868.0,14787.0,0.4399420917034149,0.4825732409954071,0.43034693598747253,0.49297866225242615,0.0,0.0,0.0,0.0,14356.0,14298.0,14213.0,14460.0,1.748786449432373,-0.00021123402032252787,0.024201912812823898,0.020998632534161003,0.045891173183918,-0.002108390210196376,-0.0
465,5,-0.0032436309847980738,0.0005366010591387749,0.0022011706605553627,-0.015842746943235397,-0.009531278163194656,-0.0030450832564383745,0.007511542644351721,-0.012587395496666431,0.0023430418223142624,-0.08129610121250153,0.055259257555007935,-0.004930660128593445,0.0,0.0,0.0,0.00773948710411787,-0.02004983089864254,-0.0,0.0,0.0,0.0,-0.00029639751301147044,-0.000454572553280741,-0.000750492385122925,13620.0,14495.0,13728.0,14288.0,0.41419798135757446,0.4725978970527649,0.42123425006866455,0.45846736431121826,0.0,0.0,0.0,0.0,13969.0,13879.0,13858.0,14272.0,1.8748602867126465,0.0026830174901511937,0.02578824469627992,0.021719499355439487,0.09057105332612991,0.026895632967352867,0.0
470,5,-0.0032891426235437393,0.0005421921378001571,0.0021710593719035387,-0.011798495426774025,-0.004483436234295368,0.0023953188210725784,0.007511542644351721,-0.012587395496666431,0.0023430418223142624,-0.08129610121250153,0.055259257555007935,-0.004930660128593445,0.0,0.0,0.0,0.00773948710411787,-0.02004983089864254,-0.0,0.0,0.0,0.0,-0.00029639751301147044,-0.000454572553280741,-0.000750492385122925,13620.0,14495.0,13728.0,14288.0,0.41419798135757446,0.4725978970527649,0.42123425006866455,0.45846736431121826,0.0,0.0,0.0,0.0,13969.0,13879.0,13858.0,14272.0,1.8748602867126465,0.0033311647425930332,0.025115050056105495,0.021515377853878647,0.09057105332612991,0.026895632967352867,0.0
475,5,-0.003359522670507431,0.0005228797672316432,0.002186369150876999,-0.01316499337553978,0.0005241071339696646,-0.0008790652500465512,0.006911029573529959,-0.012544780038297176,0.0019861063919961452,0.004510382190346718,-0.0842689722776413,-0.04974229261279106,0.0,0.0,0.0,0.005938158370554447,-0.01440199464559555,-0.0,0.0,0.0,0.0,-0.0034218914806842804,-0.004548324272036552,-0.0009805943118408322,13473.0,14884.0,13717.0,13766.0,0.4047699570655823,0.4998437762260437,0.42052149772644043,0.42365121841430664,0.0,0.0,0.0,0.0,13551.0,14622.0,13790.0,14164.0,1.8001806735992432,0.00454976557289282,0.024085560788142227,0.02108710536682686,0.062469493597745895,0.019813982769846916,-0.0
