timestamp,dt,pos_x,pos_y,pos_z,vel_x,vel_y,vel_z,roll,pitch,yaw,agv_x,agv_y,agv_z,x_ref,y_ref,z_ref,roll_ref,pitch_ref,yaw_ref,x_vel_ref,y_vel_ref,z_vel_ref,x_torque,y_torque,z_torque,w0,w1,w2,w3,u0,u1,u2,u3,m0req,m1req,m2req,m3req,thrust0,thrust1,thrust2,thrust3,thrust_ref,roll_vicon,pitch_vicon,yaw_vicon,acc_x,acc_y,acc_z
5,5,0.0,0.0,0.0,-0.0012023934395983815,-0.00029676640406250954,-8.084038199740462e-06,-0.012684873305261135,-0.016889795660972595,0.00042374973418191075,-0.0008920904365368187,0.0015379599062725902,-0.00562647869810462,0.0,0.0,0.0,0.00036646428634412587,-0.0011421424569562078,-0.0,0.0,0.0,0.0,0.002610181923955679,0.0048609767109155655,-8.385302498936653e-05,1495.0,1495.0,1495.0,1495.0,0.0,0.0,0.0,0.0,0.0,0.0,0.0,0.0,1495.0,1495.0,1495.0,1495.0,1.6383466720581055,0.015081144263262071,-0.12726237766639578,-0.14479782625669696,0.004508975427597761,0.0011128740152344108,0.0
36,31,0.0,0.0,0.0,-0.0002916596713475883,0.0008683201740495861,-0.00013496782048605382,-0.012684873305261135,-0.016889795660972595,0.00042374973418191075,-0.0008920904365368187,0.0015379599062725902,-0.00562647869810462,0.0,0.0,0.0,0.00036646428634412587,-0.0011421424569562078,-0.0,0.0,0.0,0.0,0.002610181923955679,0.0048609767109155655,-8.385302498936653e-05,1495.0,1495.0,1495.0,1495.0,0.0,0.0,0.0,0.0,0.0,0.0,0.0,0.0,1495.0,1495.0,1495.0,1495.0,1.6383466720581055,0.014843762293127042,-0.12757521496506904,-0.14481246552895288,0.004508975427597761,0.0011128740152344108,0.0
41,5,0.0,0.0,0.0,-0.0008562230505049229,0.0003094729327131063,0.0006044289912097156,-0.01266280747950077,-0.016884101554751396,0.0004235894593875855,0.0014767935499548912,0.0007923172088339925,-0.002383118262514472,0.0,0.0,0.0,-0.00038293449324555695,-0.0008149771601893008,-0.0,0.0,0.0,0.0,0.0025956775061786175,0.004809376318007708,4.389930472825654e-05,1495.0,1495.0,1495.0,1495.0,0.0,0.0,0.0,0.0,0.0,0.0,0.0,0.0,1495.0,1495.0,1495.0,1495.0,1.635011911392212,0.01504961077132784,-0.1271129316242065,-0.1450527478413736,0.0032108365558087826,-0.0011605235049501061,0.0
47,6,0.0,0.0,0.0,-0.0008651826647110283,0.00048633990809321404,7.0579294515482616e-06,-0.01266280747950077,-0.016884101554751396,0.0004235894593875855,0.0014767935499548912,0.0007923172088339925,-0.002383118262514472,0.0,0.0,0.0,-0.00038293449324555695,-0.0008149771601893008,-0.0,0.0,0.0,0.0,0.0025956775061786175,0.004809376318007708,4.389930472825654e-05,1495.0,1495.0,1495.0,1495.0,0.0,0.0,0.0,0.0,0.0,0.0,0.0,0.0,1495.0,1495.0,1495.0,1495.0,1.635011911392212,0.01526901767560131,-0.12720767294159072,-0.1448356877235311,0.0032108365558087826,-0.0011605235049501061,0.0
52,5,0.0,0.0,0.0,-0.0007165466668084264,-0.001180558349005878,-0.00027323683025315404,-0.012685864232480526,-0.016877440735697746,0.0004164698766544461,0.00015557912411168218,-0.0016775957774370909,-0.0003105546929873526,0.0,0.0,0.0,-0.00038293449324555695,-0.0008149771601893008,-0.0,0.0,0.0,0.0,0.002647393150255084,0.0047700414434075356,4.666767563321628e-05,13719.0,13013.0,13402.0,14037.0,0.4206165671348572,0.3759195804595947,0.4002525806427002,0.44155794382095337,0.0,0.0,0.0,0.0,1495.0,1495.0,1495.0,1495.0,1.635011911392212,0.015089120991779961,-0.12679561613588916,-0.1450173501194652,0.0032108365558087826,-0.0011605235049501061,0.0
62,10,0.0,0.0,0.0,-0.0007165466668084264,-0.001180558349005878,-0.00027323683025315404,-0.012685864232480526,-0.016877440735697746,0.0004164698766544461,0.00015557912411168218,-0.0016775957774370909,-0.0003105546929873526,0.0,0.0,0.0,0.0014565346064046025,-0.0006800403352826834,-0.0,0.0,0.0,0.0,0.002647393150255084,0.0047700414434075356,4.666767563321628e-05,13719.0,13013.0,13402.0,14037.0,0.4206165671348572,0.3759195804595947,0.4002525806427002,0.44155794382095337,0.0,0.0,0.0,0.0,1495.0,1495.0,1495.0,1495.0,1.6397954225540161,0.015089120991779961,-0.12679561613588916,-0.1450173501194652,0.0026870500296354294,0.004427094012498856,0.0
67,5,6.886198207212146e-06,5.551864433073206e-06,-2.3009282813291065e-05,0.0010426124790683389,0.00035640023997984827,0.003395483363419771,-0.012685864232480526,-0.016877440735697746,0.0004164698766544461,0.00015557912411168218,-0.0016775957774370909,-0.0003105546929873526,0.0,0.0,0.0,-0.00043038823059760034,0.0010007725795730948,-0.0,0.0,0.0,0.0,0.002647393150255084,0.0047700414434075356,4.666767563321628e-05,13719.0,13013.0,13402.0,14037.0,0.4206165671348572,0.3759195804595947,0.4002525806427002,0.44155794382095337,0.0,0.0,0.0,0.0,13722.0,13015.0,13408.0,14027.0,1.6370290517807007,0.015120886793673644,-0.12719469963025493,-0.1447168402762288,-0.003947694785892963,-0.001305946265347302,0.0
74,7,4.589797299558995e-06,-4.7974563130992465e-06,-1.599403731233906e-05,-0.00036894468939863145,0.0001362760813208297,-0.00047821810585446656,-0.012685864232480526,-0.016877440735697746,0.0004164698766544461,0.00015557912411168218,-0.0016775957774370909,-0.0003105546929873526,0.0,0.0,0.0,-0.00043038823059760034,0.0010007725795730948,-0.0,0.0,0.0,0.0,0.002647393150255084,0.0047700414434075356,4.666767563321628e-05,13719.0,13013.0,13402.0,14037.0,0.4206165671348572,0.3759195804595947,0.4002525806427002,0.44155794382095337,0.0,0.0,0.0,0.0,13722.0,13015.0,13408.0,14027.0,1.6370290517807007,0.015577446596410596,-0.127025171121891,-0.14508926697399852,-0.003947694785892963,-0.001305946265347302,0.0
79,5,1.2760258869093377e-05,-4.343307409726549e-06,-3.958039087592624e-06,0.0008328775293193758,1.251883041675228e-08,-0.0016356069827452302,-0.012680089101195335,-0.016866998746991158,0.0004189370956737548,-0.0010066714603453875,0.006649089977145195,-0.0018437753897160292,0.0,0.0,0.0,-0.00043038823059760034,0.0010007725795730948,-0.0,0.0,0.0,0.0,0.002431926317512989,0.004933902062475681,3.609002669691108e-05,13717.0,13016.0,13383.0,14054.0,0.42046087980270386,0.37614011764526367,0.3990713953971863,0.44267427921295166,0.0,0.0,0.0,0.0,13721.0,13004.0,13349.0,14043.0,1.6370290517807007,0.015149107583474722,-0.127150689259452,-0.14508107269311507,-0.003947694785892963,-0.001305946265347302,0.0
84,5,1.3742645023739897e-05,-2.8296055916143814e-06,-1.0458405768076773e-06,0.0004510372818913311,-0.0001816391886677593,-0.001003706594929099,-0.012670942582190037,-0.016904087737202644,0.0004128422006033361,0.0009256676421500742,0.005217103287577629,0.0010523033561185002,0.0,0.0,0.0,-7.89929890743224e-06,0.0008108837646432221,-0.0,0.0,0.0,0.0,0.0028750519268214703,0.004838510416448116,0.00012733640323858708,13730.0,12978.0,13423.0,14060.0,0.4213062822818756,0.3737604320049286,0.4015975296497345,0.4431311786174774,0.0,0.0,0.0,0.0,13754.0,12970.0,13391.0,14002.0,1.6344138383865356,0.015028560159913733,-0.12727150636538875,-0.14485445406444422,-0.0031935409642755985,-2.3930906536406837e-05,0.0
89,5,1.6989282812573947e-05,-3.974899300374091e-06,-1.4011741768626962e-05,0.0005700113833881915,6.477958231698722e-05,0.0011544254375621676,-0.012670942582190037,-0.016904087737202644,0.0004128422006033361,0.0009256676421500742,0.005217103287577629,0.0010523033561185002,0.0,0.0,0.0,-8.75432015163824e-05,0.0005674016429111362,-0.0,0.0,0.0,0.0,0.0028750519268214703,0.004838510416448116,0.00012733640323858708,13730.0,12978.0,13423.0,14060.0,0.4213062822818756,0.3737604320049286,0.4015975296497345,0.4431311786174774,0.0,0.0,0.0,0.0,13754.0,12970.0,13391.0,14002.0,1.6318449974060059,0.01496992871280011,-0.1268231401071804,-0.1450879800113707,-0.0022311119828373194,-0.00026479506050236523,0.0
94,5,1.3243975445220713e-05,4.013885700260289e-06,1.813613016565796e-05,-0.0002214322448708117,-0.0009327423758804798,-0.003395974403247237,-0.012670942582190037,-0.016904087737202644,0.0004128422006033361,0.0009256676421500742,0.005217103287577629,0.0010523033561185002,0.0,0.0,0.0,-8.75432015163824e-05,0.0005674016429111362,-0.0,0.0,0.0,0.0,0.0028750519268214703,0.004838510416448116,0.00012733640323858708,13730.0,12978.0,13423.0,14060.0,0.4213062822818756,0.3737604320049286,0.4015975296497345,0.4431311786174774,0.0,0.0,0.0,0.0,13754.0,12970.0,13391.0,14002.0,1.6318449974060059,0.014968876484447433,-0.12725318012420972,-0.14477363561101703,-0.0022311119828373194,-0.00026479506050236523,0.0
99,5,7.14691714165383e-06,3.4429147035552887e-06,1.7126869352068752e-05,-0.0008202198660001159,-0.00030458043329417706,-0.0012372784549370408,-0.012668750248849392,-0.016900863498449326,0.0004080441140104085,0.0004432280547916889,0.0022463295608758926,-0.0029048798605799675,0.0,0.0,0.0,-8.75432015163824e-05,0.0005674016429111362,-0.0,0.0,0.0,0.0,0.002467934275045991,0.0054112207144498825,-5.8060893934452906e-05,13740.0,13002.0,13303.0,14100.0,0.42201101779937744,0.37527942657470703,0.3939831852912903,0.4457554221153259,0.0,0.0,0.0,0.0,13679.0,13035.0,13354.0,14122.0,1.6318449974060059,0.014828586645805029,-0.1273605513387172,-0.14485298374589964,0.00303636328317225,0.0011611150112003088,0.0
105,5,7.252822797454428e-06,-6.688473604299361e-06,-1.3605235835711937e-05,-0.00031537929316982627,0.0010939344065263867,0.003192941192537546,-0.012668750248849392,-0.016900863498449326,0.0004080441140104085,0.0004432280547916889,0.0022463295608758926,-0.0029048798605799675,0.0,0.0,0.0,0.000383233476895839,-0.0007709010969847441,-0.0,0.0,0.0,0.0,0.002467934275045991,0.0054112207144498825,-5.8060893934452906e-05,13740.0,13002.0,13303.0,14100.0,0.42201101779937744,0.37527942657470703,0.3939831852912903,0.4457554221153259,0.0,0.0,0.0,0.0,13679.0,13035.0,13354.0,14122.0,1.6345689296722412,0.015048675627520127,-0.12678796425374952,-0.14478000090143234,0.00303636328317225,0.0011611150112003088,0.0
110,5,9.772617886483204e-06,5.547602995648049e-06,-9.731103091326077e-06,0.00017622369341552258,-0.0010307554621249437,0.0008122805738821626,-0.012642189860343933,-0.016903657466173172,0.0004175112408120185,-0.0004816568980459124,-0.0015348639572039247,0.0022223445121198893,0.0,0.0,0.0,0.0012843431904911995,0.00018126066424883902,-0.0,0.0,0.0,0.0,0.002527363831177354,0.005364782176911831,0.0001227122120326385,13789.0,12919.0,13376.0,14020.0,0.4251750111579895,0.37017422914505005,0.3986056447029114,0.4404589533805847,0.0,0.0,0.0,0.0,13767.0,12979.0,13323.0,14077.0,1.6364949941635132,0.015195893764694973,-0.12721046379042208,-0.1447587221445829,-0.0007147756987251341,0.003895866684615612,0.0
117,7,3.4988295283255866e-06,4.75642900710227e-06,-2.0521038095466793e-05,-0.0006823651492595673,-0.0003173612931277603,0.0016197044169530272,-0.012642189860343933,-0.016903657466173172,0.0004175112408120185,-0.0004816568980459124,-0.0015348639572039247,0.0022223445121198893,0.0,0.0,0.0,0.0012843431904911995,0.00018126066424883902,-0.0,0.0,0.0,0.0,0.002527363831177354,0.005364782176911831,0.0001227122120326385,13789.0,12919.0,13376.0,14020.0,0.4251750111579895,0.37017422914505005,0.3986056447029114,0.4404589533805847,0.0,0.0,0.0,0.0,13767.0,12979.0,13323.0,14077.0,1.6364949941635132,0.015047033202303665,-0.12692760588406,-0.14518017458462265,-0.0007147756987251341,0.003895866684615612,0.0
122,5,9.72658017417416e-06,-9.413984116690699e-06,-2.732538450800348e-05,0.00047438405454158783,0.00157350511290133,0.0014644033508375287,-0.012626702897250652,-0.016906840726733208,0.0004134654882363975,-0.0006162625504657626,0.005710954777896404,0.0032341540791094303,0.0,0.0,0.0,0.0004017389437649399,-0.0006451997323893011,-0.0,0.0,0.0,0.0,0.00254843314178288,0.0054266187362372875,-3.7261440866132034e-06,13733.0,12953.0,13307.0,14070.0,0.4215623140335083,0.37227559089660645,0.39422911405563354,0.44377797842025757,0.0,0.0,0.0,0.0,13765.0,12918.0,13348.0,14033.0,1.6333887577056885,0.015296699903683183,-0.12675160126221174,-0.14522189042978015,0.00253942608833313,0.0012163036735728383,0.0
130,9,1.6176527424249798e-05,5.8394875850353856e-06,-1.2582680028572213e-05,0.0004951530718244612,-0.001104013412259519,-0.0009220520150847733,-0.012641139328479767,-0.01700243540108204,0.0004036617174278945,0.0015453561209142208,0.0029663145542144775,-0.0012296894565224648,0.0,0.0,0.0,0.0004017389437649399,-0.0006451997323893011,-0.0,0.0,0.0,0.0,0.0025886446237564087,0.005025412421673536,-8.41593646327965e-06,13709.0,12996.0,13352.0,14053.0,0.42000123858451843,0.3748660981655121,0.3970542848110199,0.4426473081111908,0.0,0.0,0.0,0.0,13719.0,12977.0,13371.0,14042.0,1.6333887577056885,0.014878476841262324,-0.12708902720191734,-0.14495938825383498,0.00253942608833313,0.0012163036735728383,0.0
135,5,2.4560078600188717e-05,4.878803565588896e-07,-1.7084488717955537e-05,0.0012040872825309634,0.00020058748486917466,0.00017139616829808801,-0.012641139328479767,-0.01700243540108204,0.0004036617174278945,0.0015453561209142208,0.0029663145542144775,-0.0012296894565224648,0.0,0.0,0.0,0.001373987295664847,0.0004929761635139585,-0.0,0.0,0.0,0.0,0.0025886446237564087,0.005025412421673536,-8.41593646327965e-06,13709.0,12996.0,13352.0,14053.0,0.42000123858451843,0.3748660981655121,0.3970542848110199,0.4426473081111908,0.0,0.0,0.0,0.0,13719.0,12977.0,13371.0,14042.0,1.638237476348877,0.01516877556432938,-0.1269211804588603,-0.14505587029153463,-0.00194605125579983,0.0041722264140844345,0.0
140,5,2.006835347856395e-05,1.3851368976247613e-06,-1.5084169717738405e-05,-5.737216997658834e-05,-2.7435788069851696e-05,-0.00017147973994724452,-0.012609862722456455,-0.016994278877973557,0.0003946406941395253,0.00030780371162109077,0.001985525479540229,-0.0017610077047720551,0.0,0.0,0.0,3.662997914943844e-05,-2.6616500690579414e-05,-0.0,0.0,0.0,0.0,0.0027764642145484686,0.00516219949349761,2.7874337320099585e-05,13724.0,12970.0,13363.0,14081.0,0.42091718316078186,0.3732852637767792,0.3977976143360138,0.44449493288993835,0.0,0.0,0.0,0.0,13731.0,12963.0,13366.0,14078.0,1.6284600496292114,0.01510727398532541,-0.12684705628868262,-0.1451752390195226,0.00010444314830238,0.00011056617950089276,0.0
147,6,2.0753148419316858e-05,-7.891022505646106e-06,-1.3622000551549718e-05,5.922659329371527e-05,0.0011021648533642292,-0.00024405222211498767,-0.012609862722456455,-0.016994278877973557,0.0003946406941395253,0.00030780371162109077,0.001985525479540229,-0.0017610077047720551,0.0,0.0,0.0,3.662997914943844e-05,-2.6616500690579414e-05,-0.0,0.0,0.0,0.0,0.0027764642145484686,0.00516219949349761,2.7874337320099585e-05,13724.0,12970.0,13363.0,14081.0,0.42091718316078186,0.3732852637767792,0.3977976143360138,0.44449493288993835,0.0,0.0,0.0,0.0,13731.0,12963.0,13366.0,14078.0,1.6284600496292114,0.0146893616886908,-0.12725513916747894,-0.1449352564533414,0.00010444314830238,0.00011056617950089276,0.0
152,5,1.4317302884592209e-05,-1.5135210560401902e-05,-1.714652535156347e-05,-0.0007486108806915581,0.001310168532654643,0.0003253220929764211,-0.0126233771443367,-0.017021093517541885,0.00039003201527521014,-0.0015923489117994905,-0.005886885337531567,0.0004386846558190882,0.0,0.0,0.0,3.662997914943844e-05,-2.6616500690579414e-05,-0.0,0.0,0.0,0.0,0.0026483540423214436,0.004916280973702669,3.7092282582307234e-05,13709.0,12979.0,13377.0,14027.0,0.4199824631214142,0.3738498389720917,0.3986571133136749,0.4408993422985077,0.0,0.0,0.0,0.0,13710.0,12979.0,13350.0,14051.0,1.6284600496292114,0.015002844926374251,-0.1269249203317359,-0.1449157351293384,0.002728169085457921,-0.004996364936232567,0.0
157,5,1.4341277164930943e-05,-5.490643616212765e-06,-7.538493264291901e-06,-9.875511022983119e-05,-0.0007848374079912901,-0.0015213469741865993,-0.0126233771443367,-0.017021093517541885,0.00039003201527521014,-0.0015923489117994905,-0.005886885337531567,0.0004386846558190882,0.0,0.0,0.0,-0.001642433344386518,-0.0006898613064549863,-0.0,0.0,0.0,0.0,0.0026483540423214436,0.004916280973702669,3.7092282582307234e-05,13709.0,12979.0,13377.0,14027.0,0.4199824631214142,0.3738498389720917,0.3986571133136749,0.4408993422985077,0.0,0.0,0.0,0.0,13710.0,12979.0,13350.0,14051.0,1.6411875486373901,0.015134596053140065,-0.12712303065831201,-0.14473695503052428,0.002728169085457921,-0.004996364936232567,0.0
162,5,1.6338266505044885e-05,-2.176550879084971e-06,-8.030178832996171e-06,0.0002001365937758237,-0.0007116260821931064,-0.0005495365476235747,-0.012718036770820618,-0.01706569455564022,0.0003415966348256916,-0.020302195101976395,0.016113167628645897,-0.024855846539139748,0.0,0.0,0.0,-0.001642433344386518,-0.0006898613064549863,-0.0,0.0,0.0,0.0,0.003067209618166089,0.0055857012048363686,-0.00015755843196529895,13595.0,13074.0,13211.0,14278.0,0.4125927984714508,0.3797054588794708,0.38818588852882385,0.45775333046913147,0.0,0.0,0.0,0.0,13424.0,13218.0,13020.0,14337.0,1.6411875486373901,0.01523117036369916,-0.12719630903184362,-0.1445240910039803,-0.0008408065186813474,0.0026566300075501204,0.0
167,5,1.6338266505044885e-05,-2.176550879084971e-06,-8.030178832996171e-06,0.0002001365937758237,-0.0007116260821931064,-0.0005495365476235747,-0.012718036770820618,-0.01706569455564022,0.0003415966348256916,-0.020302195101976395,0.016113167628645897,-0.024855846539139748,0.0,0.0,0.0,0.0008775140158832073,0.00021363665291573852,-0.0,0.0,0.0,0.0,0.003067209618166089,0.0055857012048363686,-0.00015755843196529895,13595.0,13074.0,13211.0,14278.0,0.4125927984714508,0.3797054588794708,0.38818588852882385,0.45775333046913147,0.0,0.0,0.0,0.0,13424.0,13218.0,13020.0,14337.0,1.6333097219467163,0.01523117036369916,-0.12719630903184362,-0.1445240910039803,-0.0008408065186813474,0.0026566300075501204,0.0
172,5,2.871535070880782e-05,-1.2340598004811909e-05,-1.4559142982761841e-05,0.0014777429169043899,0.0013495974708348513,0.0015049815410748124,-0.012812960892915726,-0.01718134991824627,0.0005510286428034306,-0.021350674331188202,0.011089888401329517,0.032860007137060165,0.0,0.0,0.0,0.0008775140158832073,0.00021363665291573852,-0.0,0.0,0.0,0.0,0.0028166279662400484,0.0053875017911195755,0.001959468936547637,14286.0,12266.0,13926.0,13469.0,0.4583437740802765,0.33137229084968567,0.43420717120170593,0.40453681349754333,0.0,0.0,0.0,0.0,13390.0,13253.0,12979.0,14374.0,1.6333097219467163,0.015272924530094807,-0.1272968631063833,-0.14491283759950388,-0.0008408065186813474,0.0026566300075501204,0.0
177,5,2.755660352704581e-05,-1.6934613995545078e-06,1.2190398592792917e-06,0.0004520475631579757,-0.0007378174341283739,-0.0012913893442600965,-0.012812960892915726,-0.01718134991824627,0.0005510286428034306,-0.021350674331188202,0.011089888401329517,0.032860007137060165,0.0,0.0,0.0,-0.0016805287450551987,0.0014366587856784463,-0.0,0.0,0.0,0.0,0.0028166279662400484,0.0053875017911195755,0.001959468936547637,14286.0,12266.0,13926.0,13469.0,0.4583437740802765,0.33137229084968567,0.43420717120170593,0.40453681349754333,0.0,0.0,0.0,0.0,13390.0,13253.0,12979.0,14374.0,1.6465330123901367,0.01506384565510028,-0.12734440868174876,-0.14448964320614546,-0.005700004752725363,-0.005128903780132532,0.0
182,5,2.755660352704581e-05,-1.6934613995545078e-06,1.2190398592792917e-06,0.0004520475631579757,-0.0007378174341283739,-0.0012913893442600965,-0.012812960892915726,-0.01718134991824627,0.0005510286428034306,-0.021350674331188202,0.011089888401329517,0.032860007137060165,0.0,0.0,0.0,-0.0016805287450551987,0.0014366587856784463,-0.0,0.0,0.0,0.0,0.0028166279662400484,0.0053875017911195755,0.001959468936547637,14286.0,12266.0,13926.0,13469.0,0.4583437740802765,0.33137229084968567,0.43420717120170593,0.40453681349754333,0.0,0.0,0.0,0.0,13390.0,13253.0,12979.0,14374.0,1.6465330123901367,0.01506384565510028,-0.12734440868174876,-0.14448964320614546,-0.005700004752725363,-0.005128903780132532,0.0
187,5,2.5336074031656608e-05,-3.5712548651645193e-07,-1.603143937245477e-05,-0.000769412552472204,-0.0014846469275653362,-0.0005321755888871849,-0.012801294215023518,-0.01727869175374508,0.0002035412035183981,0.024159051477909088,-0.0017267282819375396,0.02981867454946041,0.0,0.0,0.0,0.0009100128663703799,0.00046897510765120387,-0.0,0.0,0.0,0.0,0.002030715113505721,0.005104058422148228,-0.000775190070271492,13778.0,13066.0,13326.0,14045.0,0.42446401715278625,0.37917014956474304,0.39542481303215027,0.44212856888771057,0.0,0.0,0.0,0.0,14487.0,12136.0,14122.0,13240.0,1.6347544193267822,0.01513993252998187,-0.12722337044913584,-0.1446323903557381,-0.0018473705276846886,0.0027574554551392794,0.0
192,5,2.6244126274832524e-05,1.5223208720271941e-05,-3.928267688024789e-06,-0.00019879871979355812,-0.0024634988512843847,-0.0016652507474645972,-0.012689896859228611,-0.01720944046974182,0.0005577361444011331,-0.015228276140987873,-0.002827626885846257,-0.13227805495262146,0.0,0.0,0.0,0.0009100128663703799,0.00046897510765120387,-0.0,0.0,0.0,0.0,0.0028046893421560526,0.005121189635246992,-0.0013204579008743167,12719.0,13921.0,12349.0,14960.0,0.3580319285392761,0.4338722825050354,0.33618587255477905,0.5052196383476257,0.0,0.0,0.0,0.0,12461.0,14142.0,12070.0,15191.0,1.6347544193267822,0.015420269989943412,-0.12760212811118496,-0.14414543449051634,-0.0018473705276846886,0.0027574554551392794,0.0
197,5,1.591219552210532e-05,-2.6792698918143287e-05,-2.0602377844625153e-05,-0.0013193512568250299,0.004056509118527174,0.00133479293435812,-0.012689896859228611,-0.01720944046974182,0.0005577361444011331,-0.015228276140987873,-0.002827626885846257,-0.13227805495262146,0.0,0.0,0.0,0.0030460187699645758,-0.0001509210851509124,-0.0,0.0,0.0,0.0,0.0028046893421560526,0.005121189635246992,-0.0013204579008743167,12719.0,13921.0,12349.0,14960.0,0.3580319285392761,0.4338722825050354,0.33618587255477905,0.5052196383476257,0.0,0.0,0.0,0.0,12461.0,14142.0,12070.0,15191.0,1.651058554649353,0.014893111382805736,-0.1267567667102341,-0.14580309956789275,0.0006004298338666558,0.009321855381131172,0.0
202,5,1.783416882972233e-05,-9.272864190279506e-06,1.3540255849875393e-06,-0.00029710360104218125,-0.000479776383144781,-0.002100851386785507,-0.012689896859228611,-0.01720944046974182,0.0005577361444011331,-0.015228276140987873,-0.002827626885846257,-0.13227805495262146,0.0,0.0,0.0,0.0030460187699645758,-0.0001509210851509124,-0.0,0.0,0.0,0.0,0.0028046893421560526,0.005121189635246992,-0.0013204579008743167,12719.0,13921.0,12349.0,14960.0,0.3580319285392761,0.4338722825050354,0.33618587255477905,0.5052196383476257,0.0,0.0,0.0,0.0,12461.0,14142.0,12070.0,15191.0,1.651058554649353,0.015311565804707663,-0.12712353362759513,-0.14507963396508922,0.0006004298338666558,0.009321855381131172,0.0
207,5,1.9335790057084523e-05,-1.5666069884900935e-05,3.070910224778345e-06,6.135315197752789e-05,0.0005752741126343608,-0.0010463666403666139,-0.01273034792393446,-0.016960401087999344,0.0009568100795149803,0.01685136929154396,-0.04141782596707344,0.1280645877122879,0.0,0.0,0.0,0.000578163075260818,-0.00025829236255958676,-0.0,0.0,0.0,0.0,0.0021469166968017817,0.004663196858018637,0.0050149401649832726,15445.0,11051.0,15120.0,12147.0,0.5404219627380371,0.26487112045288086,0.5167157053947449,0.3245242238044739,0.0,0.0,0.0,0.0,13198.0,13719.0,12681.0,14640.0,1.6312339305877686,0.015421214756683614,-0.1267928426343416,-0.144920671315203,0.0010152654722332954,0.0017481355462223291,0.0
213,5,7.58793976274319e-06,-2.4758070139796473e-05,1.991189128602855e-05,-0.0013852008851245046,0.0013211496407166123,-0.0024394644424319267,-0.01273034792393446,-0.016960401087999344,0.0009568100795149803,0.01685136929154396,-0.04141782596707344,0.1280645877122879,0.0,0.0,0.0,0.000578163075260818,-0.00025829236255958676,-0.0,0.0,0.0,0.0,0.0021469166968017817,0.004663196858018637,0.0050149401649832726,15445.0,11051.0,15120.0,12147.0,0.5404219627380371,0.26487112045288086,0.5167157053947449,0.3245242238044739,0.0,0.0,0.0,0.0,13198.0,13719.0,12681.0,14640.0,1.6312339305877686,0.015593011378359604,-0.12705015056952623,-0.1458095988569848,0.0010152654722332954,0.0017481355462223291,0.0
218,5,1.0017628483183216e-05,-3.245768675697036e-05,2.6304483981220983e-05,-0.0002625176275614649,0.0014524140860885382,-0.001742896973155439,-0.012564590200781822,-0.01690567657351494,-0.0004344195476733148,0.00379693484865129,-0.014691905118525028,0.08216548711061478,0.0,0.0,0.0,-0.0016691414639353752,-0.0012994337594136596,-0.0,0.0,0.0,0.0,0.002695439150556922,0.00523128779605031,-0.0023297902662307024,13723.0,12967.0,13366.0,14055.0,0.42085906863212585,0.37310996651649475,0.397992879152298,0.44279250502586365,0.0,0.0,0.0,0.0,15158.0,11285.0,14821.0,12463.0,1.6453830003738403,0.015536463892848927,-0.12711810754536731,-0.14542332316804127,0.005151958204805851,-0.0050905924290418625,0.0
223,5,9.353606401418801e-06,-2.2552572772838175e-05,5.5942269682418555e-05,-0.00018468970665708184,-0.0006076482823118567,-0.004253692924976349,-0.012564590200781822,-0.01690567657351494,-0.0004344195476733148,0.00379693484865129,-0.014691905118525028,0.08216548711061478,0.0,0.0,0.0,-0.0016691414639353752,-0.0012994337594136596,-0.0,0.0,0.0,0.0,0.002695439150556922,0.00523128779605031,-0.0023297902662307024,13723.0,12967.0,13366.0,14055.0,0.42085906863212585,0.37310996651649475,0.397992879152298,0.44279250502586365,0.0,0.0,0.0,0.0,15158.0,11285.0,14821.0,12463.0,1.6453830003738403,0.015795039657282975,-0.12733347992729727,-0.1454738194009981,0.005151958204805851,-0.0050905924290418625,0.0
228,5,-8.7204734882107e-06,-5.2712792239617556e-05,8.975503442343324e-05,-0.002242765389382839,0.003376167267560959,-0.005759008694440126,-0.012260484509170055,-0.01686030440032482,-0.0002841479436028749,0.03553196042776108,-0.02587730810046196,-0.16935153305530548,0.0,0.0,0.0,0.0007122764945961535,-0.0001628359459573403,-0.0,0.0,0.0,0.0,0.0011556396493688226,0.004722811281681061,0.0028894643764942884,12132.0,14585.0,11786.0,15499.0,0.32365429401397705,0.4788554906845093,0.3041890263557434,0.5443597435951233,0.0,0.0,0.0,0.0,12584.0,14217.0,12264.0,15113.0,1.6318473815917969,0.016849971548384874,-0.12746828586895348,-0.14618766925397775,0.0006402971921488643,0.002154451096430421,0.0
233,5,-2.0765957742696628e-05,-5.760482599725947e-05,0.00013739895075559616,-0.0023425642866641283,0.0019375109113752842,-0.008020873181521893,-0.012260484509170055,-0.01686030440032482,-0.0002841479436028749,0.03553196042776108,-0.02587730810046196,-0.16935153305530548,0.0,0.0,0.0,0.0007122764945961535,-0.0001628359459573403,-0.0,0.0,0.0,0.0,0.0011556396493688226,0.004722811281681061,0.0028894643764942884,12132.0,14585.0,11786.0,15499.0,0.32365429401397705,0.4788554906845093,0.3041890263557434,0.5443597435951233,0.0,0.0,0.0,0.0,12584.0,14217.0,12264.0,15113.0,1.6318473815917969,0.016879579598276778,-0.12869576220651208,-0.14582032549387075,0.0006402971921488643,0.002154451096430421,0.0
238,5,-3.970253965235315e-05,-4.6873399696778506e-05,0.00024501053849235177,-0.003209415590390563,-0.0005127669428475201,-0.016121739521622658,-0.01172141544520855,-0.016705259680747986,6.74017746860045e-06,0.10697989165782928,0.00040943725616671145,0.03501702472567558,0.0,0.0,0.0,-0.0024683065712451935,-0.002228011144325137,-0.0,0.0,0.0,0.0,0.0011556396493688226,0.004722811281681061,0.0028894643764942884,14544.0,12245.0,14029.0,13143.0,0.4760323464870453,0.3301391899585724,0.4410613477230072,0.3840010464191437,0.0,0.0,0.0,0.0,13139.0,13749.0,12579.0,14533.0,1.6574009656906128,0.0181469407084205,-0.13054148677705185,-0.14537046462620545,0.008898057043552399,-0.00758288474753499,0.0
243,5,-8.477939991280437e-05,-8.116133540170267e-05,0.00035955008934251964,-0.006692989729344845,0.003909445367753506,-0.020193444564938545,-0.01172141544520855,-0.016705259680747986,6.74017746860045e-06,0.10697989165782928,0.00040943725616671145,0.03501702472567558,0.0,0.0,0.0,-0.0024683065712451935,-0.002228011144325137,-0.0,0.0,0.0,0.0,0.0011556396493688226,0.004722811281681061,0.0028894643764942884,14544.0,12245.0,14029.0,13143.0,0.4760323464870453,0.3301391899585724,0.4410613477230072,0.3840010464191437,0.0,0.0,0.0,0.0,13139.0,13749.0,12579.0,14533.0,1.6574009656906128,0.020749281219003615,-0.1327823392989668,-0.14564032911934063,0.008898057043552399,-0.00758288474753499,0.0
249,5,-0.00015015772078186274,-0.00010611018660711125,0.0004777833819389343,-0.01052259374409914,0.004557640291750431,-0.022265372797846794,-0.010262737050652504,-0.01630132831633091,-0.0007991294260136783,0.1629161238670349,-0.11342224478721619,0.044221244752407074,0.0,0.0,0.0,-0.0047784182243049145,-0.006220011040568352,-0.0,0.0,0.0,0.0,-0.0029524783603847027,-0.0021661953069269657,-0.0009068458457477391,12885.0,14550.0,12791.0,13786.0,0.36807969212532043,0.47639337182044983,0.36241409182548523,0.4249602258205414,0.0,0.0,0.0,0.0,14980.0,12128.0,14695.0,12221.0,1.70569908618927,0.022287714168498538,-0.13620434640875348,-0.1455737462066521,0.02556452341377735,-0.015107483603060246,0.0
254,5,-0.00023709751258138567,-0.00011990593338850886,0.0006464984617196023,-0.014641813933849335,0.0034785454627126455,-0.02915196120738983,-0.010262737050652504,-0.01630132831633091,-0.0007991294260136783,0.1629161238670349,-0.11342224478721619,0.044221244752407074,0.0,0.0,0.0,-0.0047784182243049145,-0.006220011040568352,-0.0,0.0,0.0,0.0,-0.0029524783603847027,-0.0021661953069269657,-0.0009068458457477391,12885.0,14550.0,12791.0,13786.0,0.36807969212532043,0.47639337182044983,0.36241409182548523,0.4249602258205414,0.0,0.0,0.0,0.0,14980.0,12128.0,14695.0,12221.0,1.70569908618927,0.02571980404166743,-0.14045044836351425,-0.1443778303012414,0.02556452341377735,-0.015107483603060246,0.0
259,5,-0.00032378904870711267,-0.0001663427974563092,0.0007976071792654693,-0.016259709373116493,0.006963843014091253,-0.02979382872581482,-0.008076561614871025,-0.014480555430054665,-0.0002272068668389693,0.42380860447883606,-0.3541315793991089,-0.10167792439460754,0.0,0.0,0.0,-0.004153625573962927,-0.013105019927024841,-0.0,0.0,0.0,0.0,-0.007692693267017603,-0.00861242413520813,0.0012325552524998784,14165.0,14201.0,14384.0,11520.0,0.45013630390167236,0.452575147151947,0.4650089740753174,0.289680540561676,0.0,0.0,0.0,0.0,12034.0,15386.0,12053.0,14289.0,1.7801203727722168,0.02938401613964943,-0.14534688322739575,-0.14501734256919688,0.0562111921608448,-0.013705124147236347,0.0
264,5,-0.0004394194111227989,-0.00023230473743751645,0.0009614948648959398,-0.020379526540637016,0.010700969956815243,-0.03158405050635338,-0.008076561614871025,-0.014480555430054665,-0.0002272068668389693,0.42380860447883606,-0.3541315793991089,-0.10167792439460754,0.0,0.0,0.0,-0.004153625573962927,-0.013105019927024841,-0.0,0.0,0.0,0.0,-0.007692693267017603,-0.00861242413520813,0.0012325552524998784,14165.0,14201.0,14384.0,11520.0,0.45013630390167236,0.452575147151947,0.4650089740753174,0.289680540561676,0.0,0.0,0.0,0.0,12034.0,15386.0,12053.0,14289.0,1.7801203727722168,0.03214391859414446,-0.15032591939399134,-0.1449189612281443,0.0562111921608448,-0.013705124147236347,0.0
269,5,-0.0005412900936789811,-0.00030179525492712855,0.0010776479030027986,-0.0203762948513031,0.01261925045400858,-0.026571983471512794,-0.00175397505518049,-0.008811267092823982,-0.000549512857105583,0.6724722385406494,-0.6357714533805847,0.09733960032463074,0.0,0.0,0.0,-0.012004643678665161,-0.01758374087512493,-0.0,0.0,0.0,0.0,-0.013423883356153965,-0.01713467761874199,-0.0015746672870591283,12644.0,16456.0,13313.0,12414.0,0.3535940647125244,0.6174802184104919,0.39462852478027344,0.3399962782859802,0.0,0.0,0.0,0.0,14612.0,13898.0,14924.0,10591.0,1.8610056638717651,0.037529267950032114,-0.1553173489032941,-0.14525315636582364,0.0788419246673584,-0.041408222168684006,0.0
274,5,-0.0006343586137518287,-0.0003445591719355434,0.0011564015876501799,-0.01931873708963394,0.010179368779063225,-0.020079240202903748,-0.00175397505518049,-0.008811267092823982,-0.000549512857105583,0.6724722385406494,-0.6357714533805847,0.09733960032463074,0.0,0.0,0.0,-0.012004643678665161,-0.01758374087512493,-0.0,0.0,0.0,0.0,-0.013423883356153965,-0.01713467761874199,-0.0015746672870591283,12644.0,16456.0,13313.0,12414.0,0.3535940647125244,0.6174802184104919,0.39462852478027344,0.3399962782859802,0.0,0.0,0.0,0.0,14612.0,13898.0,14924.0,10591.0,1.8610056638717651,0.04262859170624749,-0.1609697579213379,-0.14459922296957944,0.0788419246673584,-0.041408222168684006,0.0
279,5,-0.0007449213298968971,-0.00039125961484387517,0.001201306702569127,-0.020995022729039192,0.009675799869000912,-0.013420311734080315,0.00471196323633194,-0.002941360929980874,-0.00033442393760196865,0.9581902623176575,-0.8463230729103088,-0.10188642889261246,0.0,0.0,0.0,-0.011668289080262184,-0.01701097935438156,-0.0,0.0,0.0,0.0,-0.01894039660692215,-0.02274378016591072,0.0018190490081906319,12644.0,16456.0,13313.0,12414.0,0.3535940647125244,0.6174802184104919,0.39462852478027344,0.3399962782859802,0.0,0.0,0.0,0.0,12453.0,16805.0,13232.0,12219.0,1.8528081178665161,0.04801197090552341,-0.166956638259034,-0.14392488359085095,0.07593835145235062,-0.040070824325084686,0.0
284,5,-0.0008659431478008628,-0.0004411953268572688,0.0012136815348640084,-0.022920627146959305,0.009862606413662434,-0.0068530975840985775,0.00471196323633194,-0.002941360929980874,-0.00033442393760196865,0.9581902623176575,-0.8463230729103088,-0.10188642889261246,0.0,0.0,0.0,-0.011668289080262184,-0.01701097935438156,-0.0,0.0,0.0,0.0,-0.01894039660692215,-0.02274378016591072,0.0018190490081906319,12644.0,16456.0,13313.0,12414.0,0.3535940647125244,0.6174802184104919,0.39462852478027344,0.3399962782859802,0.0,0.0,0.0,0.0,12453.0,16805.0,13232.0,12219.0,1.8528081178665161,0.05312781490700616,-0.17218363646330362,-0.14310005385043095,0.07593835145235062,-0.040070824325084686,0.0
289,5,-0.0009590518311597407,-0.00047055722097866237,0.0011820710496976972,-0.0203412938863039,0.0074684699065983295,0.0010520187206566334,0.02760157734155655,0.014542593620717525,-0.00018861117132473737,1.173945665359497,-0.7993820309638977,0.019812170416116714,0.0,0.0,0.0,-0.011274400167167187,-0.019963223487138748,-0.0,0.0,0.0,0.0,-0.023450735956430435,-0.025820834562182426,0.0008016227511689067,14374.0,17022.0,14841.0,10329.0,0.4643053710460663,0.6628946661949158,0.4967663884162903,0.2288416475057602,0.0,0.0,0.0,0.0,14635.0,16029.0,15205.0,9498.0,1.8861982822418213,0.05751639684393584,-0.176956058501726,-0.14286089520628137,0.09072218090295792,-0.039416007697582245,0.0
294,5,-0.001042390475049615,-0.0004721063014585525,0.0011546025052666664,-0.01813715323805809,0.003173276549205184,0.0037170331925153732,0.02760157734155655,0.014542593620717525,-0.00018861117132473737,1.173945665359497,-0.7993820309638977,0.019812170416116714,0.0,0.0,0.0,-0.011274400167167187,-0.019963223487138748,-0.0,0.0,0.0,0.0,-0.023450735956430435,-0.025820834562182426,0.0008016227511689067,14374.0,17022.0,14841.0,10329.0,0.4643053710460663,0.6628946661949158,0.4967663884162903,0.2288416475057602,0.0,0.0,0.0,0.0,14635.0,16029.0,15205.0,9498.0,1.8861982822418213,0.059944592149186036,-0.18017812736402866,-0.14284309823831626,0.09072218090295792,-0.039416007697582245,0.0
299,5,-0.0010982017265632749,-0.00046658157953061163,0.0011369736166670918,-0.013952214270830154,0.0006063450709916651,0.003602281678467989,0.02760157734155655,0.014542593620717525,-0.00018861117132473737,1.173945665359497,-0.7993820309638977,0.019812170416116714,0.0,0.0,0.0,-0.004286808427423239,-0.016771618276834488,-0.0,0.0,0.0,0.0,-0.02034267783164978,-0.023514220491051674,8.95904959179461e-05,14414.0,16892.0,14966.0,10978.0,0.4670571982860565,0.6523587703704834,0.5056796669960022,0.26110267639160156,0.0,0.0,0.0,0.0,14099.0,17217.0,14531.0,10819.0,1.8251904249191284,0.06250784419558968,-0.18231909835215573,-0.14240332094907032,0.07375826686620712,-0.014502683654427528,-0.0
304,5,-0.001135978032834828,-0.0004497912304941565,0.0011555516393855214,-0.01011403277516365,-0.0017723030177876353,-0.0007884496008045971,0.039564166218042374,0.022585557773709297,-0.00031104922527447343,0.7541773915290833,-0.5077394843101501,0.03942827507853508,0.0,0.0,0.0,0.0012877361150458455,-0.010511531494557858,-0.0,0.0,0.0,0.0,-0.014964756555855274,-0.01724885031580925,0.000349691923474893,14361.0,16246.0,14806.0,12197.0,0.46345844864845276,0.6010568141937256,0.49430978298187256,0.327373206615448,0.0,0.0,0.0,0.0,14485.0,16645.0,14897.0,11359.0,1.7446852922439575,0.06318469021641103,-0.1833791083544042,-0.14226974491070524,0.04419026896357536,0.004164398647844791,0.0
309,5,-0.001133881974965334,-0.0004180528922006488,0.0011972702341154218,-0.0037940877955406904,-0.004517521243542433,-0.005321623757481575,0.039564166218042374,0.022585557773709297,-0.00031104922527447343,0.7541773915290833,-0.5077394843101501,0.03942827507853508,0.0,0.0,0.0,0.0012877361150458455,-0.010511531494557858,-0.0,0.0,0.0,0.0,-0.014964756555855274,-0.01724885031580925,0.000349691923474893,14361.0,16246.0,14806.0,12197.0,0.46345844864845276,0.6010568141937256,0.49430978298187256,0.327373206615448,0.0,0.0,0.0,0.0,14485.0,16645.0,14897.0,11359.0,1.7446852922439575,0.0632110668683767,-0.18235834374457455,-0.14194283438155259,0.04419026896357536,0.004164398647844791,0.0
314,5,-0.0011035993229597807,-0.00036215403815731406,0.0012673517921939492,0.0021162775810807943,-0.008514872752130032,-0.01053843554109335,0.039564166218042374,0.022585557773709297,-0.00031104922527447343,0.7541773915290833,-0.5077394843101501,0.03942827507853508,0.0,0.0,0.0,0.0012877361150458455,-0.010511531494557858,-0.0,0.0,0.0,0.0,-0.014964756555855274,-0.01724885031580925,0.000349691923474893,14361.0,16246.0,14806.0,12197.0,0.46345844864845276,0.6010568141937256,0.49430978298187256,0.327373206615448,0.0,0.0,0.0,0.0,14485.0,16645.0,14897.0,11359.0,1.7446852922439575,0.060995959935800134,-0.18029297464919014,-0.14175390174173377,0.04419026896357536,0.004164398647844791,0.0
319,5,-0.001072055660188198,-0.00027645693626254797,0.001340228714980185,0.004631754010915756,-0.013689599931240082,-0.012960593216121197,0.04236727952957153,0.025003870949149132,0.00029056009952910244,-0.42340388894081116,0.2504328191280365,0.05217590183019638,0.0,0.0,0.0,0.00946237426251173,0.0004493370943237096,-0.0,0.0,0.0,0.0,-0.00579382898285985,-0.00948128942400217,0.001147659495472908,14413.0,14681.0,14954.0,12882.0,0.4669724106788635,0.4855084717273712,0.5048089623451233,0.367900550365448,0.0,0.0,0.0,0.0,14345.0,15440.0,14760.0,12273.0,1.706500768661499,0.058001327296034126,-0.17764955355015113,-0.14173657185780056,-0.0018476138357073069,0.02992977201938629,0.0
325,5,-0.001033966662362218,-0.00018628319958224893,0.0014042139519006014,0.006423382554203272,-0.016296688467264175,-0.012862470000982285,0.04236727952957153,0.025003870949149132,0.00029056009952910244,-0.42340388894081116,0.2504328191280365,0.05217590183019638,0.0,0.0,0.0,0.00946237426251173,0.0004493370943237096,-0.0,0.0,0.0,0.0,-0.00579382898285985,-0.00948128942400217,0.001147659495472908,14413.0,14681.0,14954.0,12882.0,0.4669724106788635,0.4855084717273712,0.5048089623451233,0.367900550365448,0.0,0.0,0.0,0.0,14345.0,15440.0,14760.0,12273.0,1.706500768661499,0.053784568473621876,-0.17427394736301852,-0.14149033775648248,-0.0018476138357073069,0.02992977201938629,0.0
330,5,-0.0009887117194011807,-8.618302672402933e-05,0.0013955846661701798,0.007999937981367111,-0.018530696630477905,-0.004109478089958429,0.04236727952957153,0.025003870949149132,0.00029056009952910244,-0.42340388894081116,0.2504328191280365,0.05217590183019638,0.0,0.0,0.0,0.018076632171869278,0.00425401795655489,-0.0,0.0,0.0,0.0,-0.00579382898285985,-0.00948128942400217,0.001147659495472908,14413.0,14681.0,14954.0,12882.0,0.4669724106788635,0.4855084717273712,0.5048089623451233,0.367900550365448,0.0,0.0,0.0,0.0,14345.0,15440.0,14760.0,12273.0,1.7932214736938477,0.049948981908432805,-0.17025914151841612,-0.14194832742645286,-0.018378619104623795,0.0600782185792923,0.0
335,5,-0.0009345040889456868,4.4253127271076664e-05,0.001366865006275475,0.009704897180199623,-0.023064617067575455,0.0018025676254183054,0.0375569686293602,0.021923912689089775,0.000522801885381341,-0.8333278894424438,0.4927184581756592,-0.012878993526101112,0.0,0.0,0.0,0.018076632171869278,0.00425401795655489,-0.0,0.0,0.0,0.0,0.0012211368884891272,-0.0022831985261291265,-0.0005080508999526501,13766.0,14498.0,14304.0,14444.0,0.4236988425254822,0.4728558659553528,0.4595206379890442,0.46911507844924927,0.0,0.0,0.0,0.0,14421.0,14445.0,14874.0,13229.0,1.7932214736938477,0.04512094973910849,-0.16675528800733086,-0.14195909541296864,-0.018378619104623795,0.0600782185792923,0.0
340,5,-0.0008585958275943995,0.00016810945817269385,0.0012793955393135548,0.012990949675440788,-0.024088606238365173,0.011217367835342884,0.0375569686293602,0.021923912689089775,0.000522801885381341,-0.8333278894424438,0.4927184581756592,-0.012878993526101112,0.0,0.0,0.0,0.025036314502358437,0.006935532670468092,-0.0,0.0,0.0,0.0,0.0012211368884891272,-0.0022831985261291265,-0.0005080508999526501,13766.0,14498.0,14304.0,14444.0,0.4236988425254822,0.4728558659553528,0.4595206379890442,0.46911507844924927,0.0,0.0,0.0,0.0,14421.0,14445.0,14874.0,13229.0,1.8691883087158203,0.04003005437021773,-0.16282679003412193,-0.1421950654764307,-0.031228071078658104,0.08672605454921722,-0.0
345,5,-0.0008097125682979822,0.00028397352434694767,0.00120402907487005,0.01106236968189478,-0.02353912964463234,0.013530928641557693,0.026200709864497185,0.01524908747524023,0.0005094780935905874,-1.0878853797912598,0.6103971004486084,-0.005260033532977104,0.0,0.0,0.0,0.025036314502358437,0.006935532670468092,-0.0,0.0,0.0,0.0,0.009255342185497284,0.0070548527874052525,-0.0006263271789066494,13436.0,12759.0,13738.0,15190.0,0.4024101495742798,0.3604944944381714,0.4218655228614807,0.5217306017875671,0.0,0.0,0.0,0.0,14065.0,12536.0,14476.0,15321.0,1.8691883087158203,0.03524200579614834,-0.15895479599264375,-0.14280908337317783,-0.031228071078658104,0.08672605454921722,-0.0
350,5,-0.0007818604935891926,0.0003768573806155473,0.0011359043419361115,0.007767198141664267,-0.020561717450618744,0.01358733605593443,0.026200709864497185,0.01524908747524023,0.0005094780935905874,-1.0878853797912598,0.6103971004486084,-0.005260033532977104,0.0,0.0,0.0,0.025756027549505234,0.008162567391991615,-0.0,0.0,0.0,0.0,0.009255342185497284,0.0070548527874052525,-0.0006263271789066494,13436.0,12759.0,13738.0,15190.0,0.4024101495742798,0.3604944944381714,0.4218655228614807,0.5217306017875671,0.0,0.0,0.0,0.0,14065.0,12536.0,14476.0,15321.0,1.8819007873535156,0.03181228526183162,-0.15619858375920706,-0.1435925005407853,-0.037002112716436386,0.08982493728399277,-0.0
355,5,-0.0007662208518013358,0.0004507920821197331,0.0011123917065560818,0.004983634687960148,-0.017096851021051407,0.008256444707512856,0.017776845023036003,0.010613163001835346,0.0006496289861388505,-1.0082588195800781,0.5289430618286133,-0.03457210212945938,0.0,0.0,0.0,0.025756027549505234,0.008162567391991615,-0.0,0.0,0.0,0.0,0.013431144878268242,0.009270129725337029,-0.0003173494478687644,13585.0,12915.0,14086.0,15795.0,0.4119352400302887,0.36994627118110657,0.4448627233505249,0.5664772987365723,0.0,0.0,0.0,0.0,13916.0,12991.0,14474.0,16102.0,1.8819007873535156,0.028965432652415166,-0.15373911812337132,-0.14359286989359749,-0.037002112716436386,0.08982493728399277,-0.0
360,5,-0.0007713977247476578,0.0004993827897123992,0.0011250191600993276,0.001372232218272984,-0.012669621966779232,0.0017872797325253487,0.017776845023036003,0.010613163001835346,0.0006496289861388505,-1.0082588195800781,0.5289430618286133,-0.03457210212945938,0.0,0.0,0.0,0.01988139934837818,0.0033176273573189974,-0.0,0.0,0.0,0.0,0.013431144878268242,0.009270129725337029,-0.0003173494478687644,13585.0,12915.0,14086.0,15795.0,0.4119352400302887,0.36994627118110657,0.4448627233505249,0.5664772987365723,0.0,0.0,0.0,0.0,13916.0,12991.0,14474.0,16102.0,1.807073950767517,0.02675730585516125,-0.1526426817424311,-0.14365498147594,-0.014443378895521164,0.0665854662656784,-0.0
365,5,-0.0007994749466888607,0.0005208802758716047,0.0011702874908223748,-0.0028203758411109447,-0.007647551130503416,-0.00471728527918458,0.007299388758838177,0.005076040513813496,0.00034256119397468865,-0.67640620470047,0.333230584859848,-0.0060015167109668255,0.0,0.0,0.0,0.01988139934837818,0.0033176273573189974,-0.0,0.0,0.0,0.0,0.012291467748582363,0.007797561585903168,-0.00041213224176317453,13947.0,13242.0,14522.0,15828.0,0.4355667233467102,0.39013606309890747,0.4745013117790222,0.5689842104911804,0.0,0.0,0.0,0.0,14320.0,12982.0,14872.0,15379.0,1.807073950767517,0.02633886883119075,-0.1521298539286444,-0.14388408602012792,-0.014443378895521164,0.0665854662656784,-0.0
371,5,-0.0008366380934603512,0.0005173749523237348,0.0012410033959895372,-0.005587730091065168,-0.0026383802760392427,-0.010372821241617203,0.007299388758838177,0.005076040513813496,0.00034256119397468865,-0.67640620470047,0.333230584859848,-0.0060015167109668255,0.0,0.0,0.0,0.00989454984664917,-0.0036218746099621058,-0.0,0.0,0.0,0.0,0.012291467748582363,0.007797561585903168,-0.00041213224176317453,13947.0,13242.0,14522.0,15828.0,0.4355667233467102,0.39013606309890747,0.4745013117790222,0.5689842104911804,0.0,0.0,0.0,0.0,14320.0,12982.0,14872.0,15379.0,1.7196540832519531,0.026203916753437993,-0.1520356002572062,-0.14406053489195683,0.01500735618174076,0.03153790161013603,0.0
376,5,-0.0008556113461963832,0.0005110447527840734,0.0013012636918574572,-0.0045118811540305614,-0.00029573027859441936,-0.011380362324416637,0.0036840159446001053,0.003050145460292697,0.00035953515907749534,-0.21471990644931793,0.07747817039489746,-0.061586834490299225,0.0,0.0,0.0,0.00989454984664917,-0.0036218746099621058,-0.0,0.0,0.0,0.0,0.00788823887705803,0.004278274718672037,-0.0008209681254811585,13686.0,14276.0,14165.0,15650.0,0.41845712065696716,0.4576655924320221,0.45013245940208435,0.5556455850601196,0.0,0.0,0.0,0.0,13820.0,14244.0,14310.0,15429.0,1.7196540832519531,0.027101901616095197,-0.1533018106587432,-0.1435851870411908,0.01500735618174076,0.03153790161013603,0.0
381,5,-0.0009210992720909417,0.0005144145106896758,0.0014034317573532462,-0.009663304314017296,-0.0005226591601967812,-0.016812311485409737,0.0036840159446001053,0.003050145460292697,0.00035953515907749534,-0.21471990644931793,0.07747817039489746,-0.061586834490299225,0.0,0.0,0.0,0.0012537874281406403,-0.005334748420864344,-0.0,0.0,0.0,0.0,0.00788823887705803,0.004278274718672037,-0.0008209681254811585,13686.0,14276.0,14165.0,15650.0,0.41845712065696716,0.4576655924320221,0.45013245940208435,0.5556455850601196,0.0,0.0,0.0,0.0,13820.0,14244.0,14310.0,15429.0,1.6851558685302734,0.027909879070398956,-0.155363641754985,-0.14356702145447892,0.02166224643588066,0.003916267305612564,0.0
386,5,-0.0009788222378119826,0.00048389422590844333,0.001481309998780489,-0.010792076587677002,0.0034533680882304907,-0.016070319339632988,0.0031188069842755795,0.003386290743947029,0.00010826019570231438,0.14230138063430786,-0.13544875383377075,0.009100346826016903,0.0,0.0,0.0,0.0012537874281406403,-0.005334748420864344,-0.0,0.0,0.0,0.0,0.0023163824807852507,-0.0014691255055367947,0.0005322495708242059,14115.0,14029.0,14596.0,14008.0,0.4468003213405609,0.4410317838191986,0.47960004210472107,0.4396418035030365,0.0,0.0,0.0,0.0,14126.0,14143.0,14725.0,13746.0,1.6851558685302734,0.029112554972807517,-0.1581628548843984,-0.14352392237660822,0.02166224643588066,0.003916267305612564,0.0
391,5,-0.0010449881665408611,0.0004452313296496868,0.0015146491350606084,-0.012256739661097527,0.006020895205438137,-0.010428812354803085,0.0031188069842755795,0.003386290743947029,0.00010826019570231438,0.14230138063430786,-0.13544875383377075,0.009100346826016903,0.0,0.0,0.0,-0.003169384552165866,-0.010873306542634964,-0.0,0.0,0.0,0.0,0.0023163824807852507,-0.0014691255055367947,0.0005322495708242059,14115.0,14029.0,14596.0,14008.0,0.4468003213405609,0.4410317838191986,0.47960004210472107,0.4396418035030365,0.0,0.0,0.0,0.0,14126.0,14143.0,14725.0,13746.0,1.7516757249832153,0.03169945600745091,-0.16006592394978525,-0.14286927224772317,0.045894064009189606,-0.010290485806763172,0.0
396,5,-0.0011093519860878587,0.000420007505454123,0.0015266314148902893,-0.01262635923922062,0.005435216706246138,-0.005609402433037758,0.005582073237746954,0.005213385447859764,-4.5064523874316365e-05,0.4332978129386902,-0.32358089089393616,-0.06185688450932503,0.0,0.0,0.0,-0.003169384552165866,-0.010873306542634964,-0.0,0.0,0.0,0.0,-0.004138463642448187,-0.008253754116594791,-0.0008584038005210459,13069.0,15164.0,13653.0,13462.0,0.3793943226337433,0.5198937654495239,0.41631755232810974,0.4040484130382538,0.0,0.0,0.0,0.0,13116.0,15209.0,13906.0,13101.0,1.7516757249832153,0.034063220273481395,-0.16324871380034656,-0.1427962645769773,0.045894064009189606,-0.010290485806763172,0.0
401,5,-0.0011941971024498343,0.0003884727484546602,0.001484445296227932,-0.015231960453093052,0.005958257708698511,0.002818565582856536,0.005582073237746954,0.005213385447859764,-4.5064523874316365e-05,0.4332978129386902,-0.32358089089393616,-0.06185688450932503,0.0,0.0,0.0,-0.0054884557612240314,-0.012497269548475742,-0.0,0.0,0.0,0.0,-0.004138463642448187,-0.008253754116594791,-0.0008584038005210459,13069.0,15164.0,13653.0,13462.0,0.3793943226337433,0.5198937654495239,0.41631755232810974,0.4040484130382538,0.0,0.0,0.0,0.0,13116.0,15209.0,13906.0,13101.0,1.7764757871627808,0.03672676708369122,-0.16588340456480896,-0.14301589130591116,0.053494419902563095,-0.018072325736284256,0.0
406,5,-0.001267058658413589,0.0003347141609992832,0.0013914818409830332,-0.014836159534752369,0.008834333159029484,0.012283041141927242,0.011494294740259647,0.010187639854848385,-8.832384628476575e-05,0.5627420544624329,-0.4275854825973511,0.03202938288450241,0.0,0.0,0.0,-0.0054884557612240314,-0.012497269548475742,-0.0,0.0,0.0,0.0,-0.011503352783620358,-0.015191255137324333,-0.00027848221361637115,13772.0,14841.0,14256.0,11854.0,0.42410093545913696,0.4968084692955017,0.45626145601272583,0.30798500776290894,0.0,0.0,0.0,0.0,13859.0,14762.0,14557.0,11476.0,1.7764757871627808,0.039105185644802185,-0.16830868033801394,-0.14281134884053415,0.053494419902563095,-0.018072325736284256,0.0
411,5,-0.0013396891299635172,0.0002963324950542301,0.0013095346512272954,-0.014650130644440651,0.00813953299075365,0.014746880158782005,0.011494294740259647,0.010187639854848385,-8.832384628476575e-05,0.5627420544624329,-0.4275854825973511,0.03202938288450241,0.0,0.0,0.0,-0.009316109120845795,-0.01435132697224617,-0.0,0.0,0.0,0.0,-0.011503352783620358,-0.015191255137324333,-0.00027848221361637115,13772.0,14841.0,14256.0,11854.0,0.42410093545913696,0.4968084692955017,0.45626145601272583,0.30798500776290894,0.0,0.0,0.0,0.0,13859.0,14762.0,14557.0,11476.0,1.8118890523910522,0.04160959673965518,-0.17012515007214518,-0.14321902034785375,0.06265299022197723,-0.03128695487976074,-0.0
417,5,-0.0013876853045076132,0.0002597369602881372,0.0012427596375346184,-0.011619589291512966,0.007647277321666479,0.013911762274801731,0.01618162915110588,0.01343184057623148,-8.589289791416377e-05,0.5970396399497986,-0.3803383409976959,-0.03875267133116722,0.0,0.0,0.0,-0.009316109120845795,-0.01435132697224617,-0.0,0.0,0.0,0.0,-0.012407984584569931,-0.014678167179226875,0.0009250143775716424,13464.0,15876.0,13946.0,12403.0,0.4041854739189148,0.5726522207260132,0.43550097942352295,0.3393370509147644,0.0,0.0,0.0,0.0,13325.0,15959.0,14081.0,12292.0,1.8118890523910522,0.04420438583285625,-0.1718155024978936,-0.1427319249210788,0.06265299022197723,-0.03128695487976074,-0.0
422,5,-0.0014026658609509468,0.0002076620003208518,0.001203641528263688,-0.006445504259318113,0.009307908825576305,0.010258868336677551,0.01618162915110588,0.01343184057623148,-8.589289791416377e-05,0.5970396399497986,-0.3803383409976959,-0.03875267133116722,0.0,0.0,0.0,-0.008255461230874062,-0.011947239749133587,-0.0,0.0,0.0,0.0,-0.012407984584569931,-0.014678167179226875,0.0009250143775716424,13464.0,15876.0,13946.0,12403.0,0.4041854739189148,0.5726522207260132,0.43550097942352295,0.3393370509147644,0.0,0.0,0.0,0.0,13325.0,15959.0,14081.0,12292.0,1.780644178390503,0.04597356226257705,-0.1731818584234147,-0.1426535304162369,0.05125916004180908,-0.027246959507465363,-0.0
427,5,-0.0014111704658716917,0.0001694722450338304,0.001196458819322288,-0.003598750103265047,0.008305932395160198,0.004965479485690594,0.02292466349899769,0.01762975938618183,-0.00010222950368188322,0.5638960003852844,-0.23804938793182373,0.04073945805430412,0.0,0.0,0.0,-0.008255461230874062,-0.011947239749133587,-0.0,0.0,0.0,0.0,-0.011143487878143787,-0.011940171010792255,-0.001071115373633802,13677.0,16020.0,13763.0,13191.0,0.4178817868232727,0.58359295129776,0.42347872257232666,0.3869355320930481,0.0,0.0,0.0,0.0,14328.0,15310.0,14661.0,11722.0,1.780644178390503,0.04747472935898923,-0.17310169539646061,-0.14282907926314273,0.05125916004180908,-0.027246959507465363,-0.0
432,5,-0.0014082577545195818,0.0001516322372481227,0.0012538920855149627,-0.0010899833869189024,0.00546317407861352,-0.004905800800770521,0.02292466349899769,0.01762975938618183,-0.00010222950368188322,0.5638960003852844,-0.23804938793182373,0.04073945805430412,0.0,0.0,0.0,-0.00944890733808279,-0.0051279631443321705,-0.0,0.0,0.0,0.0,-0.011143487878143787,-0.011940171010792255,-0.001071115373633802,13677.0,16020.0,13763.0,13191.0,0.4178817868232727,0.58359295129776,0.42347872257232666,0.3869355320930481,0.0,0.0,0.0,0.0,14328.0,15310.0,14661.0,11722.0,1.7250919342041016,0.047542260347954175,-0.1728195452784089,-0.1428742822012709,0.021315118297934532,-0.030212778598070145,-0.0
437,5,-0.0013766833581030369,0.00013034317817073315,0.0013168485602363944,0.0033529470674693584,0.004739958327263594,-0.009517094120383263,0.026038656011223793,0.01893533766269684,-0.0002215228887507692,0.2847733795642853,-0.030904417857527733,-0.0510847382247448,0.0,0.0,0.0,-0.00944890733808279,-0.0051279631443321705,-0.0,0.0,0.0,0.0,-0.006276038475334644,-0.007862526923418045,0.0007813441916368902,14160.0,14804.0,14341.0,12991.0,0.44977372884750366,0.494191974401474,0.46208810806274414,0.3745903968811035,0.0,0.0,0.0,0.0,13846.0,15675.0,14058.0,13120.0,1.7250919342041016,0.04754062564279039,-0.17185231858747313,-0.14289895115646864,0.021315118297934532,-0.030212778598070145,-0.0
442,5,-0.0013589536538347602,9.223551751347259e-05,0.001364204683341086,0.003468738403171301,0.006468901876360178,-0.009489576332271099,0.026038656011223793,0.01893533766269684,-0.0002215228887507692,0.2847733795642853,-0.030904417857527733,-0.0510847382247448,0.0,0.0,0.0,-0.0054974667727947235,0.0012245354009792209,-0.0,0.0,0.0,0.0,-0.006276038475334644,-0.007862526923418045,0.0007813441916368902,14160.0,14804.0,14341.0,12991.0,0.44977372884750366,0.494191974401474,0.46208810806274414,0.3745903968811035,0.0,0.0,0.0,0.0,13846.0,15675.0,14058.0,13120.0,1.6737394332885742,0.04654966641858083,-0.17092330554633256,-0.14290026706124467,-0.004938606172800064,-0.017055129632353783,0.0
447,5,-0.0013135707704350352,8.729664114071056e-05,0.0014055647188797593,0.006833437830209732,0.0031802256125956774,-0.008759037591516972,0.024466177448630333,0.01679069735109806,-0.000527926895301789,-0.341958612203598,0.28481101989746094,-0.043108731508255005,0.0,0.0,0.0,-0.0054974667727947235,0.0012245354009792209,-0.0,0.0,0.0,0.0,-0.0025058425962924957,-0.0019577096682041883,-0.0011679852614179254,13453.0,14605.0,13324.0,14103.0,0.40351927280426025,0.4802282452583313,0.3953375816345215,0.4460068345069885,0.0,0.0,0.0,0.0,13890.0,14887.0,14049.0,13498.0,1.6737394332885742,0.04537885683441545,-0.16864036950993197,-0.14311416843666946,-0.004938606172800064,-0.017055129632353783,0.0
452,5,-0.0012654629535973072,9.551299444865435e-05,0.001426698756404221,0.008506315760314465,0.000286127848085016,-0.006039693485945463,0.024466177448630333,0.01679069735109806,-0.000527926895301789,-0.341958612203598,0.28481101989746094,-0.043108731508255005,0.0,0.0,0.0,-0.003665677737444639,0.0045177508145570755,-0.0,0.0,0.0,0.0,-0.0025058425962924957,-0.0019577096682041883,-0.0011679852614179254,13453.0,14605.0,13324.0,14103.0,0.40351927280426025,0.4802282452583313,0.3953375816345215,0.4460068345069885,0.0,0.0,0.0,0.0,13890.0,14887.0,14049.0,13498.0,1.684080958366394,0.042826141035341346,-0.1668556040073537,-0.14285277241864336,-0.018332967534661293,-0.011442582122981548,0.0
457,5,-0.0011904510902240872,9.571774717187509e-05,0.0013328325003385544,0.007703641429543495,0.0002470164909027517,0.008346651680767536,0.024466177448630333,0.01679069735109806,-0.000527926895301789,-0.341958612203598,0.28481101989746094,-0.043108731508255005,0.0,0.0,0.0,-0.003665677737444639,0.0045177508145570755,-0.0,0.0,0.0,0.0,-0.0025058425962924957,-0.0019577096682041883,-0.0011679852614179254,13453.0,14605.0,13324.0,14103.0,0.40351927280426025,0.4802282452583313,0.3953375816345215,0.4460068345069885,0.0,0.0,0.0,0.0,13890.0,14887.0,14049.0,13498.0,1.684080958366394,0.0392369033115014,-0.1621218453602961,-0.14369643346312877,-0.018332967534661293,-0.011442582122981548,0.0
462,5,-0.0011904510902240872,9.571774717187509e-05,0.0013328325003385544,0.007703641429543495,0.0002470164909027517,0.008346651680767536,0.019456325098872185,0.01315261609852314,-0.0003617450420279056,-0.46800971031188965,0.32116419076919556,-0.01886838488280773,0.0,0.0,0.0,-0.0001268536871066317,0.0054819658398628235,-0.0,0.0,0.0,0.0,2.0958901586709544e-05,-0.0007067156839184463,0.0009508068906143308,13838.0,13424.0,13715.0,13761.0,0.428430438041687,0.401633620262146,0.42033153772354126,0.42334383726119995,0.0,0.0,0.0,0.0,14042.0,13885.0,13980.0,13616.0,1.6858502626419067,0.0392369033115014,-0.1621218453602961,-0.14369643346312877,-0.022269222885370255,-0.0003963972849305719,-0.0
467,5,-0.001162555068731308,0.00010436793672852218,0.0012845592573285103,0.0064289867877960205,-0.0009392158826813102,0.00913145300000906,0.019456325098872185,0.01315261609852314,-0.0003617450420279056,-0.46800971031188965,0.32116419076919556,-0.01886838488280773,0.0,0.0,0.0,-0.0001268536871066317,0.0054819658398628235,-0.0,0.0,0.0,0.0,2.0958901586709544e-05,-0.0007067156839184463,0.0009508068906143308,13838.0,13424.0,13715.0,13761.0,0.428430438041687,0.401633620262146,0.42033153772354126,0.42334383726119995,0.0,0.0,0.0,0.0,14042.0,13885.0,13980.0,13616.0,1.6858502626419067,0.036810087330774156,-0.15970294273603466,-0.14433578239639794,-0.022269222885370255,-0.0003963972849305719,-0.0
472,5,-0.001086659380234778,0.00012947454524692148,0.0011819647625088692,0.0074889385141432285,-0.001437655882909894,0.009129251353442669,0.015318472869694233,0.010837008245289326,-0.0005548610934056342,-0.5090617537498474,0.3366512954235077,-0.04990297928452492,0.0,0.0,0.0,0.001952590188011527,0.005418289452791214,-0.0,0.0,0.0,0.0,0.002454230561852455,0.002793819410726428,-0.0006749257445335388,13394.0,13644.0,13289.0,14386.0,0.39974644780158997,0.41577646136283875,0.3930880129337311,0.46512851119041443,0.0,0.0,0.0,0.0,13633.0,13545.0,13446.0,14108.0,1.6874301433563232,0.03249174290133461,-0.156841578358533,-0.14407278277219088,-0.022031139582395554,0.0061072395183146,-0.0
477,5,-0.0010558741632848978,0.00013059309276286513,0.0011467182775959373,0.00668979762122035,-0.0007092877058312297,0.007881269790232182,0.015318472869694233,0.010837008245289326,-0.0005548610934056342,-0.5090617537498474,0.3366512954235077,-0.04990297928452492,0.0,0.0,0.0,0.001952590188011527,0.005418289452791214,-0.0,0.0,0.0,0.0,0.002454230561852455,0.002793819410726428,-0.0006749257445335388,13394.0,13644.0,13289.0,14386.0,0.39974644780158997,0.41577646136283875,0.3930880129337311,0.46512851119041443,0.0,0.0,0.0,0.0,13633.0,13545.0,13446.0,14108.0,1.6874301433563232,0.03144807608566553,-0.15552414755251062,-0.14449834639406292,-0.022031139582395554,0.0061072395183146,-0.0
482,5,-0.0010558741632848978,0.00013059309276286513,0.0011467182775959373,0.00668979762122035,-0.0007092877058312297,0.007881269790232182,0.009489632211625576,0.007482582703232765,-0.0005327894468791783,-0.45627105236053467,0.20171897113323212,0.018735021352767944,0.0,0.0,0.0,0.0010872493730857968,0.004747387953102589,-0.0,0.0,0.0,0.0,0.0033133234828710556,0.0027018834371119738,0.0010225687874481082,14049.0,12946.0,14140.0,13732.0,0.4423476755619049,0.371793657541275,0.44847187399864197,0.42146775126457214,0.0,0.0,0.0,0.0,13647.0,13364.0,13428.0,14433.0,1.6784025430679321,0.03144807608566553,-0.15552414755251062,-0.14449834639406292,-0.019199984148144722,0.00338246813043952,-0.0
