timestamp,dt,pos_x,pos_y,pos_z,vel_x,vel_y,vel_z,roll,pitch,yaw,agv_x,agv_y,agv_z,x_ref,y_ref,z_ref,roll_ref,pitch_ref,yaw_ref,x_vel_ref,y_vel_ref,z_vel_ref,x_torque,y_torque,z_torque,w0,w1,w2,w3,u0,u1,u2,u3,m0req,m1req,m2req,m3req,thrust0,thrust1,thrust2,thrust3,thrust_ref,roll_vicon,pitch_vicon,yaw_vicon,acc_x,acc_y,acc_z
5,5,0.0,0.0,0.0,0.0010227025486528873,-0.0003302288241684437,3.367042154422961e-05,-0.005874450784176588,-0.08394922316074371,-0.012907176278531551,-0.001019204850308597,-0.0005208539078012109,-0.005424685310572386,0.0,0.0,0.0,0.0003952573169954121,0.0009416099055670202,-0.0,0.0,0.0,0.0,0.0011818642960861325,0.02530277706682682,-0.0012358265230432153,1495.0,1495.0,1495.0,1495.0,0.0,0.0,0.0,0.0,0.0,0.0,0.0,0.0,1495.0,1495.0,1495.0,1495.0,1.6902767419815063,0.03892758385716977,-0.0723626687314391,0.06172147779260029,-0.0038351346738636494,0.0012383580906316638,0.0
30,24,0.0,0.0,0.0,-0.0011194486869499087,-0.0010810877429321408,-0.001772201736457646,-0.005874450784176588,-0.08394922316074371,-0.012907176278531551,-0.001019204850308597,-0.0005208539078012109,-0.005424685310572386,0.0,0.0,0.0,0.0003952573169954121,0.0009416099055670202,-0.0,0.0,0.0,0.0,0.0011818642960861325,0.02530277706682682,-0.0012358265230432153,1495.0,1495.0,1495.0,1495.0,0.0,0.0,0.0,0.0,0.0,0.0,0.0,0.0,1495.0,1495.0,1495.0,1495.0,1.6902767419815063,0.03884201925767107,-0.07247654868783139,0.06181626091972523,-0.0038351346738636494,0.0012383580906316638,0.0
35,5,0.0,0.0,0.0,0.0003901464806403965,0.00018574950809124857,-0.0009056323324330151,-0.00587698956951499,-0.08397020399570465,-0.012927941046655178,-0.00023244212206918746,0.00929537508636713,0.002368399640545249,0.0,0.0,0.0,0.001293639070354402,-0.001030417624861002,-0.0,0.0,0.0,0.0,0.0012543314369395375,0.025514807552099228,-0.0012929990189149976,1495.0,1495.0,1495.0,1495.0,0.0,0.0,0.0,0.0,0.0,0.0,0.0,0.0,1495.0,1495.0,1495.0,1495.0,1.69071626663208,0.038586687948923955,-0.07290081361702223,0.062113959619142664,0.004197932779788971,0.004054078832268715,0.0
40,5,0.0,0.0,0.0,6.972970822971547e-06,0.00040817350964061916,-0.00021804052812512964,-0.00587698956951499,-0.08397020399570465,-0.012927941046655178,-0.00023244212206918746,0.00929537508636713,0.002368399640545249,0.0,0.0,0.0,0.001293639070354402,-0.001030417624861002,-0.0,0.0,0.0,0.0,0.0012543314369395375,0.025514807552099228,-0.0012929990189149976,1495.0,1495.0,1495.0,1495.0,0.0,0.0,0.0,0.0,0.0,0.0,0.0,0.0,1495.0,1495.0,1495.0,1495.0,1.69071626663208,0.038664811200953976,-0.0722013455086963,0.06222289158461027,0.004197932779788971,0.004054078832268715,0.0
53,13,0.0,0.0,0.0,0.0018172168638557196,0.0005970921483822167,-0.0023120203986763954,-0.005868263076990843,-0.08397670090198517,-0.012940916232764721,-0.0003709632146637887,0.005274530034512281,0.0015914588002488017,0.0,0.0,0.0,-0.0004883453948423266,6.417365511879325e-06,-0.0,0.0,0.0,0.0,0.0012539980234578252,0.0254452396184206,-0.0013133519096300006,14891.0,12310.0,11338.0,15922.0,0.5003425478935242,0.33391112089157104,0.27990686893463135,0.5761162042617798,0.0,0.0,0.0,0.0,1495.0,1495.0,1495.0,1495.0,1.6909878253936768,0.03787448118082604,-0.07255308150756026,0.06170304175236472,-2.6148640245082788e-05,-0.0015306506538763642,0.0
58,5,6.119040790508734e-06,5.728919404646149e-06,1.0986592258177552e-07,0.0007115105981938541,4.5849086745874956e-05,0.001003206823952496,-0.005864100065082312,-0.08394227921962738,-0.01294319611042738,-0.0023099170066416264,0.000492157181724906,-8.924165740609169e-05,0.0,0.0,0.0,-0.0007143696420826018,0.0016724197193980217,-0.0,0.0,0.0,0.0,0.0012539980234578252,0.0254452396184206,-0.0013133519096300006,14891.0,12310.0,11338.0,15922.0,0.5003425478935242,0.33391112089157104,0.27990686893463135,0.5761162042617798,0.0,0.0,0.0,0.0,1495.0,1495.0,1495.0,1495.0,1.6909904479980469,0.038662532135773704,-0.07270746575121546,0.06207481802346208,-0.0068145631812512875,-0.002239095512777567,0.0
63,5,4.391406946524512e-06,7.940557225083467e-06,-7.519186965510016e-06,7.728815398877487e-05,-0.00024705694522708654,0.0013167690485715866,-0.005864100065082312,-0.08394227921962738,-0.01294319611042738,-0.0023099170066416264,0.000492157181724906,-8.924165740609169e-05,0.0,0.0,0.0,0.0003095166466664523,7.705896132392809e-05,-0.0,0.0,0.0,0.0,0.0012559116585180163,0.02548847533762455,-0.0012231864966452122,14917.0,12278.0,11368.0,15901.0,0.5021888017654419,0.3320924937725067,0.281495600938797,0.574499785900116,0.0,0.0,0.0,0.0,14910.0,12286.0,11350.0,15913.0,1.6910358667373657,0.03792093039781907,-0.07315369902825826,0.06201081168677525,-0.0003139986947644502,0.0009701644303277135,0.0
73,10,-1.253606296813814e-05,1.3446204320644028e-05,-1.4782891412323806e-05,-0.0015224687522277236,-0.0004498031339608133,-7.305532562895678e-06,-0.005864100065082312,-0.08394227921962738,-0.01294319611042738,-0.0023099170066416264,0.000492157181724906,-8.924165740609169e-05,0.0,0.0,0.0,0.0003095166466664523,7.705896132392809e-05,-0.0,0.0,0.0,0.0,0.0012559116585180163,0.02548847533762455,-0.0012231864966452122,14917.0,12278.0,11368.0,15901.0,0.5021888017654419,0.3320924937725067,0.281495600938797,0.574499785900116,0.0,0.0,0.0,0.0,14910.0,12286.0,11350.0,15913.0,1.6910358667373657,0.03860536705483211,-0.07278472923676939,0.06193390823707465,-0.0003139986947644502,0.0009701644303277135,0.0
78,5,-1.4507204468827695e-05,1.3375688467931468e-05,3.8993398447928485e-06,-0.0008455244824290276,-0.00017145927995443344,-0.0022447900846600533,-0.005867753177881241,-0.08392663300037384,-0.012930670753121376,0.00045145268086344004,0.004289316479116678,-0.00042753361049108207,0.0,0.0,0.0,0.0002286754606757313,-0.0007978580542840064,-0.0,0.0,0.0,0.0,0.0010742192389443517,0.025248227640986443,-0.0012610899284482002,14906.0,12326.0,11358.0,15891.0,0.5013921856880188,0.3348430395126343,0.2809697985649109,0.573782742023468,0.0,0.0,0.0,0.0,14842.0,12348.0,11392.0,15907.0,1.6907720565795898,0.03823795032988834,-0.07346179372501946,0.06232617081807737,0.0032505926210433245,0.0007166599971242249,0.0
91,13,-1.3766523807134945e-05,2.747704002104001e-06,-1.2421330211509485e-05,0.0001533625618321821,0.0006156963645480573,-0.0006969447713345289,-0.005867753177881241,-0.08392663300037384,-0.012930670753121376,0.00045145268086344004,0.004289316479116678,-0.00042753361049108207,0.0,0.0,0.0,0.0002286754606757313,-0.0007978580542840064,-0.0,0.0,0.0,0.0,0.0010742192389443517,0.025248227640986443,-0.0012610899284482002,14906.0,12326.0,11358.0,15891.0,0.5013921856880188,0.3348430395126343,0.2809697985649109,0.573782742023468,0.0,0.0,0.0,0.0,14842.0,12348.0,11392.0,15907.0,1.6907720565795898,0.0389363057948666,-0.07227142169544024,0.061770180957162905,0.0032505926210433245,0.0007166599971242249,0.0
96,5,-1.1598715900618117e-05,-3.032583208550932e-06,-5.393397714215098e-06,0.0003214819298591465,0.0009399130358360708,-0.0011221298482269049,-0.005867753177881241,-0.08392663300037384,-0.012930670753121376,0.00045145268086344004,0.004289316479116678,-0.00042753361049108207,0.0,0.0,0.0,0.0002286754606757313,-0.0007978580542840064,-0.0,0.0,0.0,0.0,0.0010742192389443517,0.025248227640986443,-0.0012610899284482002,14906.0,12326.0,11358.0,15891.0,0.5013921856880188,0.3348430395126343,0.2809697985649109,0.573782742023468,0.0,0.0,0.0,0.0,14842.0,12348.0,11392.0,15907.0,1.6907720565795898,0.038538490151434526,-0.07258674111975329,0.062070909257989366,0.0032505926210433245,0.0007166599971242249,0.0
101,5,2.228581479357672e-06,1.5781614592924598e-06,-4.737598374049412e-06,0.0017878685612231493,-0.0001773241674527526,-0.0005275479052215815,-0.005878255236893892,-0.08391997963190079,-0.012929613701999187,-0.0010467828251421452,0.005131804384291172,-0.002732880413532257,0.0,0.0,0.0,-0.0011299722827970982,0.00028021872276440263,-0.0,0.0,0.0,0.0,0.0012247730046510696,0.025298677384853363,-0.001241908990778029,14920.0,12313.0,11283.0,15940.0,0.5024129152297974,0.3340722322463989,0.2769819498062134,0.5775233507156372,0.0,0.0,0.0,0.0,14881.0,12361.0,11224.0,15980.0,1.6907503604888916,0.03834251042530728,-0.07317944310747565,0.062251973790300355,-0.0011416375637054443,-0.003541242331266403,0.0
106,5,3.913282853318378e-06,2.1756088699476095e-06,-9.12862378754653e-06,0.0009173115249723196,-0.0001426233648089692,0.0003159039479214698,-0.005878255236893892,-0.08391997963190079,-0.012929613701999187,-0.0010467828251421452,0.005131804384291172,-0.002732880413532257,0.0,0.0,0.0,-0.0011299722827970982,0.00028021872276440263,-0.0,0.0,0.0,0.0,0.0012247730046510696,0.025298677384853363,-0.001241908990778029,14920.0,12313.0,11283.0,15940.0,0.5024129152297974,0.3340722322463989,0.2769819498062134,0.5775233507156372,0.0,0.0,0.0,0.0,14881.0,12361.0,11224.0,15980.0,1.6907503604888916,0.03895245792579337,-0.0724439571987923,0.062149780873718335,-0.0011416375637054443,-0.003541242331266403,0.0
111,5,1.2213092304591555e-05,1.368804896628717e-05,1.3403246157395188e-05,0.0013629017630591989,-0.0014385421527549624,-0.0025774629320949316,-0.005864429287612438,-0.08391837030649185,-0.012939609587192535,0.0010266366880387068,0.002601555548608303,0.002476316876709461,0.0,0.0,0.0,0.00017451687017455697,0.0008495942456647754,-0.0,0.0,0.0,0.0,0.001234144438058138,0.025086186826229095,-0.0014102519489824772,14838.0,12382.0,11324.0,15931.0,0.4965900778770447,0.33810073137283325,0.27914977073669434,0.5768393278121948,0.0,0.0,0.0,0.0,14894.0,12316.0,11357.0,15911.0,1.6907498836517334,0.03817328643757872,-0.07352863114525462,0.0620081762837824,-0.003461328102275729,0.0005469219177030027,0.0
116,5,2.168100081689772e-06,1.2539739145722706e-05,-4.686846295953728e-06,-0.0006602383218705654,-0.0004376196884550154,0.0011398260248824954,-0.005864429287612438,-0.08391837030649185,-0.012939609587192535,0.0010266366880387068,0.002601555548608303,0.002476316876709461,0.0,0.0,0.0,0.00017451687017455697,0.0008495942456647754,-0.0,0.0,0.0,0.0,0.001234144438058138,0.025086186826229095,-0.0014102519489824772,14838.0,12382.0,11324.0,15931.0,0.4965900778770447,0.33810073137283325,0.27914977073669434,0.5768393278121948,0.0,0.0,0.0,0.0,14894.0,12316.0,11357.0,15911.0,1.6907498836517334,0.03839365554064492,-0.07287690867904477,0.062035903217613375,-0.003461328102275729,0.0005469219177030027,0.0
121,5,-2.3720472199784126e-06,7.4739582487381995e-06,4.291322966309963e-06,-0.0008089130278676748,0.00043284581624902785,-0.000621449900791049,-0.005865493789315224,-0.08393003791570663,-0.012958412058651447,-0.0010866490192711353,0.005357186775654554,-0.0026561326812952757,0.0,0.0,0.0,0.0005456398939713836,-0.0006047398201189935,-0.0,0.0,0.0,0.0,0.001234144438058138,0.025086186826229095,-0.0014102519489824772,14838.0,12382.0,11324.0,15931.0,0.4965900778770447,0.33810073137283325,0.27914977073669434,0.5768393278121948,0.0,0.0,0.0,0.0,14894.0,12316.0,11357.0,15911.0,1.6909606456756592,0.03818231185075783,-0.073421418732535,0.062365746646186514,0.0024640746414661407,0.0017102047568187118,0.0
126,5,-6.525044227601029e-06,7.340310276049422e-06,-1.073309249477461e-05,-0.0008219248265959322,0.00018917607667390257,0.0015543497866019607,-0.005865493789315224,-0.08393003791570663,-0.012958412058651447,-0.0010866490192711353,0.005357186775654554,-0.0026561326812952757,0.0,0.0,0.0,0.0005456398939713836,-0.0006047398201189935,-0.0,0.0,0.0,0.0,0.001234144438058138,0.025086186826229095,-0.0014102519489824772,14838.0,12382.0,11324.0,15931.0,0.4965900778770447,0.33810073137283325,0.27914977073669434,0.5768393278121948,0.0,0.0,0.0,0.0,14894.0,12316.0,11357.0,15911.0,1.6909606456756592,0.03838096489365544,-0.07298908404736933,0.06198114375856395,0.0024640746414661407,0.0017102047568187118,0.0
131,5,-4.40855501437909e-06,2.2357180569088086e-06,-3.502284380374476e-05,-7.479126361431554e-05,0.000688221538439393,0.003536510281264782,-0.005882906727492809,-0.08394362032413483,-0.012952664867043495,-0.0020740742329508066,0.0049418434500694275,0.0031525203958153725,0.0,0.0,0.0,-0.0002133463422069326,-0.0007651058840565383,-0.0,0.0,0.0,0.0,0.0012485291808843613,0.025093447417020798,-0.0012790433829650283,14894.0,12313.0,11398.0,15881.0,0.500557541847229,0.3340849280357361,0.2830941081047058,0.5730354189872742,0.0,0.0,0.0,0.0,14861.0,12355.0,11351.0,15912.0,1.6913572549819946,0.03848792480250429,-0.07235284638584168,0.06187334255613543,0.003118234220892191,-0.0006688505527563393,0.0
139,8,-9.657050213718321e-06,2.5228530375898117e-06,-2.7030257115256973e-05,0.0004332172102294862,0.0004233297659084201,0.0013347561471164227,-0.005882906727492809,-0.08394362032413483,-0.012952664867043495,-0.0020740742329508066,0.0049418434500694275,0.0031525203958153725,0.0,0.0,0.0,-0.0002133463422069326,-0.0007651058840565383,-0.0,0.0,0.0,0.0,0.0012485291808843613,0.025093447417020798,-0.0012790433829650283,14894.0,12313.0,11398.0,15881.0,0.500557541847229,0.3340849280357361,0.2830941081047058,0.5730354189872742,0.0,0.0,0.0,0.0,14861.0,12355.0,11351.0,15912.0,1.6913572549819946,0.03859972766840542,-0.07264545116039023,0.062050466963193614,0.003118234220892191,-0.0006688505527563393,0.0
144,5,-3.5668474538397277e-06,2.58837121691613e-06,-1.0926491086138412e-05,0.0009041111916303635,0.00016146972484420985,-0.00139854964800179,-0.005883209407329559,-0.08396120369434357,-0.01297817938029766,-0.0001329673978034407,0.0026643690653145313,-0.00025312829529866576,0.0,0.0,0.0,-0.0005019151722081006,0.00038556710933335125,-0.0,0.0,0.0,0.0,0.0009574340074323118,0.02544955350458622,-0.001406308962032199,14895.0,12354.0,11294.0,15921.0,0.5006350874900818,0.3364793062210083,0.2775818705558777,0.5760540962219238,0.0,0.0,0.0,0.0,14884.0,12327.0,11378.0,15895.0,1.6912357807159424,0.0388048509705124,-0.07283362948627095,0.06223858253032891,-0.001571288681589067,-0.0015734140761196613,0.0
150,5,-7.877011739765294e-06,3.720117774719256e-06,-2.056333323707804e-05,-0.0001555752824060619,-7.122170791262761e-05,0.0005970012280158699,-0.005883209407329559,-0.08396120369434357,-0.01297817938029766,-0.0001329673978034407,0.0026643690653145313,-0.00025312829529866576,0.0,0.0,0.0,-0.0005019151722081006,0.00038556710933335125,-0.0,0.0,0.0,0.0,0.0009574340074323118,0.02544955350458622,-0.001406308962032199,14895.0,12354.0,11294.0,15921.0,0.5006350874900818,0.3364793062210083,0.2775818705558777,0.5760540962219238,0.0,0.0,0.0,0.0,14884.0,12327.0,11378.0,15895.0,1.6912357807159424,0.03867614866841855,-0.07198256465630794,0.06154950396976383,-0.001571288681589067,-0.0015734140761196613,0.0
155,5,-1.1141897857669392e-06,2.1500748061953345e-06,-8.47101637191372e-06,0.0007493085577152669,0.00015991648251656443,-0.0012122775660827756,-0.005893596448004246,-0.08395855128765106,-0.012971549294888973,-0.0010483592050150037,0.0034457999281585217,0.0022530965507030487,0.0,0.0,0.0,9.17629586183466e-05,-0.0001537865464342758,-0.0,0.0,0.0,0.0,0.0012995983706787229,0.025208448991179466,-0.0012997661251574755,14888.0,12314.0,11381.0,15900.0,0.5001264810562134,0.3341301679611206,0.2822110056877136,0.5744930505752563,0.0,0.0,0.0,0.0,14907.0,12338.0,11314.0,15909.0,1.6917736530303955,0.03850845770631332,-0.07255261768034807,0.06209874765373252,0.0006269205478020012,0.00028775190003216267,0.0
160,5,3.614683009800501e-06,-4.982784503226867e-06,3.2667737741576275e-06,0.0008671881514601409,0.0009199096821248531,-0.0018934458494186401,-0.005893596448004246,-0.08395855128765106,-0.012971549294888973,-0.0010483592050150037,0.0034457999281585217,0.0022530965507030487,0.0,0.0,0.0,9.17629586183466e-05,-0.0001537865464342758,-0.0,0.0,0.0,0.0,0.0012995983706787229,0.025208448991179466,-0.0012997661251574755,14888.0,12314.0,11381.0,15900.0,0.5001264810562134,0.3341301679611206,0.2822110056877136,0.5744930505752563,0.0,0.0,0.0,0.0,14907.0,12338.0,11314.0,15909.0,1.6917736530303955,0.03842572192159526,-0.07292278952555628,0.06149426156784509,0.0006269205478020012,0.00028775190003216267,0.0
165,5,-9.422816219739616e-06,5.5377149692503735e-06,-9.60329816734884e-06,-0.0012176246382296085,-0.0008944960427470505,0.0007870303234085441,-0.005909713450819254,-0.08394312113523483,-0.012968307361006737,-0.0003485482884570956,0.0045830425806343555,-0.0014302858617156744,0.0,0.0,0.0,-0.001108852680772543,0.0008026195573620498,-0.0,0.0,0.0,0.0,0.0011623050086200237,0.025139914825558662,-0.00133325660135597,14869.0,12361.0,11341.0,15915.0,0.4987879991531372,0.33688777685165405,0.2800667881965637,0.5756146907806396,0.0,0.0,0.0,0.0,14861.0,12374.0,11319.0,15928.0,1.6916353702545166,0.03881748682032095,-0.07233200120466737,0.06195880009296839,-0.0032716593705117702,-0.003476874204352498,0.0
170,5,7.379815087915631e-06,1.0615268365654629e-05,2.9467656759152305e-07,0.0015292658936232328,-0.000967104802839458,-0.0008729448891244829,-0.005909713450819254,-0.08394312113523483,-0.012968307361006737,-0.0003485482884570956,0.0045830425806343555,-0.0014302858617156744,0.0,0.0,0.0,-0.001108852680772543,0.0008026195573620498,-0.0,0.0,0.0,0.0,0.0011623050086200237,0.025139914825558662,-0.00133325660135597,14869.0,12361.0,11341.0,15915.0,0.4987879991531372,0.33688777685165405,0.2800667881965637,0.5756146907806396,0.0,0.0,0.0,0.0,14861.0,12374.0,11319.0,15928.0,1.6916353702545166,0.038246174741917376,-0.07333311254758794,0.06228129194998034,-0.0032716593705117702,-0.003476874204352498,0.0
175,5,2.5838330657279585e-06,3.139922100103831e-08,2.4284781829919666e-05,3.618852133513428e-05,0.0008832223247736692,-0.003227990586310625,-0.005950257182121277,-0.0839199647307396,-0.013057492673397064,-0.004264818038791418,-0.004502815660089254,-0.012601985596120358,0.0,0.0,0.0,0.0011753570288419724,0.0014168532798066735,-0.0,0.0,0.0,0.0,0.0010466076200827956,0.025569356977939606,-0.002423916943371296,14771.0,12481.0,11159.0,16038.0,0.4918380081653595,0.34392282366752625,0.27046123147010803,0.5850136876106262,0.0,0.0,0.0,0.0,14927.0,12298.0,11356.0,15897.0,1.6915682554244995,0.03881624415714558,-0.07360684403930591,0.061542133755043714,-0.005775184836238623,0.003685256466269493,0.0
180,5,-9.292905815527774e-06,1.6287835023831576e-05,-6.980463496120137e-08,-0.0014107332099229097,-0.0015974834095686674,0.0016313540982082486,-0.005950257182121277,-0.0839199647307396,-0.013057492673397064,-0.004264818038791418,-0.004502815660089254,-0.012601985596120358,0.0,0.0,0.0,0.0011753570288419724,0.0014168532798066735,-0.0,0.0,0.0,0.0,0.0010466076200827956,0.025569356977939606,-0.002423916943371296,14771.0,12481.0,11159.0,16038.0,0.4918380081653595,0.34392282366752625,0.27046123147010803,0.5850136876106262,0.0,0.0,0.0,0.0,14927.0,12298.0,11356.0,15897.0,1.6915682554244995,0.038220388778209456,-0.07260766795184166,0.062160527147631255,-0.005775184836238623,0.003685256466269493,0.0
185,5,-5.144243459653808e-06,1.861855707829818e-05,1.0479810953256674e-05,-6.645385292358696e-05,-0.0009186799870803952,-0.0006134122377261519,-0.005919376853853464,-0.08393463492393494,-0.01315860915929079,0.004909159149974585,-0.0008090719929896295,-0.06762884557247162,0.0,0.0,0.0,0.0019371079979464412,-0.0013090110151097178,-0.0,0.0,0.0,0.0,0.00118799798656255,0.02529546245932579,0.0012260510120540857,15411.0,11672.0,12021.0,15420.0,0.5379050970077515,0.2979232370853424,0.31737402081489563,0.5385713577270508,0.0,0.0,0.0,0.0,14586.0,12691.0,10960.0,16185.0,1.693450689315796,0.038060936072421954,-0.07294262444913698,0.06237588132613514,0.005341544281691313,0.006080432329326868,0.0
190,5,-8.287997843581252e-07,-5.807819434267003e-06,-4.414785962580936e-06,0.0004912717267870903,0.002563693094998598,0.0015419868286699057,-0.005919376853853464,-0.08393463492393494,-0.01315860915929079,0.004909159149974585,-0.0008090719929896295,-0.06762884557247162,0.0,0.0,0.0,0.0019371079979464412,-0.0013090110151097178,-0.0,0.0,0.0,0.0,0.00118799798656255,0.02529546245932579,0.0012260510120540857,15411.0,11672.0,12021.0,15420.0,0.5379050970077515,0.2979232370853424,0.31737402081489563,0.5385713577270508,0.0,0.0,0.0,0.0,14586.0,12691.0,10960.0,16185.0,1.693450689315796,0.038998137118556035,-0.07256778167362614,0.06132227330279671,0.005341544281691313,0.006080432329326868,0.0
196,5,-5.37803998668096e-06,-2.8193114758323645e-06,-8.54027530294843e-06,-0.0003494001575745642,0.0006668563582934439,0.001111853402107954,-0.00585190812125802,-0.08385862410068512,-0.012784830294549465,0.010712450370192528,0.010886973701417446,0.005341744516044855,0.0,0.0,0.0,-0.003069014521315694,0.00044974201591685414,-0.0,0.0,0.0,0.0,0.0010432533454149961,0.02551787532866001,-0.0018230394925922155,15288.0,11848.0,11834.0,15550.0,0.528885543346405,0.3076472580432892,0.306902140378952,0.5482004880905151,0.0,0.0,0.0,0.0,13976.0,13412.0,9933.0,16777.0,1.6955854892730713,0.03927019055439204,-0.07209879890876018,0.06166278823861907,-0.0018375238869339228,-0.009645526297390461,0.0
201,5,1.8820288460119627e-05,-1.2789098036591895e-05,-1.1571382856345735e-05,0.00276403920724988,0.0014631168451160192,0.0008084742585197091,-0.00585190812125802,-0.08385862410068512,-0.012784830294549465,0.010712450370192528,0.010886973701417446,0.005341744516044855,0.0,0.0,0.0,-0.003069014521315694,0.00044974201591685414,-0.0,0.0,0.0,0.0,0.0010432533454149961,0.02551787532866001,-0.0018230394925922155,15288.0,11848.0,11834.0,15550.0,0.528885543346405,0.3076472580432892,0.306902140378952,0.5482004880905151,0.0,0.0,0.0,0.0,13976.0,13412.0,9933.0,16777.0,1.6955854892730713,0.03873567295328317,-0.07253991733360968,0.06204122850111724,-0.0018375238869339228,-0.009645526297390461,0.0
206,5,4.397219527163543e-06,-2.95965037366841e-07,2.676563553904998e-06,-0.0006251524901017547,-0.0009139291360042989,-0.0013863638741895556,-0.00585190812125802,-0.08385862410068512,-0.012784830294549465,0.010712450370192528,0.010886973701417446,0.005341744516044855,0.0,0.0,0.0,-0.0017763209762051702,0.002574183978140354,-0.0,0.0,0.0,0.0,0.0010432533454149961,0.02551787532866001,-0.0018230394925922155,15288.0,11848.0,11834.0,15550.0,0.528885543346405,0.3076472580432892,0.306902140378952,0.5482004880905151,0.0,0.0,0.0,0.0,13976.0,13412.0,9933.0,16777.0,1.6877018213272095,0.039103401115459104,-0.07195781373144972,0.061396451894144215,-0.010468537919223309,-0.005556806921958923,0.0
211,5,7.955140063131694e-06,-2.6286613774573198e-06,-7.773537618049886e-06,0.00017688944353722036,-8.564809832023457e-05,0.000699466560035944,-0.005902702454477549,-0.08367111533880234,-0.013373062014579773,0.039966944605112076,-0.043431200087070465,-0.1576395183801651,0.0,0.0,0.0,-0.0017763209762051702,0.002574183978140354,-0.0,0.0,0.0,0.0,0.0013527178671211004,0.0257427841424942,-0.003798334626480937,13630.0,13711.0,9557.0,17028.0,0.41481781005859375,0.42007672786712646,0.19327156245708466,0.6634020805358887,0.0,0.0,0.0,0.0,16320.0,10243.0,13198.0,14494.0,1.6877018213272095,0.03891113112653716,-0.0719113869235472,0.061339326486021827,-0.010468537919223309,-0.005556806921958923,0.0
216,5,2.0975876395823434e-05,1.1704344615282025e-05,1.7122860299423337e-05,0.001633244100958109,-0.001754219876602292,-0.0027077810373157263,-0.005902702454477549,-0.08367111533880234,-0.013373062014579773,0.039966944605112076,-0.043431200087070465,-0.1576395183801651,0.0,0.0,0.0,9.740137465996668e-05,0.00017258066509384662,-0.0,0.0,0.0,0.0,0.0013527178671211004,0.0257427841424942,-0.003798334626480937,13630.0,13711.0,9557.0,17028.0,0.41481781005859375,0.42007672786712646,0.19327156245708466,0.6634020805358887,0.0,0.0,0.0,0.0,16320.0,10243.0,13198.0,14494.0,1.700093388557434,0.03921706400722852,-0.07297253773697834,0.06189047878662269,-0.0007069957791827619,0.0003069350204896182,0.0
221,5,-1.2472891285142396e-05,-6.246656084840652e-06,5.770230200141668e-05,-0.0033605543430894613,0.0014524321304634213,-0.005952645558863878,-0.00587442796677351,-0.08372677117586136,-0.013234801590442657,-0.007954719476401806,0.07236741483211517,0.08078058809041977,0.0,0.0,0.0,9.740137465996668e-05,0.00017258066509384662,-0.0,0.0,0.0,0.0,0.0016559354262426496,0.025518348440527916,0.0007841043407097459,15641.0,11291.0,12347.0,15235.0,0.5549649000167847,0.27741101384162903,0.33604249358177185,0.5250322222709656,0.0,0.0,0.0,0.0,13564.0,13774.0,9725.0,16960.0,1.700093388557434,0.039161342206734596,-0.07275773473294156,0.06116703824901417,-0.0007069957791827619,0.0003069350204896182,0.0
226,5,5.989224973745877e-06,-1.5534118574578315e-05,0.00010594933701213449,0.0008712321287021041,0.0016954683233052492,-0.008170702494680882,-0.00587442796677351,-0.08372677117586136,-0.013234801590442657,-0.007954719476401806,0.07236741483211517,0.08078058809041977,0.0,0.0,0.0,-0.0017422219971194863,-0.003098295070230961,-0.0,0.0,0.0,0.0,0.0016559354262426496,0.025518348440527916,0.0007841043407097459,15641.0,11291.0,12347.0,15235.0,0.5549649000167847,0.27741101384162903,0.33604249358177185,0.5250322222709656,0.0,0.0,0.0,0.0,13564.0,13774.0,9725.0,16960.0,1.6971931457519531,0.040422970154564905,-0.0742517989963726,0.06111227074497498,0.012670815922319889,-0.00548078678548336,0.0
231,5,-1.8506068954593502e-05,-2.191022394981701e-05,0.00017880284576676786,-0.0025909424293786287,0.0014433199539780617,-0.012010701932013035,-0.005631675943732262,-0.08390302956104279,-0.013675857335329056,0.03340708464384079,-0.025109946727752686,-0.03298252075910568,0.0,0.0,0.0,-0.0017422219971194863,-0.003098295070230961,-0.0,0.0,0.0,0.0,0.00032868707785382867,0.02555747888982296,-0.004063044674694538,14255.0,13218.0,10300.0,16528.0,0.45619988441467285,0.38868090510368347,0.2274896204471588,0.6232151389122009,0.0,0.0,0.0,0.0,15402.0,11857.0,11911.0,15426.0,1.6971931457519531,0.04123244136324578,-0.0757232636557405,0.06181180187849431,0.012670815922319889,-0.00548078678548336,0.0
236,5,-4.8293011786881834e-05,-6.100814789533615e-05,0.0002860075910575688,-0.004610810428857803,0.005269079003483057,-0.017668848857283592,-0.005631675943732262,-0.08390302956104279,-0.013675857335329056,0.03340708464384079,-0.025109946727752686,-0.03298252075910568,0.0,0.0,0.0,-0.0017492095939815044,-0.0023876724299043417,-0.0,0.0,0.0,0.0,0.00032868707785382867,0.02555747888982296,-0.004063044674694538,14255.0,13218.0,10300.0,16528.0,0.45619988441467285,0.38868090510368347,0.2274896204471588,0.6232151389122009,0.0,0.0,0.0,0.0,15402.0,11857.0,11911.0,15426.0,1.7064685821533203,0.04311409934819561,-0.07762434750330537,0.061296193829840924,0.009818018414080143,-0.005532842129468918,0.0
241,5,-0.00017683497571852058,-7.549079600721598e-05,0.0002591079392004758,-0.017269359901547432,0.0038455496542155743,-0.003839584067463875,-0.005306122824549675,-0.0837680920958519,-0.013371448032557964,0.061353038996458054,-0.02010217495262623,-0.08381994068622589,0.0,0.0,0.0,-0.0017492095939815044,-0.0023876724299043417,-0.0,0.0,0.0,0.0,-0.0008265433716587722,0.022861773148179054,-0.00013082646182738245,14436.0,12936.0,10441.0,16407.0,0.46857988834381104,0.3712003231048584,0.2342870831489563,0.6136345267295837,0.0,0.0,0.0,0.0,14089.0,13405.0,9976.0,16614.0,1.7064685821533203,0.05036212566326248,-0.07020732720989503,0.060286868396874,0.009818018414080143,-0.005532842129468918,0.0
246,5,-0.0002568460477050394,-8.958645048551261e-05,0.000443039316451177,-0.016509070992469788,0.003229698399081826,-0.02360759861767292,-0.005306122824549675,-0.0837680920958519,-0.013371448032557964,0.061353038996458054,-0.02010217495262623,-0.08381994068622589,0.0,0.0,0.0,-0.004434454254806042,-0.015114032663404942,-0.0,0.0,0.0,0.0,-0.0008265433716587722,0.022861773148179054,-0.00013082646182738245,14436.0,12936.0,10441.0,16407.0,0.46857988834381104,0.3712003231048584,0.2342870831489563,0.6136345267295837,0.0,0.0,0.0,0.0,14089.0,13405.0,9976.0,16614.0,1.804992437362671,0.05327050610735273,-0.07413011234489521,0.06076013671306912,0.06573351472616196,-0.014836161397397518,0.0
251,5,-0.00033734182943589985,-0.00012146359222242609,0.0006400197744369507,-0.016263123601675034,0.005117136053740978,-0.03308069333434105,-0.002857481362298131,-0.08168986439704895,-0.013459635898470879,0.255266010761261,-0.29731547832489014,0.08240443468093872,0.0,0.0,0.0,-0.004434454254806042,-0.015114032663404942,-0.0,0.0,0.0,0.0,-0.002380845369771123,0.01819653809070587,-0.0030639953911304474,15482.0,11966.0,12254.0,15054.0,0.5431582927703857,0.3142735958099365,0.3306733965873718,0.51198810338974,0.0,0.0,0.0,0.0,15127.0,12470.0,11864.0,15317.0,1.804992437362671,0.05571969312456522,-0.07938493536060015,0.0609994122148731,0.06573351472616196,-0.014836161397397518,0.0
257,5,-0.0005878717638552189,-0.000207207485800609,0.0010484217200428247,-0.025068050250411034,0.006771175656467676,-0.041575558483600616,-0.002857481362298131,-0.08168986439704895,-0.013459635898470879,0.255266010761261,-0.29731547832489014,0.08240443468093872,0.0,0.0,0.0,-0.005948128178715706,-0.014480603858828545,-0.0,0.0,0.0,0.0,-0.002380845369771123,0.01819653809070587,-0.0030639953911304474,15482.0,11966.0,12254.0,15054.0,0.5431582927703857,0.3142735958099365,0.3306733965873718,0.51198810338974,0.0,0.0,0.0,0.0,15127.0,12470.0,11864.0,15317.0,1.8011454343795776,0.06083039183290113,-0.09219216201065207,0.061163597455116965,0.06284409761428833,-0.01985788531601429,0.0
262,5,-0.0007329576183110476,-0.0002588890492916107,0.001257799449376762,-0.027437524870038033,0.008910256437957287,-0.0417555496096611,-0.0003210144932381809,-0.07864610850811005,-0.013866378925740719,0.36988207697868347,-0.5780866742134094,-0.04598437249660492,0.0,0.0,0.0,-0.005948128178715706,-0.014480603858828545,-0.0,0.0,0.0,0.0,-0.004102271981537342,0.01316885743290186,0.0005604115431196988,14972.0,13134.0,12645.0,14360.0,0.5060616135597229,0.3834083378314972,0.3536270558834076,0.463371604681015,0.0,0.0,0.0,0.0,14584.0,13369.0,11811.0,15092.0,1.8011454343795776,0.06580947147904688,-0.09977370302071586,0.06166427801062619,0.06284409761428833,-0.01985788531601429,0.0
267,5,-0.0007329576183110476,-0.0002588890492916107,0.001257799449376762,-0.027437524870038033,0.008910256437957287,-0.0417555496096611,-0.0003210144932381809,-0.07864610850811005,-0.013866378925740719,0.36988207697868347,-0.5780866742134094,-0.04598437249660492,0.0,0.0,0.0,-0.009786965325474739,-0.023108595982193947,-0.0,0.0,0.0,0.0,-0.004102271981537342,0.01316885743290186,0.0005604115431196988,14972.0,13134.0,12645.0,14360.0,0.5060616135597229,0.3834083378314972,0.3536270558834076,0.463371604681015,0.0,0.0,0.0,0.0,14584.0,13369.0,11811.0,15092.0,1.9205232858657837,0.06580947147904688,-0.09977370302071586,0.06166427801062619,0.10692655295133591,-0.034838832914829254,0.0
272,5,-0.0009107599034905434,-0.0003187683178111911,0.001453827484510839,-0.03231127932667732,0.010749618522822857,-0.04022557660937309,0.009358290582895279,-0.05989769846200943,-0.013792810030281544,0.61087965965271,-1.454981803894043,0.02779024839401245,0.0,0.0,0.0,-0.009786965325474739,-0.023108595982193947,-0.0,0.0,0.0,0.0,-0.006499720737338066,0.0002689117391128093,-0.0016677477397024632,14143.0,15042.0,13294.0,14191.0,0.44864147901535034,0.5110974907875061,0.39339113235473633,0.4518623352050781,0.0,0.0,0.0,0.0,13919.0,14288.0,11779.0,15033.0,1.9205232858657837,0.06986226907903502,-0.10851343931920947,0.061964759315682225,0.10692655295133591,-0.034838832914829254,0.0
277,5,-0.0009107599034905434,-0.0003187683178111911,0.001453827484510839,-0.03231127932667732,0.010749618522822857,-0.04022557660937309,0.009358290582895279,-0.05989769846200943,-0.013792810030281544,0.61087965965271,-1.454981803894043,0.02779024839401245,0.0,0.0,0.0,-0.009786965325474739,-0.023108595982193947,-0.0,0.0,0.0,0.0,-0.006499720737338066,0.0002689117391128093,-0.0016677477397024632,14143.0,15042.0,13294.0,14191.0,0.44864147901535034,0.5110974907875061,0.39339113235473633,0.4518623352050781,0.0,0.0,0.0,0.0,13919.0,14288.0,11779.0,15033.0,1.9205232858657837,0.06986226907903502,-0.10851343931920947,0.061964759315682225,0.10692655295133591,-0.034838832914829254,0.0
282,5,-0.0009107599034905434,-0.0003187683178111911,0.001453827484510839,-0.03231127932667732,0.010749618522822857,-0.04022557660937309,0.017265338450670242,-0.04002748429775238,-0.013614046387374401,0.6856827139854431,-1.837071418762207,-0.005280114244669676,0.0,0.0,0.0,-0.011508950032293797,-0.02655946835875511,-0.0,0.0,0.0,0.0,-0.00858840998262167,-0.007520516403019428,-0.0006817418616265059,13795.0,15558.0,13756.0,13457.0,0.42556530237197876,0.5487619042396545,0.423045814037323,0.40377235412597656,0.0,0.0,0.0,0.0,14553.0,14764.0,14016.0,13348.0,1.9720304012298584,0.06986226907903502,-0.10851343931920947,0.061964759315682225,0.12618422508239746,-0.042066894471645355,0.0
287,5,-0.00184015987906605,-0.00042945414315909147,0.0022482925560325384,-0.04123728722333908,0.006743134465068579,-0.036538947373628616,0.017265338450670242,-0.04002748429775238,-0.013614046387374401,0.6856827139854431,-1.837071418762207,-0.005280114244669676,0.0,0.0,0.0,-0.011508950032293797,-0.02655946835875511,-0.0,0.0,0.0,0.0,-0.00858840998262167,-0.007520516403019428,-0.0006817418616265059,13795.0,15558.0,13756.0,13457.0,0.42556530237197876,0.5487619042396545,0.423045814037323,0.40377235412597656,0.0,0.0,0.0,0.0,14553.0,14764.0,14016.0,13348.0,1.9720304012298584,0.08145578211960701,-0.15056607888532672,0.06550966278834505,0.12618422508239746,-0.042066894471645355,0.0
292,5,-0.0020696569699794054,-0.0004396095173433423,0.002414599759504199,-0.044034551829099655,0.003915900364518166,-0.03457245975732803,0.017265338450670242,-0.04002748429775238,-0.013614046387374401,0.6856827139854431,-1.837071418762207,-0.005280114244669676,0.0,0.0,0.0,-0.0072572845965623856,-0.033271051943302155,-0.0,0.0,0.0,0.0,-0.00858840998262167,-0.007520516403019428,-0.0006817418616265059,13795.0,15558.0,13756.0,13457.0,0.42556530237197876,0.5487619042396545,0.423045814037323,0.40377235412597656,0.0,0.0,0.0,0.0,14553.0,14764.0,14016.0,13348.0,2.0557210445404053,0.08435327232509424,-0.16028830696093177,0.06625316097988798,0.16477489471435547,-0.02765285223722458,0.0
297,5,-0.002292793011292815,-0.0004317044804338366,0.0025442105252295732,-0.04439014941453934,0.000617755576968193,-0.029382267966866493,0.02250593528151512,-0.024469342082738876,-0.013863946311175823,0.6194495558738708,-2.081209182739258,0.07186427712440491,0.0,0.0,0.0,-0.0072572845965623856,-0.033271051943302155,-0.0,0.0,0.0,0.0,-0.010776598006486893,-0.019299903884530067,-0.0005095432279631495,13984.0,16433.0,15203.0,12485.0,0.4380272924900055,0.6156590580940247,0.5227084159851074,0.3441285192966461,0.0,0.0,0.0,0.0,14031.0,16424.0,15557.0,11991.0,2.0557210445404053,0.08486016218303165,-0.16995768752677717,0.06712291394452428,0.17909564077854156,-0.0046965694054961205,0.0
302,5,-0.002515277126803994,-0.00040815756074152887,0.00269974279217422,-0.044454168528318405,-0.0025785290636122227,-0.03041677549481392,0.02250593528151512,-0.024469342082738876,-0.013863946311175823,0.6194495558738708,-2.081209182739258,0.07186427712440491,0.0,0.0,0.0,-0.0012153147254139185,-0.03565675765275955,-0.0,0.0,0.0,0.0,-0.010776598006486893,-0.019299903884530067,-0.0005095432279631495,13984.0,16433.0,15203.0,12485.0,0.4380272924900055,0.6156590580940247,0.5227084159851074,0.3441285192966461,0.0,0.0,0.0,0.0,14031.0,16424.0,15557.0,11991.0,2.0848922729492188,0.08454949618709891,-0.17877482348714765,0.06806703645398952,0.17909564077854156,-0.0046965694054961205,0.0
307,5,-0.002743812743574381,-0.0003850257198791951,0.002868837909772992,-0.04520593211054802,-0.0038072315510362387,-0.032458119094371796,0.028456619009375572,0.0009011161746457219,-0.013498499058187008,0.37678614258766174,-2.1548867225646973,0.08950385451316833,0.0,0.0,0.0,-0.0012153147254139185,-0.03565675765275955,-0.0,0.0,0.0,0.0,-0.009216716513037682,-0.032750971615314484,0.0006149226101115346,13939.0,16781.0,16030.0,11876.0,0.4350508749485016,0.6433789730072021,0.5843901038169861,0.3092104196548462,0.0,0.0,0.0,0.0,13895.0,16788.0,16286.0,11559.0,2.0848922729492188,0.08259394613218624,-0.187624842020343,0.06849201442712499,0.17909564077854156,-0.0046965694054961205,0.0
313,5,-0.0029634064994752407,-0.0003253473259974271,0.0030422883573919535,-0.04443362355232239,-0.008684299886226654,-0.03379730507731438,0.028456619009375572,0.0009011161746457219,-0.013498499058187008,0.37678614258766174,-2.1548867225646973,0.08950385451316833,0.0,0.0,0.0,0.003123487811535597,-0.036514487117528915,-0.0,0.0,0.0,0.0,-0.009216716513037682,-0.032750971615314484,0.0006149226101115346,13939.0,16781.0,16030.0,11876.0,0.4350508749485016,0.6433789730072021,0.5843901038169861,0.3092104196548462,0.0,0.0,0.0,0.0,13895.0,16788.0,16286.0,11559.0,2.0990326404571533,0.08029244428927615,-0.19506919779173926,0.0696297640406407,0.18464504182338715,0.012152518145740032,0.0
318,5,-0.0031698178499937057,-0.0002478188544046134,0.0032468244899064302,-0.04254280775785446,-0.012777136638760567,-0.03806326538324356,0.029973609372973442,0.017216484993696213,-0.013359053060412407,0.012168653309345245,-1.9879181385040283,0.07569413632154465,0.0,0.0,0.0,0.003123487811535597,-0.036514487117528915,-0.0,0.0,0.0,0.0,-0.005605946760624647,-0.036108676344156265,0.0010078384075313807,13323.0,17219.0,17151.0,11852.0,0.39523187279701233,0.6790891289710999,0.6735021471977234,0.3078978359699249,0.0,0.0,0.0,0.0,13403.0,17361.0,17113.0,11603.0,2.0990326404571533,0.07660689029354657,-0.20265016815540832,0.07049278719158393,0.18464504182338715,0.012152518145740032,0.0
323,5,-0.0033337038476020098,-0.0001798974844859913,0.003343160031363368,-0.03668344020843506,-0.013261419720947742,-0.026785561814904213,0.029973609372973442,0.017216484993696213,-0.013359053060412407,0.012168653309345245,-1.9879181385040283,0.07569413632154465,0.0,0.0,0.0,0.01199053693562746,-0.03508666902780533,-0.0,0.0,0.0,0.0,-0.005605946760624647,-0.036108676344156265,0.0010078384075313807,13323.0,17219.0,17151.0,11852.0,0.39523187279701233,0.6790891289710999,0.6735021471977234,0.3078978359699249,0.0,0.0,0.0,0.0,13403.0,17361.0,17113.0,11603.0,2.0942575931549072,0.07218649270326613,-0.20787453275984805,0.07126839833729129,0.17701244354248047,0.0465434305369854,0.0
328,5,-0.003480374114587903,-8.56508340802975e-05,0.003470286261290312,-0.03227381408214569,-0.016614167019724846,-0.025969382375478745,0.027545113116502762,0.0387781523168087,-0.012980899773538113,-0.3727163076400757,-1.6169953346252441,0.07996591180562973,0.0,0.0,0.0,0.01199053693562746,-0.03508666902780533,-0.0,0.0,0.0,0.0,-0.001045507611706853,-0.038488853722810745,-0.0001642552379053086,13323.0,17219.0,17151.0,11852.0,0.39523187279701233,0.6790891289710999,0.6735021471977234,0.3078978359699249,0.0,0.0,0.0,0.0,12974.0,17435.0,17342.0,12156.0,2.0942575931549072,0.0674935191338216,-0.21212806751275148,0.07151379552451764,0.17701244354248047,0.0465434305369854,0.0
333,5,-0.003600251628085971,-9.961615432985127e-06,0.003553012851625681,-0.02729482203722,-0.01572837308049202,-0.02031494863331318,0.027545113116502762,0.0387781523168087,-0.012980899773538113,-0.3727163076400757,-1.6169953346252441,0.07996591180562973,0.0,0.0,0.0,0.01649636961519718,-0.02878684177994728,-0.0,0.0,0.0,0.0,-0.001045507611706853,-0.038488853722810745,-0.0001642552379053086,13323.0,17219.0,17151.0,11852.0,0.39523187279701233,0.6790891289710999,0.6735021471977234,0.3078978359699249,0.0,0.0,0.0,0.0,12974.0,17435.0,17342.0,12156.0,2.022066354751587,0.06274641233958315,-0.21484174079894755,0.07152142087160969,0.14022396504878998,0.06182391941547394,0.0
338,5,-0.003674983512610197,5.89653427596204e-05,0.0035906063858419657,-0.019885750487446785,-0.014562584459781647,-0.012637187726795673,0.02336159721016884,0.05030670762062073,-0.012863006442785263,-0.6914504766464233,-1.199676752090454,0.05068070814013481,0.0,0.0,0.0,0.01649636961519718,-0.02878684177994728,-0.0,0.0,0.0,0.0,-0.001045507611706853,-0.038488853722810745,-0.0001642552379053086,12519.0,17511.0,17284.0,12598.0,0.34614643454551697,0.7034492492675781,0.6844571828842163,0.35083940625190735,0.0,0.0,0.0,0.0,12974.0,17435.0,17342.0,12156.0,2.022066354751587,0.057336397659880356,-0.21583048972314106,0.07142777636846344,0.14022396504878998,0.06182391941547394,0.0
343,5,-0.0037181824445724487,0.0001549831940792501,0.003625390352681279,-0.013138173148036003,-0.017347175627946854,-0.00922895222902298,0.02336159721016884,0.05030670762062073,-0.012863006442785263,-0.6914504766464233,-1.199676752090454,0.05068070814013481,0.0,0.0,0.0,0.015488207340240479,-0.02057673968374729,-0.0,0.0,0.0,0.0,-0.001045507611706853,-0.038488853722810745,-0.0001642552379053086,12519.0,17511.0,17284.0,12598.0,0.34614643454551697,0.7034492492675781,0.6844571828842163,0.35083940625190735,0.0,0.0,0.0,0.0,12974.0,17435.0,17342.0,12156.0,1.9133765697479248,0.05286817207651958,-0.21509923208792553,0.07135688974770447,0.09485193341970444,0.054926082491874695,0.0
348,5,-0.0037106540985405445,0.0002485750010237098,0.003620938630774617,-0.004351885989308357,-0.018169889226555824,-0.0031573951710015535,0.02336159721016884,0.05030670762062073,-0.012863006442785263,-0.6914504766464233,-1.199676752090454,0.05068070814013481,0.0,0.0,0.0,0.015488207340240479,-0.02057673968374729,-0.0,0.0,0.0,0.0,-0.001045507611706853,-0.038488853722810745,-0.0001642552379053086,12519.0,17511.0,17284.0,12598.0,0.34614643454551697,0.7034492492675781,0.6844571828842163,0.35083940625190735,0.0,0.0,0.0,0.0,12653.0,17300.0,17550.0,12625.0,1.9133765697479248,0.04757522167920594,-0.21347937726307417,0.07110539063126813,0.09485193341970444,0.054926082491874695,0.0
353,5,-0.0036793439649045467,0.00033378999796696007,0.0035430765710771084,0.0020164826419204473,-0.017493754625320435,0.008080507628619671,0.02336159721016884,0.05030670762062073,-0.012863006442785263,-0.6914504766464233,-1.199676752090454,0.05068070814013481,0.0,0.0,0.0,0.020442739129066467,-0.008329609408974648,-0.0,0.0,0.0,0.0,-0.001045507611706853,-0.038488853722810745,-0.0001642552379053086,12519.0,17511.0,17284.0,12598.0,0.34614643454551697,0.7034492492675781,0.6844571828842163,0.35083940625190735,0.0,0.0,0.0,0.0,12653.0,17300.0,17550.0,12625.0,1.834317922592163,0.042254822210278,-0.20935025085808154,0.07053959023302804,0.03680911660194397,0.06949719786643982,0.0
358,5,-0.0036314697936177254,0.0004058947670273483,0.0034391088411211967,0.006551478523761034,-0.015650073066353798,0.015708327293395996,0.02336159721016884,0.05030670762062073,-0.012863006442785263,-0.6914504766464233,-1.199676752090454,0.05068070814013481,0.0,0.0,0.0,0.020442739129066467,-0.008329609408974648,-0.0,0.0,0.0,0.0,-0.001045507611706853,-0.038488853722810745,-0.0001642552379053086,12519.0,17511.0,17284.0,12598.0,0.34614643454551697,0.7034492492675781,0.6844571828842163,0.35083940625190735,0.0,0.0,0.0,0.0,12653.0,17300.0,17550.0,12625.0,1.834317922592163,0.03622161295881804,-0.2047979826062655,0.06947410528295461,0.03680911660194397,0.06949719786643982,0.0
363,5,-0.003581301076337695,0.0005126774776726961,0.0033272546716034412,0.008640851825475693,-0.019073951989412308,0.01970583200454712,0.02336159721016884,0.05030670762062073,-0.012863006442785263,-0.6914504766464233,-1.199676752090454,0.05068070814013481,0.0,0.0,0.0,0.018375011160969734,0.0010445525404065847,-0.0,0.0,0.0,0.0,-0.001045507611706853,-0.038488853722810745,-0.0001642552379053086,12519.0,17511.0,17284.0,12598.0,0.34614643454551697,0.7034492492675781,0.6844571828842163,0.35083940625190735,0.0,0.0,0.0,0.0,12653.0,17300.0,17550.0,12625.0,1.7886666059494019,0.032118831719967225,-0.19893136672788708,0.06872382410911763,-0.004501302260905504,0.06091456487774849,-0.0
368,5,-0.0035095757339149714,0.0005999766290187836,0.003170993411913514,0.012063365429639816,-0.018105482682585716,0.02663368731737137,0.02336159721016884,0.05030670762062073,-0.012863006442785263,-0.6914504766464233,-1.199676752090454,0.05068070814013481,0.0,0.0,0.0,0.018375011160969734,0.0010445525404065847,-0.0,0.0,0.0,0.0,0.0026174772065132856,-0.03536796569824219,0.000490174803417176,12519.0,17511.0,17284.0,12598.0,0.34614643454551697,0.7034492492675781,0.6844571828842163,0.35083940625190735,0.0,0.0,0.0,0.0,12653.0,17300.0,17550.0,12625.0,1.7886666059494019,0.026469332774715682,-0.19222782701601665,0.0686073514264637,-0.004501302260905504,0.06091456487774849,-0.0
373,5,-0.0034193324390798807,0.0006809469196014106,0.0030490809585899115,0.01565455086529255,-0.016958627849817276,0.025282952934503555,0.02336159721016884,0.05030670762062073,-0.012863006442785263,-0.6914504766464233,-1.199676752090454,0.05068070814013481,0.0,0.0,0.0,0.021027540788054466,0.005868981126695871,-0.0,0.0,0.0,0.0,0.0026174772065132856,-0.03536796569824219,0.000490174803417176,12519.0,17511.0,17284.0,12598.0,0.34614643454551697,0.7034492492675781,0.6844571828842163,0.35083940625190735,0.0,0.0,0.0,0.0,12653.0,17300.0,17550.0,12625.0,1.8268028497695923,0.022140990189182353,-0.18516999430001008,0.06832733161551323,-0.02582901157438755,0.07119189947843552,-0.0
379,5,-0.003367192577570677,0.0007138911751098931,0.002815042622387409,0.01251861173659563,-0.010736758820712566,0.038197796791791916,0.02336159721016884,0.05030670762062073,-0.012863006442785263,-0.6914504766464233,-1.199676752090454,0.05068070814013481,0.0,0.0,0.0,0.021027540788054466,0.005868981126695871,-0.0,0.0,0.0,0.0,0.0026174772065132856,-0.03536796569824219,0.000490174803417176,12519.0,17511.0,17284.0,12598.0,0.34614643454551697,0.7034492492675781,0.6844571828842163,0.35083940625190735,0.0,0.0,0.0,0.0,12653.0,17300.0,17550.0,12625.0,1.8268028497695923,0.02098841259197674,-0.1690659098696924,0.06689641352360688,-0.02582901157438755,0.07119189947843552,-0.0
384,5,-0.0032386763487011194,0.0007617055671289563,0.0026598472613841295,0.020429369062185287,-0.01003243587911129,0.03390255197882652,0.02336159721016884,0.05030670762062073,-0.012863006442785263,-0.6914504766464233,-1.199676752090454,0.05068070814013481,0.0,0.0,0.0,0.013499397784471512,0.006652501877397299,-0.0,0.0,0.0,0.0,0.0026174772065132856,-0.03536796569824219,0.000490174803417176,12519.0,17511.0,17284.0,12598.0,0.34614643454551697,0.7034492492675781,0.6844571828842163,0.35083940625190735,0.0,0.0,0.0,0.0,12653.0,17300.0,17550.0,12625.0,1.7660683393478394,0.020005486375106935,-0.15979950228855266,0.0667865766268069,-0.028307508677244186,0.04418821632862091,-0.0
389,5,-0.0031319253612309694,0.0008133586379699409,0.0025223062839359045,0.020981887355446815,-0.010211341083049774,0.03006594441831112,0.02336159721016884,0.05030670762062073,-0.012863006442785263,-0.6914504766464233,-1.199676752090454,0.05068070814013481,0.0,0.0,0.0,0.013499397784471512,0.006652501877397299,-0.0,0.0,0.0,0.0,0.0026174772065132856,-0.03536796569824219,0.000490174803417176,12519.0,17511.0,17284.0,12598.0,0.34614643454551697,0.7034492492675781,0.6844571828842163,0.35083940625190735,0.0,0.0,0.0,0.0,12653.0,17300.0,17550.0,12625.0,1.7660683393478394,0.018216623556825386,-0.1517174772231724,0.06666946766961214,-0.028307508677244186,0.04418821632862091,-0.0
394,5,-0.0030189601238816977,0.0008350401767529547,0.002352035604417324,0.02194856107234955,-0.006686322391033173,0.032458849251270294,0.013484758324921131,0.06086426600813866,-0.01227050181478262,-0.9135215878486633,-0.6129506230354309,0.06007307022809982,0.0,0.0,0.0,0.012649028562009335,0.013953459449112415,-0.0,0.0,0.0,0.0,0.0026174772065132856,-0.03536796569824219,0.000490174803417176,12802.0,17015.0,17515.0,12915.0,0.3630701005458832,0.6623236536979675,0.7037400603294373,0.36989888548851013,0.0,0.0,0.0,0.0,12653.0,17300.0,17550.0,12625.0,1.824199914932251,0.01809698787832585,-0.1422885201350604,0.0664277068647284,-0.061327800154685974,0.04276781901717186,-0.0
399,5,-0.0029238529969006777,0.0008360717911273241,0.0022191195748746395,0.020192278549075127,-0.00279831956140697,0.028933485969901085,0.013484758324921131,0.06086426600813866,-0.01227050181478262,-0.9135215878486633,-0.6129506230354309,0.06007307022809982,0.0,0.0,0.0,0.012649028562009335,0.013953459449112415,-0.0,0.0,0.0,0.0,0.0026174772065132856,-0.03536796569824219,0.000490174803417176,12802.0,17015.0,17515.0,12915.0,0.3630701005458832,0.6623236536979675,0.7037400603294373,0.36989888548851013,0.0,0.0,0.0,0.0,12653.0,17300.0,17550.0,12625.0,1.824199914932251,0.019166423254573586,-0.13408763775279658,0.06637912969085656,-0.061327800154685974,0.04276781901717186,-0.0
404,5,-0.002826270181685686,0.0008263115887530148,0.002040853491052985,0.01978687010705471,5.189760122448206e-05,0.03296532481908798,0.013484758324921131,0.06086426600813866,-0.01227050181478262,-0.9135215878486633,-0.6129506230354309,0.06007307022809982,0.0,0.0,0.0,0.004551819059997797,0.013800506480038166,-0.0,0.0,0.0,0.0,0.007335324306041002,-0.029912764206528664,-0.0007618956733494997,12802.0,17015.0,17515.0,12915.0,0.3630701005458832,0.6623236536979675,0.7037400603294373,0.36989888548851013,0.0,0.0,0.0,0.0,12445.0,16950.0,17390.0,13432.0,1.7893493175506592,0.020490960791879453,-0.12514139395345616,0.06556977681141841,-0.059500932693481445,0.015096835792064667,-0.0
409,5,-0.0027429084293544292,0.0008127018227241933,0.0019076454918831587,0.01791815645992756,0.0016539328498765826,0.029171070083975792,0.013484758324921131,0.06086426600813866,-0.01227050181478262,-0.9135215878486633,-0.6129506230354309,0.06007307022809982,0.0,0.0,0.0,0.004551819059997797,0.013800506480038166,-0.0,0.0,0.0,0.0,0.007335324306041002,-0.029912764206528664,-0.0007618956733494997,12802.0,17015.0,17515.0,12915.0,0.3630701005458832,0.6623236536979675,0.7037400603294373,0.36989888548851013,0.0,0.0,0.0,0.0,12445.0,16950.0,17390.0,13432.0,1.7893493175506592,0.02269847465148199,-0.11825819129477265,0.06522791840376235,-0.059500932693481445,0.015096835792064667,-0.0
414,5,-0.0026809093542397022,0.0007651737541891634,0.0017455751076340675,0.01460713054984808,0.0063649374060332775,0.031116876751184464,-0.005613106302917004,0.05758306756615639,-0.011590282432734966,-0.9417174458503723,0.7495091557502747,0.04925305396318436,0.0,0.0,0.0,-0.0005272982525639236,0.012219175696372986,-0.0,0.0,0.0,0.0,0.009991176426410675,-0.02054944634437561,-2.5037817977136e-05,12973.0,15603.0,16735.0,14264.0,0.3734489381313324,0.5521447658538818,0.6396751403808594,0.45679742097854614,0.0,0.0,0.0,0.0,12604.0,16539.0,17078.0,14186.0,1.7647135257720947,0.025088267854508073,-0.11139977496321146,0.06484787784486641,-0.05195856839418411,-0.0017248013755306602,-0.0
419,5,-0.00265592522919178,0.0007314167451113462,0.0016142897075042129,0.008840969763696194,0.0065968153066933155,0.02820100449025631,-0.005613106302917004,0.05758306756615639,-0.011590282432734966,-0.9417174458503723,0.7495091557502747,0.04925305396318436,0.0,0.0,0.0,-0.0005272982525639236,0.012219175696372986,-0.0,0.0,0.0,0.0,0.009991176426410675,-0.02054944634437561,-2.5037817977136e-05,12973.0,15603.0,16735.0,14264.0,0.3734489381313324,0.5521447658538818,0.6396751403808594,0.45679742097854614,0.0,0.0,0.0,0.0,12604.0,16539.0,17078.0,14186.0,1.7647135257720947,0.028728016955981695,-0.10655579092990887,0.0647419012715311,-0.05195856839418411,-0.0017248013755306602,-0.0
425,5,-0.002666431711986661,0.0006815284723415971,0.001509190071374178,0.0022755884565413,0.008625322952866554,0.023892363533377647,-0.013134513981640339,0.04936215281486511,-0.01170140877366066,-0.9314590096473694,1.3229292631149292,-0.01452859491109848,0.0,0.0,0.0,-0.006569522432982922,0.004488051403313875,-0.0,0.0,0.0,0.0,0.01245708204805851,-0.0015680745709687471,-0.0009195347665809095,12852.0,15469.0,15771.0,15562.0,0.3661133646965027,0.5421668887138367,0.5647118091583252,0.5490744113922119,0.0,0.0,0.0,0.0,12963.0,14552.0,15246.0,15414.0,1.700360655784607,0.0320455444081261,-0.10276924468747647,0.06451442916865727,-0.018388230353593826,-0.020705118775367737,-0.0
430,5,-0.0026909923180937767,0.0006190147832967341,0.0014442723477259278,-0.0020370250567793846,0.010951773263514042,0.0173470638692379,-0.013134513981640339,0.04936215281486511,-0.01170140877366066,-0.9314590096473694,1.3229292631149292,-0.01452859491109848,0.0,0.0,0.0,-0.006569522432982922,0.004488051403313875,-0.0,0.0,0.0,0.0,0.01245708204805851,-0.0015680745709687471,-0.0009195347665809095,12852.0,15469.0,15771.0,15562.0,0.3661133646965027,0.5421668887138367,0.5647118091583252,0.5490744113922119,0.0,0.0,0.0,0.0,12963.0,14552.0,15246.0,15414.0,1.700360655784607,0.03491879767949479,-0.10151685668882193,0.06425389318238361,-0.018388230353593826,-0.020705118775367737,-0.0
435,5,-0.002818498993292451,0.0005616088747046888,0.0012619340559467673,-0.01611560583114624,0.011269411072134972,0.02881941758096218,-0.023427467793226242,0.03173739090561867,-0.011913707479834557,-0.7819110155105591,1.624886155128479,0.014517102390527725,0.0,0.0,0.0,-0.011651438660919666,-0.005381371825933456,-0.0,0.0,0.0,0.0,0.01318364404141903,0.010204099118709564,-0.0012796371011063457,13727.0,13146.0,14004.0,16099.0,0.421147882938385,0.3841323256492615,0.4393588900566101,0.5896788239479065,0.0,0.0,0.0,0.0,13352.0,13460.0,14432.0,15775.0,1.7434951066970825,0.04056914878117222,-0.093457495958397,0.06322166579842178,0.022606538608670235,-0.03765225410461426,-0.0
440,5,-0.0028951731510460377,0.0005302709760144353,0.0012554392451420426,-0.015647146850824356,0.008268319070339203,0.012307150289416313,-0.023427467793226242,0.03173739090561867,-0.011913707479834557,-0.7819110155105591,1.624886155128479,0.014517102390527725,0.0,0.0,0.0,-0.011651438660919666,-0.005381371825933456,-0.0,0.0,0.0,0.0,0.01318364404141903,0.010204099118709564,-0.0012796371011063457,13727.0,13146.0,14004.0,16099.0,0.421147882938385,0.3841323256492615,0.4393588900566101,0.5896788239479065,0.0,0.0,0.0,0.0,13352.0,13460.0,14432.0,15775.0,1.7434951066970825,0.044236299058328675,-0.09475463432861626,0.06287052819183044,0.022606538608670235,-0.03765225410461426,-0.0
445,5,-0.0030192581471055746,0.0004688759217970073,0.0013357106363400817,-0.02114904299378395,0.010674732737243176,-0.0047097099013626575,-0.03153395280241966,-0.004358754493296146,-0.012613086961209774,-0.1076158657670021,1.8857110738754272,0.04423907399177551,0.0,0.0,0.0,-0.008243907243013382,-0.016891172155737877,-0.0,0.0,0.0,0.0,0.011228918097913265,0.01840398646891117,-0.0005162031156942248,14507.0,12167.0,13425.0,16075.0,0.47348177433013916,0.3256528377532959,0.4016895890235901,0.5878424048423767,0.0,0.0,0.0,0.0,13955.0,12961.0,13831.0,16201.0,1.837364673614502,0.04647779493995177,-0.0971994052964216,0.062438590174387854,0.07477762550115585,-0.028075536713004112,-0.0
450,5,-0.0031760032288730145,0.0003934660053346306,0.001415636157616973,-0.02726902812719345,0.013319079764187336,-0.011474942788481712,-0.03153395280241966,-0.004358754493296146,-0.012613086961209774,-0.1076158657670021,1.8857110738754272,0.04423907399177551,0.0,0.0,0.0,-0.008243907243013382,-0.016891172155737877,-0.0,0.0,0.0,0.0,0.011228918097913265,0.01840398646891117,-0.0005162031156942248,14507.0,12167.0,13425.0,16075.0,0.47348177433013916,0.3256528377532959,0.4016895890235901,0.5878424048423767,0.0,0.0,0.0,0.0,13955.0,12961.0,13831.0,16201.0,1.837364673614502,0.04890608660452,-0.10210750881310493,0.06266614094804043,0.07477762550115585,-0.028075536713004112,-0.0
455,5,-0.0033508692868053913,0.00033800172968767583,0.001578416908159852,-0.03189154341816902,0.011983346194028854,-0.024123672395944595,-0.030982226133346558,-0.01922624744474888,-0.012832073494791985,0.21654587984085083,1.79647696018219,0.04315338283777237,0.0,0.0,0.0,-0.01313369907438755,-0.025366026908159256,-0.0,0.0,0.0,0.0,0.009554559364914894,0.026202525943517685,-0.000507504097186029,15206.0,11876.0,12897.0,16562.0,0.5228953957557678,0.3092084228992462,0.3688437044620514,0.6258553862571716,0.0,0.0,0.0,0.0,15336.0,11549.0,12455.0,16233.0,1.9622507095336914,0.05110240989035327,-0.10831498030673105,0.06311210031397924,0.11991535872220993,-0.04776693880558014,0.0
460,5,-0.003519343910738826,0.0002568425552453846,0.0016886360244825482,-0.03297358751296997,0.014532438479363918,-0.02287576161324978,-0.030982226133346558,-0.01922624744474888,-0.012832073494791985,0.21654587984085083,1.79647696018219,0.04315338283777237,0.0,0.0,0.0,-0.01313369907438755,-0.025366026908159256,-0.0,0.0,0.0,0.0,0.009554559364914894,0.026202525943517685,-0.000507504097186029,15206.0,11876.0,12897.0,16562.0,0.5228953957557678,0.3092084228992462,0.3688437044620514,0.6258553862571716,0.0,0.0,0.0,0.0,15336.0,11549.0,12455.0,16233.0,1.9622507095336914,0.05358632317601367,-0.11526370597798263,0.0632154545125686,0.11991535872220993,-0.04776693880558014,0.0
465,5,-0.0037237589713186026,0.00019349533249624074,0.001848248764872551,-0.03771922364830971,0.01341464277356863,-0.028303829953074455,-0.026066161692142487,-0.03824559226632118,-0.012918168678879738,0.5360067486763,1.4152278900146484,0.020457517355680466,0.0,0.0,0.0,-0.014168825000524521,-0.02941771224141121,-0.0,0.0,0.0,0.0,0.0007125866832211614,0.02969314344227314,-0.0007773285615257919,15692.0,12239.0,11750.0,16214.0,0.5587805509567261,0.3297971785068512,0.3022037446498871,0.59856778383255,0.0,0.0,0.0,0.0,15503.0,12294.0,11890.0,16696.0,2.0207526683807373,0.056086664724293016,-0.1232834555558685,0.06415828569923768,0.14320814609527588,-0.053067564964294434,0.0
470,5,-0.003955787047743797,0.0001391252299072221,0.0019943593069911003,-0.04293109104037285,0.011890269815921783,-0.02885480970144272,-0.026066161692142487,-0.03824559226632118,-0.012918168678879738,0.5360067486763,1.4152278900146484,0.020457517355680466,0.0,0.0,0.0,-0.014168825000524521,-0.02941771224141121,-0.0,0.0,0.0,0.0,0.0007125866832211614,0.02969314344227314,-0.0007773285615257919,15692.0,12239.0,11750.0,16214.0,0.5587805509567261,0.3297971785068512,0.3022037446498871,0.59856778383255,0.0,0.0,0.0,0.0,15503.0,12294.0,11890.0,16696.0,2.0207526683807373,0.05777756111492813,-0.13062279842441718,0.06438761476856573,0.14320814609527588,-0.053067564964294434,0.0
475,5,-0.004190105013549328,7.778001599945128e-05,0.0021603626664727926,-0.045290589332580566,0.012117533944547176,-0.03146231919527054,-0.020915264263749123,-0.04788956791162491,-0.013015473261475563,0.6884616017341614,0.9454994201660156,0.02782375179231167,0.0,0.0,0.0,-0.011219892650842667,-0.03605588898062706,-0.0,0.0,0.0,0.0,-0.0015401693526655436,0.024805324152112007,-0.0016655188519507647,15692.0,12239.0,11750.0,16214.0,0.5587805509567261,0.3297971785068512,0.3022037446498871,0.59856778383255,0.0,0.0,0.0,0.0,15638.0,12380.0,11686.0,16206.0,2.1064772605895996,0.05944172089380148,-0.13893500976384507,0.0650916644886264,0.1829630732536316,-0.04380638897418976,0.0
480,5,-0.004445980302989483,3.981764166383073e-05,0.0023181706201285124,-0.04882126301527023,0.009402498602867126,-0.03152189403772354,-0.020915264263749123,-0.04788956791162491,-0.013015473261475563,0.6884616017341614,0.9454994201660156,0.02782375179231167,0.0,0.0,0.0,-0.011219892650842667,-0.03605588898062706,-0.0,0.0,0.0,0.0,-0.0015401693526655436,0.024805324152112007,-0.0016655188519507647,15692.0,12239.0,11750.0,16214.0,0.5587805509567261,0.3297971785068512,0.3022037446498871,0.59856778383255,0.0,0.0,0.0,0.0,15638.0,12380.0,11686.0,16206.0,2.1064772605895996,0.059932704602880395,-0.14734445158348292,0.06560682525432977,0.1829630732536316,-0.04380638897418976,0.0
486,5,-0.004671479109674692,-1.7356721855321666e-06,0.0024673626758158207,-0.04658832773566246,0.008747396990656853,-0.03051178902387619,-0.020915264263749123,-0.04788956791162491,-0.013015473261475563,0.6884616017341614,0.9454994201660156,0.02782375179231167,0.0,0.0,0.0,-0.008748161606490612,-0.03993063047528267,-0.0,0.0,0.0,0.0,-0.0015401693526655436,0.024805324152112007,-0.0016655188519507647,15692.0,12239.0,11750.0,16214.0,0.5587805509567261,0.3297971785068512,0.3022037446498871,0.59856778383255,0.0,0.0,0.0,0.0,15638.0,12380.0,11686.0,16206.0,2.159940719604492,0.060401997074943856,-0.1564017859011184,0.06632187451946432,0.20776283740997314,-0.03502330183982849,0.0
