timestamp,dt,pos_x,pos_y,pos_z,vel_x,vel_y,vel_z,roll,pitch,yaw,agv_x,agv_y,agv_z,x_ref,y_ref,z_ref,roll_ref,pitch_ref,yaw_ref,x_vel_ref,y_vel_ref,z_vel_ref,x_torque,y_torque,z_torque,w0,w1,w2,w3,u0,u1,u2,u3,m0req,m1req,m2req,m3req,thrust0,thrust1,thrust2,thrust3,thrust_ref,roll_vicon,pitch_vicon,yaw_vicon,acc_x,acc_y,acc_z,roll_received,pitch_received,yaw_received
5,5,0.0,0.0,0.0,-0.024441279470920563,0.0005364515818655491,0.018161967396736145,0.018444091081619263,-0.27516597509384155,0.004046797286719084,0.0,0.0,0.0,0.0,0.0,0.0,-0.0005811032606288791,-0.020367298275232315,-0.0,0.0,0.0,0.0,-0.0038065901026129723,0.07641422003507614,0.0004261287394911051,1495.0,1495.0,1495.0,1495.0,0.0,0.0,0.0,0.0,0.0,0.0,0.0,0.0,0.0,0.0,0.0,0.0,1.8676693439483643,0.07061240700991768,0.1010265619079991,0.00775535058716241,0.09165479987859726,-0.002011693548411131,0.0,-0.0005811032606288791,-0.020367298275232315,0.0
34,29,0.0,0.0,0.0,-0.030489282682538033,0.012433168478310108,0.02802337519824505,0.018444091081619263,-0.27516597509384155,0.004046797286719084,0.0,0.0,0.0,0.0,0.0,0.0,-0.0005811032606288791,-0.020367298275232315,-0.0,0.0,0.0,0.0,-0.0038065901026129723,0.07641422003507614,0.0004261287394911051,1495.0,1495.0,1495.0,1495.0,0.0,0.0,0.0,0.0,0.0,0.0,0.0,0.0,0.0,0.0,0.0,0.0,1.8676693439483643,0.034744208430512104,0.10371390170831982,0.013096263833359139,0.09165479987859726,-0.002011693548411131,0.0,-0.0005811032606288791,-0.020367298275232315,0.0
39,5,0.0,0.0,0.0,-0.030489282682538033,0.012433168478310108,0.02802337519824505,0.018444884568452835,-0.2751709520816803,0.004054119810461998,0.0,0.0,0.0,0.0,0.0,0.0,-0.0005811032606288791,-0.020367298275232315,-0.0,0.0,0.0,0.0,-0.003815877251327038,0.07643668353557587,0.00032682137680239975,1495.0,1495.0,1495.0,1495.0,0.0,0.0,0.0,0.0,0.0,0.0,0.0,0.0,0.0,0.0,0.0,0.0,1.8676693439483643,0.03195654696611141,0.10605504824424758,0.012359064402572345,0.09165479987859726,-0.002011693548411131,0.0,-0.0005811032606288791,-0.020367298275232315,0.0
44,5,0.0,0.0,0.0,-0.030489282682538033,0.012433168478310108,0.02802337519824505,0.018444884568452835,-0.2751709520816803,0.004054119810461998,0.0,0.0,0.0,0.0,0.0,0.0,-0.012911684811115265,-0.02435915358364582,-0.0,0.0,0.0,0.0,-0.003815877251327038,0.07643668353557587,0.00032682137680239975,1495.0,1495.0,1495.0,1495.0,0.0,0.0,0.0,0.0,0.0,0.0,0.0,0.0,0.0,0.0,0.0,0.0,1.9482448101043701,0.03195654696611141,0.10605504824424758,0.012359064402572345,0.11433480679988861,-0.046624381095170975,0.0,-0.0005811032606288791,-0.020367298275232315,0.0
60,16,0.0,0.0,0.0,-0.022287433966994286,0.011455584317445755,0.011665486730635166,0.01843862235546112,-0.2751152813434601,0.004013563506305218,0.0,0.0,0.0,0.0,0.0,0.0,-0.012911684811115265,-0.02435915358364582,-0.0,0.0,0.0,0.0,-0.003815877251327038,0.07643668353557587,0.00032682137680239975,1495.0,1495.0,1495.0,1495.0,0.0,0.0,0.0,0.0,0.0,0.0,0.0,0.0,0.0,0.0,0.0,0.0,1.9482448101043701,0.019573419389776883,0.10737508002745434,0.013978326937331517,0.11433480679988861,-0.046624381095170975,0.0,-0.0005811032606288791,-0.020367298275232315,0.0
65,5,0.0,0.0,0.0,-0.022287433966994286,0.011455584317445755,0.011665486730635166,0.01843862235546112,-0.2751152813434601,0.004013563506305218,0.0,0.0,0.0,0.0,0.0,0.0,-0.012370404787361622,-0.01851489767432213,-0.0,0.0,0.0,0.0,-0.003815877251327038,0.07643668353557587,0.00032682137680239975,1495.0,1495.0,1495.0,1495.0,0.0,0.0,0.0,0.0,0.0,0.0,0.0,0.0,0.0,0.0,0.0,0.0,1.8735970258712769,0.019573419389776883,0.10737508002745434,0.013978326937331517,0.08357787877321243,-0.042958442121744156,0.0,-0.0005811032606288791,-0.020367298275232315,0.0
70,5,-6.085747736506164e-05,-4.0371480281464756e-05,-4.162852928857319e-05,-0.022287433966994286,0.011455584317445755,0.011665486730635166,0.01843862235546112,-0.2751152813434601,0.004013563506305218,0.0,0.0,0.0,0.0,0.0,0.0,-0.012427616864442825,-0.018578985705971718,-0.0,0.0,0.0,0.0,-0.003846879815682769,0.07664940506219864,0.0004223620635457337,19084.0,7847.0,7475.0,18496.0,0.8418800830841064,0.12500962615013123,0.11213615536689758,0.788643479347229,0.0,0.0,0.0,0.0,0.0,0.0,0.0,0.0,1.8746182918548584,0.016731309459622295,0.10736526735708228,0.014424758515965867,0.08391280472278595,-0.04318062588572502,0.0,-0.0005811032606288791,-0.020367298275232315,0.0
75,5,-6.085747736506164e-05,-4.0371480281464756e-05,-4.162852928857319e-05,-0.022287433966994286,0.011455584317445755,0.011665486730635166,0.01846056990325451,-0.275092214345932,0.004027543123811483,0.0,0.0,0.0,0.0,0.0,0.0,-0.012427616864442825,-0.018578985705971718,-0.0,0.0,0.0,0.0,-0.003846879815682769,0.07664940506219864,0.0004223620635457337,19084.0,7847.0,7475.0,18496.0,0.8418800830841064,0.12500962615013123,0.11213615536689758,0.788643479347229,0.0,0.0,0.0,0.0,0.0,0.0,0.0,0.0,1.8746182918548584,0.016731309459622295,0.10736526735708228,0.014424758515965867,0.08391280472278595,-0.04318062588572502,0.0,-0.0005811032606288791,-0.020367298275232315,0.0
80,5,-0.0001252069341717288,-5.18153901793994e-05,-8.18434709799476e-05,-0.022287433966994286,0.011455584317445755,0.011665486730635166,0.01846056990325451,-0.275092214345932,0.004027543123811483,0.0,0.0,0.0,0.0,0.0,0.0,-0.012427616864442825,-0.018578985705971718,-0.0,0.0,0.0,0.0,-0.003846879815682769,0.07664940506219864,0.0004223620635457337,19084.0,7847.0,7475.0,18496.0,0.8418800830841064,0.12500962615013123,0.11213615536689758,0.788643479347229,0.0,0.0,0.0,0.0,0.0,0.0,0.0,0.0,1.8746182918548584,0.015121474653724922,0.10853360720208322,0.014237432621976272,0.08391280472278595,-0.04318062588572502,0.0,-0.0005811032606288791,-0.020367298275232315,0.0
85,5,-0.0001252069341717288,-5.18153901793994e-05,-8.18434709799476e-05,-0.022287433966994286,0.011455584317445755,0.011665486730635166,0.018476199358701706,-0.2750636637210846,0.004015548620373011,0.0,0.0,0.0,0.0,0.0,0.0,-0.012439951300621033,-0.01864871196448803,-0.0,0.0,0.0,0.0,-0.006277373991906643,0.0754396915435791,0.000368383334716782,19347.0,8818.0,7884.0,18552.0,0.8662888407707214,0.16194777190685272,0.1263294219970703,0.7936788201332092,0.0,0.0,0.0,0.0,0.0,0.0,0.0,0.0,1.8754972219467163,0.015121474653724922,0.10853360720208322,0.014237432621976272,0.08426716923713684,-0.04324374720454216,0.0,-0.012911684811115265,-0.02435915358364582,0.0
91,5,-0.00015880972205195576,-7.020980410743505e-05,-0.00010165057028643787,-0.012947307899594307,0.006789563223719597,0.007043046876788139,0.018476199358701706,-0.2750636637210846,0.004015548620373011,0.0,0.0,0.0,0.0,0.0,0.0,-0.012439951300621033,-0.01864871196448803,-0.0,0.0,0.0,0.0,-0.006277373991906643,0.0754396915435791,0.000368383334716782,19347.0,8818.0,7884.0,18552.0,0.8662888407707214,0.16194777190685272,0.1263294219970703,0.7936788201332092,0.0,0.0,0.0,0.0,0.0,0.0,0.0,0.0,1.8754972219467163,0.013344175511898012,0.1085680134171506,0.014443088576306464,0.08426716923713684,-0.04324374720454216,0.0,-0.012911684811115265,-0.02435915358364582,0.0
96,5,-0.00015880972205195576,-7.020980410743505e-05,-0.00010165057028643787,-0.012947307899594307,0.006789563223719597,0.007043046876788139,0.018476199358701706,-0.2750636637210846,0.004015548620373011,0.0,0.0,0.0,0.0,0.0,0.0,-0.012439951300621033,-0.01864871196448803,-0.0,0.0,0.0,0.0,-0.006277373991906643,0.0754396915435791,0.000368383334716782,19347.0,8818.0,7884.0,18552.0,0.8662888407707214,0.16194777190685272,0.1263294219970703,0.7936788201332092,0.0,0.0,0.0,0.0,0.0,0.0,0.0,0.0,1.8754972219467163,0.013344175511898012,0.1085680134171506,0.014443088576306464,0.08426716923713684,-0.04324374720454216,0.0,-0.012911684811115265,-0.02435915358364582,0.0
101,5,-0.00017930137983057648,-9.370885527459905e-05,-0.00013206600851844996,-0.012947307899594307,0.006789563223719597,0.007043046876788139,0.01848737522959709,-0.2750625014305115,0.004029091447591782,0.0,0.0,0.0,0.0,0.0,0.0,-0.007857746444642544,-0.011558846570551395,-0.0,0.0,0.0,0.0,-0.006227899808436632,0.07718195021152496,0.00045479810796678066,19262.0,8057.0,7190.0,18409.0,0.858302116394043,0.13262507319450378,0.10272207856178284,0.7809690237045288,0.0,0.0,0.0,0.0,0.0,0.0,0.0,0.0,1.7746859788894653,0.011961333758702255,0.10912487578162382,0.014571290933974513,0.04942706599831581,-0.025847584009170532,0.0,-0.012370404787361622,-0.01851489767432213,0.0
106,5,-0.00017930137983057648,-9.370885527459905e-05,-0.00013206600851844996,-0.012947307899594307,0.006789563223719597,0.007043046876788139,0.01848737522959709,-0.2750625014305115,0.004029091447591782,0.0,0.0,0.0,0.0,0.0,0.0,-0.007857746444642544,-0.011558846570551395,-0.0,0.0,0.0,0.0,-0.006227899808436632,0.07718195021152496,0.00045479810796678066,19262.0,8057.0,7190.0,18409.0,0.858302116394043,0.13262507319450378,0.10272207856178284,0.7809690237045288,0.0,0.0,0.0,0.0,0.0,0.0,0.0,0.0,1.7746859788894653,0.011961333758702255,0.10912487578162382,0.014571290933974513,0.04942706599831581,-0.025847584009170532,0.0,-0.012370404787361622,-0.01851489767432213,0.0
111,5,-0.0001829688553698361,-0.00010923614900093526,-7.060931966407225e-05,-0.00561901880428195,0.0045791007578372955,-0.004557585343718529,0.01848737522959709,-0.2750625014305115,0.004029091447591782,0.0,0.0,0.0,0.0,0.0,0.0,-0.007895265705883503,-0.011582606472074986,-0.0,0.0,0.0,0.0,-0.006227899808436632,0.07718195021152496,0.00045479810796678066,19262.0,8057.0,7190.0,18409.0,0.858302116394043,0.13262507319450378,0.10272207856178284,0.7809690237045288,0.0,0.0,0.0,0.0,0.0,0.0,0.0,0.0,1.7751070261001587,0.01215610570058889,0.10855757171615066,0.014344646008699932,0.04954039677977562,-0.025977157056331635,0.0,-0.012370404787361622,-0.01851489767432213,0.0
116,5,-0.0001829688553698361,-0.00010923614900093526,-7.060931966407225e-05,-0.00561901880428195,0.0045791007578372955,-0.004557585343718529,0.01848737522959709,-0.2750625014305115,0.004029091447591782,0.0,0.0,0.0,0.0,0.0,0.0,-0.007895265705883503,-0.011582606472074986,-0.0,0.0,0.0,0.0,-0.006227899808436632,0.07718195021152496,0.00045479810796678066,19262.0,8057.0,7190.0,18409.0,0.858302116394043,0.13262507319450378,0.10272207856178284,0.7809690237045288,0.0,0.0,0.0,0.0,0.0,0.0,0.0,0.0,1.7751070261001587,0.01215610570058889,0.10855757171615066,0.014344646008699932,0.04954039677977562,-0.025977157056331635,0.0,-0.012370404787361622,-0.01851489767432213,0.0
121,5,-0.00022238053497858346,-0.00010194670176133513,-8.83000175235793e-05,-0.00561901880428195,0.0045791007578372955,-0.004557585343718529,0.01846674270927906,-0.2751149833202362,0.004039758816361427,0.0,0.0,0.0,0.0,0.0,0.0,-0.005633629858493805,-0.005383606534451246,-0.0,0.0,0.0,0.0,-0.006191863678395748,0.07735325396060944,0.0003901191521435976,19248.0,8086.0,7124.0,18436.0,0.8570551872253418,0.1336740404367447,0.1005786806344986,0.7833104133605957,0.0,0.0,0.0,0.0,0.0,0.0,0.0,0.0,1.7021007537841797,0.010580239981022478,0.10862240123543228,0.014607411305244074,0.02208012342453003,-0.0177737046033144,0.0,-0.012427616864442825,-0.018578985705971718,0.0
126,5,-0.00022238053497858346,-0.00010194670176133513,-8.83000175235793e-05,-0.00561901880428195,0.0045791007578372955,-0.004557585343718529,0.01846674270927906,-0.2751149833202362,0.004039758816361427,0.0,0.0,0.0,0.0,0.0,0.0,-0.005633629858493805,-0.005383606534451246,-0.0,0.0,0.0,0.0,-0.006191863678395748,0.07735325396060944,0.0003901191521435976,19248.0,8086.0,7124.0,18436.0,0.8570551872253418,0.1336740404367447,0.1005786806344986,0.7833104133605957,0.0,0.0,0.0,0.0,0.0,0.0,0.0,0.0,1.7021007537841797,0.010580239981022478,0.10862240123543228,0.014607411305244074,0.02208012342453003,-0.0177737046033144,0.0,-0.012427616864442825,-0.018578985705971718,0.0
131,5,-0.0002274405851494521,-0.00010131743329111487,-0.00010415829456178471,-0.00561901880428195,0.0045791007578372955,-0.004557585343718529,0.018470322713255882,-0.2750947177410126,0.004036094062030315,0.0,0.0,0.0,0.0,0.0,0.0,-0.00561975734308362,-0.005435412749648094,-0.0,0.0,0.0,0.0,-0.005282434169203043,0.07945339381694794,0.00037025491474196315,19034.0,6965.0,6065.0,18311.0,0.8373020887374878,0.09557381272315979,0.06951802968978882,0.7722920775413513,0.0,0.0,0.0,0.0,0.0,0.0,0.0,0.0,1.702487826347351,0.010593624555891797,0.10884756029654716,0.014624233458247314,0.02229766733944416,-0.017733970656991005,0.0,-0.007857746444642544,-0.011558846570551395,0.0
136,5,-0.00023832164879422635,-0.00010432529961690307,-0.0001260108401766047,-0.0035533353220671415,0.002192583866417408,0.0007992713944986463,0.018470322713255882,-0.2750947177410126,0.004036094062030315,0.0,0.0,0.0,0.0,0.0,0.0,-0.00561975734308362,-0.005435412749648094,-0.0,0.0,0.0,0.0,-0.005282434169203043,0.07945339381694794,0.00037025491474196315,19034.0,6965.0,6065.0,18311.0,0.8373020887374878,0.09557381272315979,0.06951802968978882,0.7722920775413513,0.0,0.0,0.0,0.0,0.0,0.0,0.0,0.0,1.702487826347351,0.010082455250057645,0.1089396325519688,0.014691765278185843,0.02229766733944416,-0.017733970656991005,0.0,-0.007857746444642544,-0.011558846570551395,0.0
141,5,-0.00023832164879422635,-0.00010432529961690307,-0.0001260108401766047,-0.0035533353220671415,0.002192583866417408,0.0007992713944986463,0.01845756359398365,-0.27510255575180054,0.004035353660583496,0.0,0.0,0.0,0.0,0.0,0.0,-0.0028389717917889357,-0.0036339042708277702,-0.0,0.0,0.0,0.0,-0.004874258767813444,0.08153829723596573,0.00041194300865754485,18932.0,5891.0,5041.0,18220.0,0.8279576897621155,0.06496167182922363,0.044847313314676285,0.7643340826034546,0.0,0.0,0.0,0.0,0.0,0.0,0.0,0.0,1.6719156503677368,0.010082455250057645,0.1089396325519688,0.014691765278185843,0.01463986374437809,-0.008797978982329369,0.0,-0.00561975734308362,-0.005435412749648094,0.0
147,5,-0.00022596889175474644,-0.00010724189633037895,-0.00012130350660299882,-0.0035533353220671415,0.002192583866417408,0.0007992713944986463,0.01845756359398365,-0.27510255575180054,0.004035353660583496,0.0,0.0,0.0,0.0,0.0,0.0,-0.0028389717917889357,-0.0036339042708277702,-0.0,0.0,0.0,0.0,-0.004874258767813444,0.08153829723596573,0.00041194300865754485,18932.0,5891.0,5041.0,18220.0,0.8279576897621155,0.06496167182922363,0.044847313314676285,0.7643340826034546,0.0,0.0,0.0,0.0,0.0,0.0,0.0,0.0,1.6719156503677368,0.010519209710385337,0.10891872266141471,0.014585760577161242,0.01463986374437809,-0.008797978982329369,0.0,-0.00561975734308362,-0.005435412749648094,0.0
152,5,-0.00022596889175474644,-0.00010724189633037895,-0.00012130350660299882,-0.0035533353220671415,0.002192583866417408,0.0007992713944986463,0.018492501229047775,-0.2751258909702301,0.0040622432716190815,0.0,0.0,0.0,0.0,0.0,0.0,-0.002844493603333831,-0.003617521608248353,-0.0,0.0,0.0,0.0,-0.004346566740423441,0.08199585229158401,0.00042805110570043325,18845.0,5417.0,4667.0,18187.0,0.8200666904449463,0.053289689123630524,0.037131212651729584,0.7614279985427856,0.0,0.0,0.0,0.0,0.0,0.0,0.0,0.0,1.6717838048934937,0.010519209710385337,0.10891872266141471,0.014585760577161242,0.01457271445542574,-0.00881439633667469,0.0,-0.0028389717917889357,-0.0036339042708277702,0.0
157,5,-0.00023996263917069882,-6.688192661385983e-05,-0.00012962867913302034,-0.0035533353220671415,0.002192583866417408,0.0007992713944986463,0.018492501229047775,-0.2751258909702301,0.0040622432716190815,0.0,0.0,0.0,0.0,0.0,0.0,-0.002844493603333831,-0.003617521608248353,-0.0,0.0,0.0,0.0,-0.004346566740423441,0.08199585229158401,0.00042805110570043325,18845.0,5417.0,4667.0,18187.0,0.8200666904449463,0.053289689123630524,0.037131212651729584,0.7614279985427856,0.0,0.0,0.0,0.0,0.0,0.0,0.0,0.0,1.6717838048934937,0.006705269930510408,0.10836290423985255,0.01686798191199843,0.01457271445542574,-0.00881439633667469,0.0,-0.0028389717917889357,-0.0036339042708277702,0.0
162,5,-0.00023996263917069882,-6.688192661385983e-05,-0.00012962867913302034,-0.0035533353220671415,0.002192583866417408,0.0007992713944986463,0.01849767193198204,-0.2751445770263672,0.0040441579185426235,0.0,0.0,0.0,0.0,0.0,0.0,-0.002773141721263528,-0.003637108253315091,-0.0,0.0,0.0,0.0,-0.00473044253885746,0.0820021852850914,0.0009217466576956213,19010.0,4856.0,5233.0,18017.0,0.8351384401321411,0.040940504521131516,0.04905705153942108,0.746647834777832,0.0,0.0,0.0,0.0,0.0,0.0,0.0,0.0,1.6716583967208862,0.006705269930510408,0.10836290423985255,0.01686798191199843,0.01465051993727684,-0.008592650294303894,0.0,-0.002844493603333831,-0.003617521608248353,0.0
167,5,0.00012326777505222708,-0.00018025696044787765,-0.00023419939680024981,0.04216631501913071,0.014482038095593452,0.01286819577217102,0.01849767193198204,-0.2751445770263672,0.0040441579185426235,0.0,0.0,0.0,0.0,0.0,0.0,-0.002773141721263528,-0.003637108253315091,-0.0,0.0,0.0,0.0,-0.00473044253885746,0.0820021852850914,0.0009217466576956213,19010.0,4856.0,5233.0,18017.0,0.8351384401321411,0.040940504521131516,0.04905705153942108,0.746647834777832,0.0,0.0,0.0,0.0,0.0,0.0,0.0,0.0,1.6716583967208862,0.019664467488922394,0.11361092490936461,0.005461293720865358,0.01465051993727684,-0.008592650294303894,0.0,-0.002844493603333831,-0.003617521608248353,0.0
172,5,0.00012326777505222708,-0.00018025696044787765,-0.00023419939680024981,0.04216631501913071,0.014482038095593452,0.01286819577217102,0.01849767193198204,-0.2751445770263672,0.0040441579185426235,0.0,0.0,0.0,0.0,0.0,0.0,-0.014495565555989742,0.032024431973695755,-0.0,0.0,0.0,0.0,-0.00473044253885746,0.0820021852850914,0.0009217466576956213,19010.0,4856.0,5233.0,18017.0,0.8351384401321411,0.040940504521131516,0.04905705153942108,0.746647834777832,0.0,0.0,0.0,0.0,0.0,0.0,0.0,0.0,2.058387279510498,0.019664467488922394,0.11361092490936461,0.005461293720865358,-0.15879637002944946,-0.055302295833826065,0.0,-0.002844493603333831,-0.003617521608248353,0.0
177,5,0.0002749431296251714,-0.00029186601750552654,-0.00022497124155052006,0.04216631501913071,0.014482038095593452,0.01286819577217102,0.018499130383133888,-0.27504438161849976,0.0038117063231766224,0.0,0.0,0.0,0.0,0.0,0.0,-0.014495565555989742,0.032024431973695755,-0.0,0.0,0.0,0.0,-0.004159965086728334,0.0820772796869278,-0.0011949370382353663,18552.0,6396.0,2957.0,18494.0,0.7936850786209106,0.07863155007362366,0.010850237682461739,0.7884915471076965,0.0,0.0,0.0,0.0,0.0,0.0,0.0,0.0,2.058387279510498,-0.05014273337934526,0.09158600769807691,0.030801038572637645,-0.15879637002944946,-0.055302295833826065,0.0,-0.002773141721263528,-0.003637108253315091,0.0
182,5,0.0002749431296251714,-0.00029186601750552654,-0.00022497124155052006,0.04216631501913071,0.014482038095593452,0.01286819577217102,0.018499130383133888,-0.27504438161849976,0.0038117063231766224,0.0,0.0,0.0,0.0,0.0,0.0,-0.01463964395225048,0.03215539827942848,-0.0,0.0,0.0,0.0,-0.004159965086728334,0.0820772796869278,-0.0011949370382353663,18552.0,6396.0,2957.0,18494.0,0.7936850786209106,0.07863155007362366,0.010850237682461739,0.7884915471076965,0.0,0.0,0.0,0.0,0.0,0.0,0.0,0.0,2.0607926845550537,-0.05014273337934526,0.09158600769807691,0.030801038572637645,-0.15963155031204224,-0.0559171698987484,0.0,-0.002773141721263528,-0.003637108253315091,0.0
187,5,0.0003057554713450372,-0.0002913222124334425,-0.0001954139006556943,0.02056400664150715,0.005727558396756649,0.001600397634319961,0.018903648480772972,-0.27501121163368225,0.004471031948924065,0.0,0.0,0.0,0.0,0.0,0.0,-0.01463964395225048,0.03215539827942848,-0.0,0.0,0.0,0.0,-0.00716311763972044,0.09270374476909637,0.0007304665632545948,20345.0,7918.0,5639.0,19813.0,0.9619100093841553,0.1275799572467804,0.058613695204257965,0.9102836847305298,0.0,0.0,0.0,0.0,0.0,0.0,0.0,0.0,2.0607926845550537,-0.048459446826681185,0.09165798204085945,0.03054338277061645,-0.15963155031204224,-0.0559171698987484,0.0,-0.014495565555989742,0.032024431973695755,0.0
192,5,0.0003057554713450372,-0.0002913222124334425,-0.0001954139006556943,0.02056400664150715,0.005727558396756649,0.001600397634319961,0.018903648480772972,-0.27501121163368225,0.004471031948924065,0.0,0.0,0.0,0.0,0.0,0.0,-0.01463964395225048,0.03215539827942848,-0.0,0.0,0.0,0.0,-0.00716311763972044,0.09270374476909637,0.0007304665632545948,20345.0,7918.0,5639.0,19813.0,0.9619100093841553,0.1275799572467804,0.058613695204257965,0.9102836847305298,0.0,0.0,0.0,0.0,0.0,0.0,0.0,0.0,2.0607926845550537,-0.048459446826681185,0.09165798204085945,0.03054338277061645,-0.15963155031204224,-0.0559171698987484,0.0,-0.014495565555989742,0.032024431973695755,0.0
197,5,0.00044790731044486165,-0.00044731530942954123,-0.00024463876616209745,0.02056400664150715,0.005727558396756649,0.001600397634319961,0.01854523830115795,-0.27499374747276306,0.00415183836594224,0.0,0.0,0.0,0.0,0.0,0.0,-0.006757610943168402,0.0177427027374506,-0.0,0.0,0.0,0.0,-0.006598230917006731,0.09269418567419052,0.0016374606639146805,20966.0,5937.0,7770.0,19156.0,1.0238392353057861,0.06615100055932999,0.12230197340250015,0.8485004901885986,0.0,0.0,0.0,0.0,0.0,0.0,0.0,0.0,1.843109130859375,-0.0111700121508106,0.10785845396785099,0.015253636322915026,-0.07879342883825302,-0.02308589778840542,0.0,-0.01463964395225048,0.03215539827942848,0.0
202,5,0.00044790731044486165,-0.00044731530942954123,-0.00024463876616209745,0.02056400664150715,0.005727558396756649,0.001600397634319961,0.01854523830115795,-0.27499374747276306,0.00415183836594224,0.0,0.0,0.0,0.0,0.0,0.0,-0.006757610943168402,0.0177427027374506,-0.0,0.0,0.0,0.0,-0.006598230917006731,0.09269418567419052,0.0016374606639146805,20966.0,5937.0,7770.0,19156.0,1.0238392353057861,0.06615100055932999,0.12230197340250015,0.8485004901885986,0.0,0.0,0.0,0.0,0.0,0.0,0.0,0.0,1.843109130859375,-0.0111700121508106,0.10785845396785099,0.015253636322915026,-0.07879342883825302,-0.02308589778840542,0.0,-0.01463964395225048,0.03215539827942848,0.0
207,5,0.000303315871860832,-0.0003691547899506986,-0.00027758238138630986,-0.009125372394919395,-0.007088238839060068,0.004593393299728632,0.01849374733865261,-0.2750634551048279,0.004471051041036844,0.0,0.0,0.0,0.0,0.0,0.0,-0.006999473087489605,0.01789424568414688,-0.0,0.0,0.0,0.0,-0.00484486436471343,0.08889177441596985,-0.0008001145324669778,19395.0,6889.0,3747.0,19259.0,0.8706943988800049,0.09319452196359634,0.021163133904337883,0.8580570816993713,0.0,0.0,0.0,0.0,0.0,0.0,0.0,0.0,1.8456745147705078,-0.032468600710156004,0.09866090724436752,0.025039164392294325,-0.07957682758569717,-0.02394542656838894,0.0,-0.006757610943168402,0.0177427027374506,0.0
213,5,0.000303315871860832,-0.0003691547899506986,-0.00027758238138630986,-0.009125372394919395,-0.007088238839060068,0.004593393299728632,0.01849374733865261,-0.2750634551048279,0.004471051041036844,0.0,0.0,0.0,0.0,0.0,0.0,-0.006999473087489605,0.01789424568414688,-0.0,0.0,0.0,0.0,-0.00484486436471343,0.08889177441596985,-0.0008001145324669778,19395.0,6889.0,3747.0,19259.0,0.8706943988800049,0.09319452196359634,0.021163133904337883,0.8580570816993713,0.0,0.0,0.0,0.0,0.0,0.0,0.0,0.0,1.8456745147705078,-0.032468600710156004,0.09866090724436752,0.025039164392294325,-0.07957682758569717,-0.02394542656838894,0.0,-0.006757610943168402,0.0177427027374506,0.0
218,5,0.0003883327590301633,-0.00044470163993537426,-0.0003687008866108954,-0.009125372394919395,-0.007088238839060068,0.004593393299728632,0.01880905032157898,-0.2750857174396515,0.0047843861393630505,0.0,0.0,0.0,0.0,0.0,0.0,0.007631022948771715,-0.0077860369347035885,-0.0,0.0,0.0,0.0,-0.006135181058198214,0.0885399803519249,0.0014730823459103703,19913.0,5551.0,5782.0,18703.0,0.9198488593101501,0.05646499618887901,0.06218687444925308,0.8071737885475159,0.0,0.0,0.0,0.0,0.0,0.0,0.0,0.0,1.7351356744766235,-0.0158832715379107,0.10449498830363203,0.019762069423908662,0.032552532851696014,0.02454240433871746,0.0,-0.006757610943168402,0.0177427027374506,0.0
223,5,0.0003883327590301633,-0.00044470163993537426,-0.0003687008866108954,-0.009125372394919395,-0.007088238839060068,0.004593393299728632,0.01880905032157898,-0.2750857174396515,0.0047843861393630505,0.0,0.0,0.0,0.0,0.0,0.0,0.007631022948771715,-0.0077860369347035885,-0.0,0.0,0.0,0.0,-0.006135181058198214,0.0885399803519249,0.0014730823459103703,19913.0,5551.0,5782.0,18703.0,0.9198488593101501,0.05646499618887901,0.06218687444925308,0.8071737885475159,0.0,0.0,0.0,0.0,0.0,0.0,0.0,0.0,1.7351356744766235,-0.0158832715379107,0.10449498830363203,0.019762069423908662,0.032552532851696014,0.02454240433871746,0.0,-0.006757610943168402,0.0177427027374506,0.0
228,5,0.0003607191611081362,-0.00047600004472769797,-0.00037156816688366234,-0.009125372394919395,-0.007088238839060068,0.004593393299728632,0.018504729494452477,-0.27485665678977966,0.004798511508852243,0.0,0.0,0.0,0.0,0.0,0.0,0.007508511189371347,-0.007681198883801699,-0.0,0.0,0.0,0.0,-0.003972972277551889,0.08793587237596512,0.0014489962486550212,19874.0,4992.0,6519.0,18663.0,0.9161363840103149,0.04379238933324814,0.08215583860874176,0.8035898804664612,0.0,0.0,0.0,0.0,0.0,0.0,0.0,0.0,1.7334785461425781,-0.007660327763697836,0.10702982483816854,0.015895583521257493,0.03208358213305473,0.024125339463353157,0.0,-0.006999473087489605,0.01789424568414688,0.0
233,5,0.0003607191611081362,-0.00047600004472769797,-0.00037156816688366234,-0.009125372394919395,-0.007088238839060068,0.004593393299728632,0.018504729494452477,-0.27485665678977966,0.004798511508852243,0.0,0.0,0.0,0.0,0.0,0.0,0.007508511189371347,-0.007681198883801699,-0.0,0.0,0.0,0.0,-0.003972972277551889,0.08793587237596512,0.0014489962486550212,19874.0,4992.0,6519.0,18663.0,0.9161363840103149,0.04379238933324814,0.08215583860874176,0.8035898804664612,0.0,0.0,0.0,0.0,0.0,0.0,0.0,0.0,1.7334785461425781,-0.007660327763697836,0.10702982483816854,0.015895583521257493,0.03208358213305473,0.024125339463353157,0.0,-0.006999473087489605,0.01789424568414688,0.0
238,5,0.0003658587811514735,-0.00047085032565519214,-0.0001812323316698894,-0.009125372394919395,-0.007088238839060068,0.004593393299728632,0.01851593516767025,-0.27324235439300537,0.004885580390691757,0.0,0.0,0.0,0.0,0.0,0.0,0.00745422812178731,-0.00771706085652113,-0.0,0.0,0.0,0.0,-0.002086041262373328,0.07608107477426529,0.00016021834744606167,18562.0,6730.0,6957.0,18135.0,0.7945659160614014,0.08836763352155685,0.09531832486391068,0.7568837404251099,0.0,0.0,0.0,0.0,0.0,0.0,0.0,0.0,1.7335221767425537,-0.008354534097623559,0.09968812341068833,0.0168145442632206,0.03223419561982155,0.023951532319188118,0.0,0.007631022948771715,-0.0077860369347035885,0.0
243,5,0.0003658587811514735,-0.00047085032565519214,-0.0001812323316698894,-0.009125372394919395,-0.007088238839060068,0.004593393299728632,0.01851593516767025,-0.27324235439300537,0.004885580390691757,0.0,0.0,0.0,0.0,0.0,0.0,0.00745422812178731,-0.00771706085652113,-0.0,0.0,0.0,0.0,-0.002086041262373328,0.07608107477426529,0.00016021834744606167,18562.0,6730.0,6957.0,18135.0,0.7945659160614014,0.08836763352155685,0.09531832486391068,0.7568837404251099,0.0,0.0,0.0,0.0,0.0,0.0,0.0,0.0,1.7335221767425537,-0.008354534097623559,0.09968812341068833,0.0168145442632206,0.03223419561982155,0.023951532319188118,0.0,0.007631022948771715,-0.0077860369347035885,0.0
248,5,0.0003009898937307298,-0.00039879968971945345,0.0002303061046404764,-0.011434413492679596,-0.011481370776891708,-0.04754725471138954,0.018092691898345947,-0.2686708867549896,0.0050497399643063545,0.0,0.0,0.0,0.0,0.0,0.0,0.007462619338184595,-0.007710078731179237,-0.0,0.0,0.0,0.0,-0.003362910822033882,0.061322297900915146,0.0008554499363526702,17962.0,8653.0,8968.0,17086.0,0.7418854832649231,0.15534628927707672,0.16809217631816864,0.6681545972824097,0.0,0.0,0.0,0.0,0.0,0.0,0.0,0.0,1.7335015535354614,-0.013695669514477891,0.08097050746343862,0.016930350492401925,0.03220464661717415,0.023978209123015404,0.0,0.007508511189371347,-0.007681198883801699,0.0
253,5,0.0003009898937307298,-0.00039879968971945345,0.0002303061046404764,-0.011434413492679596,-0.011481370776891708,-0.04754725471138954,0.018092691898345947,-0.2686708867549896,0.0050497399643063545,0.0,0.0,0.0,0.0,0.0,0.0,0.007462619338184595,-0.007710078731179237,-0.0,0.0,0.0,0.0,-0.003362910822033882,0.061322297900915146,0.0008554499363526702,17962.0,8653.0,8968.0,17086.0,0.7418854832649231,0.15534628927707672,0.16809217631816864,0.6681545972824097,0.0,0.0,0.0,0.0,0.0,0.0,0.0,0.0,1.7335015535354614,-0.013695669514477891,0.08097050746343862,0.016930350492401925,0.03220464661717415,0.023978209123015404,0.0,0.007508511189371347,-0.007681198883801699,0.0
258,5,0.00022893423738423735,-0.00048168725334107876,0.0007984308176673949,-0.013220444321632385,0.00535395834594965,-0.08719386905431747,0.018623406067490578,-0.2511397898197174,0.005031847395002842,0.0,0.0,0.0,0.0,0.0,0.0,0.012376665137708187,-0.009607640095055103,-0.0,0.0,0.0,0.0,-0.0030166686046868563,0.035043418407440186,0.001178530277684331,16466.0,11242.0,11666.0,15478.0,0.6182721853256226,0.27483054995536804,0.2975904643535614,0.5428289771080017,0.0,0.0,0.0,0.0,0.0,0.0,0.0,0.0,1.7806217670440674,-0.01056036985645009,0.0534812409914377,0.019111896052509434,0.04121927544474602,0.04084733501076698,0.0,0.00745422812178731,-0.00771706085652113,0.0
263,5,0.00022893423738423735,-0.00048168725334107876,0.0007984308176673949,-0.013220444321632385,0.00535395834594965,-0.08719386905431747,0.018623406067490578,-0.2511397898197174,0.005031847395002842,0.0,0.0,0.0,0.0,0.0,0.0,0.012376665137708187,-0.009607640095055103,-0.0,0.0,0.0,0.0,-0.0030166686046868563,0.035043418407440186,0.001178530277684331,16466.0,11242.0,11666.0,15478.0,0.6182721853256226,0.27483054995536804,0.2975904643535614,0.5428289771080017,0.0,0.0,0.0,0.0,0.0,0.0,0.0,0.0,1.7806217670440674,-0.01056036985645009,0.0534812409914377,0.019111896052509434,0.04121927544474602,0.04084733501076698,0.0,0.00745422812178731,-0.00771706085652113,0.0
268,5,0.00012837271788157523,-0.00045742999645881355,0.0015466634649783373,-0.013220444321632385,0.00535395834594965,-0.08719386905431747,0.018623406067490578,-0.2511397898197174,0.005031847395002842,0.0,0.0,0.0,0.0,0.0,0.0,-0.006938260048627853,-0.011338012292981148,-0.0,0.0,0.0,0.0,-0.0030166686046868563,0.035043418407440186,0.001178530277684331,16466.0,11242.0,11666.0,15478.0,0.6182721853256226,0.27483054995536804,0.2975904643535614,0.5428289771080017,0.0,0.0,0.0,0.0,0.0,0.0,0.0,0.0,1.7684366703033447,-0.013867374595029578,0.00972898345260291,0.021786219221264693,0.04831239581108093,-0.02274271473288536,0.0,0.00745422812178731,-0.00771706085652113,0.0
273,5,0.00012837271788157523,-0.00045742999645881355,0.0015466634649783373,-0.013220444321632385,0.00535395834594965,-0.08719386905431747,0.01977105438709259,-0.23039059340953827,0.004960713908076286,0.0,0.0,0.0,0.0,0.0,0.0,-0.006938260048627853,-0.011338012292981148,-0.0,0.0,0.0,0.0,-0.006050710566341877,0.005701618734747171,0.002564077964052558,15292.0,13194.0,14213.0,12815.0,0.5291590094566345,0.38714921474456787,0.45334720611572266,0.3638461232185364,0.0,0.0,0.0,0.0,0.0,0.0,0.0,0.0,1.7684366703033447,-0.013867374595029578,0.00972898345260291,0.021786219221264693,0.04831239581108093,-0.02274271473288536,0.0,0.007462619338184595,-0.007710078731179237,0.0
279,5,-6.501281313830987e-05,-0.0005103944567963481,0.00242985668592155,-0.013220444321632385,0.00535395834594965,-0.08719386905431747,0.01977105438709259,-0.23039059340953827,0.004960713908076286,0.0,0.0,0.0,0.0,0.0,0.0,-0.006893491838127375,-0.01146013755351305,-0.0,0.0,0.0,0.0,-0.006050710566341877,0.005701618734747171,0.002564077964052558,15292.0,13194.0,14213.0,12815.0,0.5291590094566345,0.38714921474456787,0.45334720611572266,0.3638461232185364,0.0,0.0,0.0,0.0,0.0,0.0,0.0,0.0,1.7696049213409424,-0.013261663307519145,-0.035298329344945555,0.020284883324700513,0.04886503517627716,-0.022610900923609734,0.0,0.007462619338184595,-0.007710078731179237,0.0
284,5,-6.501281313830987e-05,-0.0005103944567963481,0.00242985668592155,-0.013220444321632385,0.00535395834594965,-0.08719386905431747,0.02017761394381523,-0.18441101908683777,0.0047126212157309055,0.0,0.0,0.0,0.0,0.0,0.0,-0.006893491838127375,-0.01146013755351305,-0.0,0.0,0.0,0.0,-0.00218616658821702,-0.03289031609892845,0.0025647517759352922,12729.0,15587.0,16926.0,10056.0,0.3586476147174835,0.550931990146637,0.6551145315170288,0.2159276306629181,0.0,0.0,0.0,0.0,0.0,0.0,0.0,0.0,1.7696049213409424,-0.013261663307519145,-0.035298329344945555,0.020284883324700513,0.04886503517627716,-0.022610900923609734,0.0,0.012376665137708187,-0.009607640095055103,0.0
289,5,-0.00036463505239225924,-0.0005306910607032478,0.0034136439207941294,-0.013220444321632385,0.00535395834594965,-0.08719386905431747,0.02017761394381523,-0.18441101908683777,0.0047126212157309055,0.0,0.0,0.0,0.0,0.0,0.0,-0.006989581510424614,-0.012049296870827675,-0.0,0.0,0.0,0.0,-0.00218616658821702,-0.03289031609892845,0.0025647517759352922,12729.0,15587.0,16926.0,10056.0,0.3586476147174835,0.550931990146637,0.6551145315170288,0.2159276306629181,0.0,0.0,0.0,0.0,0.0,0.0,0.0,0.0,1.7765228748321533,0.016622769844698574,-0.08558125140933869,0.018501447331044835,0.0515778549015522,-0.023015694692730904,0.0,0.012376665137708187,-0.009607640095055103,0.0
294,5,-0.00036463505239225924,-0.0005306910607032478,0.0034136439207941294,-0.013220444321632385,0.00535395834594965,-0.08719386905431747,0.020046023651957512,-0.14644967019557953,0.00442030793055892,0.0,0.0,0.0,0.0,0.0,0.0,-0.006989581510424614,-0.012049296870827675,-0.0,0.0,0.0,0.0,-0.006028916221112013,-0.08000257611274719,0.0019470943370833993,10381.0,17512.0,17714.0,7501.0,0.2313569188117981,0.7035401463508606,0.7205501794815063,0.11298936605453491,0.0,0.0,0.0,0.0,0.0,0.0,0.0,0.0,1.7765228748321533,0.016622769844698574,-0.08558125140933869,0.018501447331044835,0.0515778549015522,-0.023015694692730904,0.0,-0.006893491838127375,-0.01146013755351305,0.0
299,5,-0.0005929511971771717,-0.0005895454669371247,0.004263284150511026,-0.03268611803650856,0.009204115718603134,-0.13683436810970306,0.020046023651957512,-0.14644967019557953,0.00442030793055892,0.0,0.0,0.0,0.0,0.0,0.0,-0.006989581510424614,-0.012049296870827675,-0.0,0.0,0.0,0.0,-0.006028916221112013,-0.08000257611274719,0.0019470943370833993,10381.0,17512.0,17714.0,7501.0,0.2313569188117981,0.7035401463508606,0.7205501794815063,0.11298936605453491,0.0,0.0,0.0,0.0,0.0,0.0,0.0,0.0,1.7765228748321533,0.03705041041378438,-0.13207411540194378,0.017877565268672714,0.0515778549015522,-0.023015694692730904,0.0,-0.006893491838127375,-0.01146013755351305,0.0
304,5,-0.0005929511971771717,-0.0005895454669371247,0.004263284150511026,-0.03268611803650856,0.009204115718603134,-0.13683436810970306,0.019895758479833603,-0.08467625826597214,0.0038312054239213467,0.0,0.0,0.0,0.0,0.0,0.0,-0.010357276536524296,-0.02653973363339901,-0.0,0.0,0.0,0.0,-0.00569501519203186,-0.08034670352935791,0.0011131780920550227,8474.0,18435.0,18893.0,3195.0,0.14832055568695068,0.7832111120223999,0.8244425058364868,0.013630710542201996,0.0,0.0,0.0,0.0,0.0,0.0,0.0,0.0,1.9679620265960693,0.03705041041378438,-0.13207411540194378,0.017877565268672714,0.1258319467306137,-0.0377795472741127,0.0,-0.006989581510424614,-0.012049296870827675,0.0
309,5,-0.0009400346898473799,-0.000636974407825619,0.0049112471751868725,-0.05472446605563164,0.009373117238283157,-0.13248929381370544,0.019895758479833603,-0.08467625826597214,0.0038312054239213467,0.0,0.0,0.0,0.0,0.0,0.0,-0.010357276536524296,-0.02653973363339901,-0.0,0.0,0.0,0.0,-0.00569501519203186,-0.08034670352935791,0.0011131780920550227,8474.0,18435.0,18893.0,3195.0,0.14832055568695068,0.7832111120223999,0.8244425058364868,0.013630710542201996,0.0,0.0,0.0,0.0,0.0,0.0,0.0,0.0,1.9679620265960693,0.023959526775286483,-0.17237046712858115,0.02018658739216878,0.1258319467306137,-0.0377795472741127,0.0,-0.006989581510424614,-0.012049296870827675,0.0
314,5,-0.0009400346898473799,-0.000636974407825619,0.0049112471751868725,-0.05472446605563164,0.009373117238283157,-0.13248929381370544,0.01888694427907467,-0.04516017064452171,0.0033778983633965254,0.0,0.0,0.0,0.0,0.0,0.0,-0.009626958519220352,-0.04029454290866852,-0.0,0.0,0.0,0.0,-0.00584990531206131,-0.07673928886651993,-3.57703393092379e-05,9201.0,19220.0,18667.0,8031.0,0.1778365671634674,0.854488730430603,0.8039696216583252,0.13166707754135132,0.0,0.0,0.0,0.0,0.0,0.0,0.0,0.0,2.1675069332122803,0.023959526775286483,-0.17237046712858115,0.02018658739216878,0.21038800477981567,-0.038676392287015915,0.0,-0.010357276536524296,-0.02653973363339901,0.0
319,5,-0.0011172289960086346,-0.0006778133101761341,0.005346555262804031,-0.05472446605563164,0.009373117238283157,-0.13248929381370544,0.01888694427907467,-0.04516017064452171,0.0033778983633965254,0.0,0.0,0.0,0.0,0.0,0.0,-0.009626958519220352,-0.04029454290866852,-0.0,0.0,0.0,0.0,-0.00584990531206131,-0.07673928886651993,-3.57703393092379e-05,9201.0,19220.0,18667.0,8031.0,0.1778365671634674,0.854488730430603,0.8039696216583252,0.13166707754135132,0.0,0.0,0.0,0.0,0.0,0.0,0.0,0.0,2.1675069332122803,0.02768635744623214,-0.19215512297656132,0.01975506212765937,0.21038800477981567,-0.038676392287015915,0.0,-0.010357276536524296,-0.02653973363339901,0.0
324,5,-0.0011172289960086346,-0.0006778133101761341,0.005346555262804031,-0.05472446605563164,0.009373117238283157,-0.13248929381370544,0.019048107787966728,0.00289174634963274,0.0026078529190272093,0.0,0.0,0.0,0.0,0.0,0.0,-0.009672960266470909,-0.04043814539909363,-0.0,0.0,0.0,0.0,-0.006029527168720961,-0.058318257331848145,-0.0002045106957666576,11855.0,18898.0,18188.0,11210.0,0.3080407679080963,0.8248608708381653,0.7614681124687195,0.2731371223926544,0.0,0.0,0.0,0.0,0.0,0.0,0.0,0.0,2.1698596477508545,0.02768635744623214,-0.19215512297656132,0.01975506212765937,0.2113664746284485,-0.0389033779501915,0.0,-0.009626958519220352,-0.04029454290866852,0.0
329,5,-0.0012117911828681827,-0.000560997927095741,0.005689939949661493,-0.05472446605563164,0.009373117238283157,-0.13248929381370544,0.019048107787966728,0.00289174634963274,0.0026078529190272093,0.0,0.0,0.0,0.0,0.0,0.0,-0.009672960266470909,-0.04043814539909363,-0.0,0.0,0.0,0.0,-0.006029527168720961,-0.058318257331848145,-0.0002045106957666576,11855.0,18898.0,18188.0,11210.0,0.3080407679080963,0.8248608708381653,0.7614681124687195,0.2731371223926544,0.0,0.0,0.0,0.0,0.0,0.0,0.0,0.0,2.1698596477508545,0.0370182728024448,-0.2027125610016627,0.022614764420754656,0.2113664746284485,-0.0389033779501915,0.0,-0.009626958519220352,-0.04029454290866852,0.0
334,5,-0.0012117911828681827,-0.000560997927095741,0.005689939949661493,-0.05472446605563164,0.009373117238283157,-0.13248929381370544,0.01865960657596588,0.037851523607969284,0.0018133416306227446,0.0,0.0,0.0,0.0,0.0,0.0,-0.00950958114117384,-0.04052092507481575,-0.0,0.0,0.0,0.0,-0.005732897203415632,-0.030474649742245674,-0.0005940444534644485,13866.0,17553.0,16575.0,13489.0,0.43021294474601746,0.7069481015205383,0.6268875002861023,0.4058111608028412,0.0,0.0,0.0,0.0,0.0,0.0,0.0,0.0,2.170797824859619,0.0370182728024448,-0.2027125610016627,0.022614764420754656,0.2118908166885376,-0.03826285898685455,0.0,-0.009672960266470909,-0.04043814539909363,0.0
339,5,-0.0010866025695577264,-0.0007431769045069814,0.0053464570082724094,-0.006867161951959133,0.025610720738768578,-0.011777776293456554,0.01865960657596588,0.037851523607969284,0.0018133416306227446,0.0,0.0,0.0,0.0,0.0,0.0,-0.00950958114117384,-0.04052092507481575,-0.0,0.0,0.0,0.0,-0.005732897203415632,-0.030474649742245674,-0.0005940444534644485,13866.0,17553.0,16575.0,13489.0,0.43021294474601746,0.7069481015205383,0.6268875002861023,0.4058111608028412,0.0,0.0,0.0,0.0,0.0,0.0,0.0,0.0,2.170797824859619,0.03163163438436444,-0.19572796386862631,0.018986334510527513,0.2118908166885376,-0.03826285898685455,0.0,-0.009672960266470909,-0.04043814539909363,0.0
344,5,-0.0010866025695577264,-0.0007431769045069814,0.0053464570082724094,-0.006867161951959133,0.025610720738768578,-0.011777776293456554,0.018292436376214027,0.035196661949157715,0.0016070123529061675,0.0,0.0,0.0,0.0,0.0,0.0,-0.028415262699127197,-0.006928137969225645,-0.0,0.0,0.0,0.0,-0.004614349454641342,-0.003897201269865036,-0.0009624877129681408,15330.0,16150.0,15000.0,15401.0,0.5319430828094482,0.5935927629470825,0.5080771446228027,0.5371848344802856,0.0,0.0,0.0,0.0,0.0,0.0,0.0,0.0,1.902100920677185,0.03163163438436444,-0.19572796386862631,0.018986334510527513,0.0317411869764328,-0.1001584529876709,0.0,-0.00950958114117384,-0.04052092507481575,0.0
349,5,-0.0009775656508281827,-0.00048006168799474835,0.0054161944426596165,0.010337569750845432,-0.02132953517138958,-0.01307959109544754,0.018292436376214027,0.035196661949157715,0.0016070123529061675,0.0,0.0,0.0,0.0,0.0,0.0,-0.028415262699127197,-0.006928137969225645,-0.0,0.0,0.0,0.0,-0.004614349454641342,-0.003897201269865036,-0.0009624877129681408,15330.0,16150.0,15000.0,15401.0,0.5319430828094482,0.5935927629470825,0.5080771446228027,0.5371848344802856,0.0,0.0,0.0,0.0,0.0,0.0,0.0,0.0,1.902100920677185,0.05123832160315105,-0.18382079820204283,0.024295973762693518,0.0317411869764328,-0.1001584529876709,0.0,-0.00950958114117384,-0.04052092507481575,0.0
354,5,-0.0009775656508281827,-0.00048006168799474835,0.0054161944426596165,0.010337569750845432,-0.02132953517138958,-0.01307959109544754,0.01656170003116131,0.018794085830450058,0.0011241404572501779,0.0,0.0,0.0,0.0,0.0,0.0,0.022565502673387527,0.007493595127016306,-0.0,0.0,0.0,0.0,-0.007004353683441877,0.02835700288414955,-0.001929024700075388,16148.0,13768.0,10856.0,16613.0,0.5934962034225464,0.42381301522254944,0.25487640500068665,0.6299153566360474,0.0,0.0,0.0,0.0,0.0,0.0,0.0,0.0,1.8486967086791992,0.05123832160315105,-0.18382079820204283,0.024295973762693518,-0.03337283805012703,0.07731295377016068,0.0,-0.028415262699127197,-0.006928137969225645,0.0
360,5,-0.0005786975380033255,-0.0007580893579870462,0.004590286873281002,0.010337569750845432,-0.02132953517138958,-0.01307959109544754,0.01656170003116131,0.018794085830450058,0.0011241404572501779,0.0,0.0,0.0,0.0,0.0,0.0,0.022565502673387527,0.007493595127016306,-0.0,0.0,0.0,0.0,-0.007004353683441877,0.02835700288414955,-0.001929024700075388,16148.0,13768.0,10856.0,16613.0,0.5934962034225464,0.42381301522254944,0.25487640500068665,0.6299153566360474,0.0,0.0,0.0,0.0,0.0,0.0,0.0,0.0,1.8486967086791992,0.0390804540428167,-0.15893236147675563,0.019564231418495275,-0.03337283805012703,0.07731295377016068,0.0,-0.028415262699127197,-0.006928137969225645,0.0
365,5,-0.0005786975380033255,-0.0007580893579870462,0.004590286873281002,0.010337569750845432,-0.02132953517138958,-0.01307959109544754,0.017246387898921967,0.0019174279877915978,0.0006841503782197833,0.0,0.0,0.0,0.0,0.0,0.0,0.02213367447257042,0.007991224527359009,-0.0,0.0,0.0,0.0,-0.01136728748679161,0.0438075065612793,-0.001994612393900752,16755.0,11616.0,9406.0,17777.0,0.6412562727928162,0.2948741912841797,0.1866254061460495,0.7259408235549927,0.0,0.0,0.0,0.0,0.0,0.0,0.0,0.0,1.8474111557006836,0.0390804540428167,-0.15893236147675563,0.019564231418495275,-0.03556458652019501,0.07578115165233612,0.0,-0.028415262699127197,-0.006928137969225645,0.0
370,5,-0.00025452181580476463,-0.000921115162782371,0.004452446475625038,0.04303611442446709,0.011031282134354115,0.011309027671813965,0.017246387898921967,0.0019174279877915978,0.0006841503782197833,0.0,0.0,0.0,0.0,0.0,0.0,0.02213367447257042,0.007991224527359009,-0.0,0.0,0.0,0.0,-0.01136728748679161,0.0438075065612793,-0.001994612393900752,16755.0,11616.0,9406.0,17777.0,0.6412562727928162,0.2948741912841797,0.1866254061460495,0.7259408235549927,0.0,0.0,0.0,0.0,0.0,0.0,0.0,0.0,1.8474111557006836,0.00813347969981571,-0.15260468475943492,0.021858096604565887,-0.03556458652019501,0.07578115165233612,0.0,-0.028415262699127197,-0.006928137969225645,0.0
375,5,-0.00025452181580476463,-0.000921115162782371,0.004452446475625038,0.04303611442446709,0.011031282134354115,0.011309027671813965,0.018925422802567482,-0.023967212066054344,0.00016087536641862243,0.0,0.0,0.0,0.0,0.0,0.0,-0.012203485704958439,0.03231973946094513,-0.0,0.0,0.0,0.0,-0.0013170765014365315,0.05028490722179413,-0.0016998045612126589,17014.0,11210.0,9685.0,17626.0,0.6622071862220764,0.27314695715904236,0.1989319622516632,0.7131249904632568,0.0,0.0,0.0,0.0,0.0,0.0,0.0,0.0,2.054548740386963,0.00813347969981571,-0.15260468475943492,0.021858096604565887,-0.15996620059013367,-0.04647177830338478,-0.0,0.022565502673387527,0.007493595127016306,0.0
380,5,-1.9986384359071963e-05,-0.0012313249753788114,0.003949748817831278,0.04303611442446709,0.011031282134354115,0.011309027671813965,0.018925422802567482,-0.023967212066054344,0.00016087536641862243,0.0,0.0,0.0,0.0,0.0,0.0,-0.012203485704958439,0.03231973946094513,-0.0,0.0,0.0,0.0,-0.0013170765014365315,0.05028490722179413,-0.0016998045612126589,17014.0,11210.0,9685.0,17626.0,0.6622071862220764,0.27314695715904236,0.1989319622516632,0.7131249904632568,0.0,0.0,0.0,0.0,0.0,0.0,0.0,0.0,2.054548740386963,-0.009325597474834255,-0.1327086887819574,0.017245863489167644,-0.15996620059013367,-0.04647177830338478,-0.0,0.022565502673387527,0.007493595127016306,0.0
385,5,-1.9986384359071963e-05,-0.0012313249753788114,0.003949748817831278,0.04303611442446709,0.011031282134354115,0.011309027671813965,0.018925422802567482,-0.023967212066054344,0.00016087536641862243,0.0,0.0,0.0,0.0,0.0,0.0,-0.01262699905782938,0.03251442313194275,-0.0,0.0,0.0,0.0,-0.0013170765014365315,0.05028490722179413,-0.0016998045612126589,17014.0,11210.0,9685.0,17626.0,0.6622071862220764,0.27314695715904236,0.1989319622516632,0.7131249904632568,0.0,0.0,0.0,0.0,0.0,0.0,0.0,0.0,2.058729410171509,-0.009325597474834255,-0.1327086887819574,0.017245863489167644,-0.1612560749053955,-0.04818224161863327,-0.0,0.022565502673387527,0.007493595127016306,0.0
390,5,-3.7388534110505134e-05,-0.0009765856666490436,0.003910905681550503,0.015126188285648823,-0.02615620382130146,0.009184759110212326,0.019249552860856056,-0.03709837794303894,0.00015528392395935953,0.0,0.0,0.0,0.0,0.0,0.0,-0.01262699905782938,0.03251442313194275,-0.0,0.0,0.0,0.0,0.0011088524479418993,0.03996674716472626,-0.0012595860753208399,17547.0,12915.0,10590.0,17901.0,0.7064231634140015,0.3699372410774231,0.24159465730190277,0.7365936040878296,0.0,0.0,0.0,0.0,0.0,0.0,0.0,0.0,2.058729410171509,0.010203289124838182,-0.12144508638355833,0.018611314807284455,-0.1612560749053955,-0.04818224161863327,-0.0,0.02213367447257042,0.007991224527359009,0.0
395,5,-3.7388534110505134e-05,-0.0009765856666490436,0.003910905681550503,0.015126188285648823,-0.02615620382130146,0.009184759110212326,0.019249552860856056,-0.03709837794303894,0.00015528392395935953,0.0,0.0,0.0,0.0,0.0,0.0,0.02616921439766884,0.012274903245270252,-0.0,0.0,0.0,0.0,0.0011088524479418993,0.03996674716472626,-0.0012595860753208399,17547.0,12915.0,10590.0,17901.0,0.7064231634140015,0.3699372410774231,0.24159465730190277,0.7365936040878296,0.0,0.0,0.0,0.0,0.0,0.0,0.0,0.0,1.9108335971832275,0.010203289124838182,-0.12144508638355833,0.018611314807284455,-0.05649801716208458,0.09266848117113113,-0.0,0.02213367447257042,0.007991224527359009,0.0
400,5,-3.371009370312095e-05,-0.0010375811252743006,0.003892216831445694,0.015126188285648823,-0.02615620382130146,0.009184759110212326,0.018981706351041794,-0.04645329713821411,-0.00024177627346944064,0.0,0.0,0.0,0.0,0.0,0.0,0.02616921439766884,0.012274903245270252,-0.0,0.0,0.0,0.0,-0.007551725022494793,0.03144216910004616,-0.00045375715126283467,17124.0,13810.0,12218.0,16590.0,0.6712760329246521,0.42657187581062317,0.3286120891571045,0.628088653087616,0.0,0.0,0.0,0.0,0.0,0.0,0.0,0.0,1.9108335971832275,0.005648097907216549,-0.12577192675240792,0.017239533363117666,-0.05649801716208458,0.09266848117113113,-0.0,-0.012203485704958439,0.03231973946094513,0.0
405,5,-3.371009370312095e-05,-0.0010375811252743006,0.003892216831445694,0.015126188285648823,-0.02615620382130146,0.009184759110212326,0.018981706351041794,-0.04645329713821411,-0.00024177627346944064,0.0,0.0,0.0,0.0,0.0,0.0,0.026083072647452354,0.012283794581890106,-0.0,0.0,0.0,0.0,-0.007551725022494793,0.03144216910004616,-0.00045375715126283467,17124.0,13810.0,12218.0,16590.0,0.6712760329246521,0.42657187581062317,0.3286120891571045,0.628088653087616,0.0,0.0,0.0,0.0,0.0,0.0,0.0,0.0,1.910125970840454,0.005648097907216549,-0.12577192675240792,0.017239533363117666,-0.056518130004405975,0.09232936799526215,-0.0,-0.012203485704958439,0.03231973946094513,0.0
410,5,-9.34349445742555e-05,-0.0011190562509000301,0.004084863234311342,-0.0011165067553520203,-0.0006854662788100541,-0.019443701952695847,0.01917433738708496,-0.04482508823275566,-0.0006934203556738794,0.0,0.0,0.0,0.0,0.0,0.0,0.026083072647452354,0.012283794581890106,-0.0,0.0,0.0,0.0,-0.00619872659444809,0.011710370890796185,-0.0013689346378669143,15708.0,15249.0,13589.0,15716.0,0.5599290728569031,0.5260213017463684,0.4122154414653778,0.5605635046958923,0.0,0.0,0.0,0.0,0.0,0.0,0.0,0.0,1.910125970840454,0.011936779242916957,-0.1343927501668378,0.01676499646861874,-0.056518130004405975,0.09232936799526215,-0.0,-0.01262699905782938,0.03251442313194275,0.0
415,5,-9.34349445742555e-05,-0.0011190562509000301,0.004084863234311342,-0.0011165067553520203,-0.0006854662788100541,-0.019443701952695847,0.01917433738708496,-0.04482508823275566,-0.0006934203556738794,0.0,0.0,0.0,0.0,0.0,0.0,-0.0011953518260270357,-0.0011932014022022486,-0.0,0.0,0.0,0.0,-0.00619872659444809,0.011710370890796185,-0.0013689346378669143,15708.0,15249.0,13589.0,15716.0,0.5599290728569031,0.5260213017463684,0.4122154414653778,0.5605635046958923,0.0,0.0,0.0,0.0,0.0,0.0,0.0,0.0,1.6419106721878052,0.011936779242916957,-0.1343927501668378,0.01676499646861874,0.00472079124301672,-0.003637924324721098,0.0,-0.01262699905782938,0.03251442313194275,0.0
420,5,-0.00020573778601828963,-0.00111851142719388,0.00437881937250495,-0.013922943733632565,-0.0003395620151422918,-0.043052174150943756,0.018655886873602867,-0.03189215064048767,-0.001103278249502182,0.0,0.0,0.0,0.0,0.0,0.0,-0.0011953518260270357,-0.0011932014022022486,-0.0,0.0,0.0,0.0,0.00283865537494421,-0.01414011511951685,-0.00020939292153343558,13237.0,15465.0,15556.0,13870.0,0.389822393655777,0.5419049859046936,0.5486241579055786,0.43048205971717834,0.0,0.0,0.0,0.0,0.0,0.0,0.0,0.0,1.6419106721878052,0.014150966953958568,-0.1525243057983464,0.01829330217616119,0.00472079124301672,-0.003637924324721098,0.0,0.02616921439766884,0.012274903245270252,0.0
426,5,-0.00020573778601828963,-0.00111851142719388,0.00437881937250495,-0.013922943733632565,-0.0003395620151422918,-0.043052174150943756,0.018655886873602867,-0.03189215064048767,-0.001103278249502182,0.0,0.0,0.0,0.0,0.0,0.0,-0.0015054119285196066,-0.012519663199782372,-0.0,0.0,0.0,0.0,0.00283865537494421,-0.01414011511951685,-0.00020939292153343558,13237.0,15465.0,15556.0,13870.0,0.389822393655777,0.5419049859046936,0.5486241579055786,0.43048205971717834,0.0,0.0,0.0,0.0,0.0,0.0,0.0,0.0,1.768927812576294,0.014150966953958568,-0.1525243057983464,0.01829330217616119,0.053363315761089325,-0.004935983568429947,0.0,0.02616921439766884,0.012274903245270252,0.0
431,5,-0.00035698688589036465,-0.0011255049612373114,0.004709783010184765,-0.013922943733632565,-0.0003395620151422918,-0.043052174150943756,0.0169563926756382,-0.01857799105346203,-0.0014007135760039091,0.0,0.0,0.0,0.0,0.0,0.0,-0.0015054119285196066,-0.012519663199782372,-0.0,0.0,0.0,0.0,0.004129122011363506,-0.026874814182519913,0.00020877904898952693,12512.0,15986.0,16505.0,12785.0,0.3457452654838562,0.5809891223907471,0.6213399767875671,0.36205166578292847,0.0,0.0,0.0,0.0,0.0,0.0,0.0,0.0,1.768927812576294,0.008784762876790593,-0.1720564925914836,0.017744963785935527,0.053363315761089325,-0.004935983568429947,0.0,0.026083072647452354,0.012283794581890106,0.0
436,5,-0.0008090018527582288,-0.0013285453896969557,0.0050067841075360775,-0.05981097370386124,0.024229027330875397,-0.05286102369427681,0.0169563926756382,-0.01857799105346203,-0.0014007135760039091,0.0,0.0,0.0,0.0,0.0,0.0,-0.0015164688229560852,-0.012699425220489502,-0.0,0.0,0.0,0.0,0.004129122011363506,-0.026874814182519913,0.00020877904898952693,12512.0,15986.0,16505.0,12785.0,0.3457452654838562,0.5809891223907471,0.6213399767875671,0.36205166578292847,0.0,0.0,0.0,0.0,0.0,0.0,0.0,0.0,1.7711156606674194,0.007877165632068486,-0.1877997047411054,0.01694346426592756,0.05419643595814705,-0.004978387150913477,0.0,0.026083072647452354,0.012283794581890106,0.0
441,5,-0.0008090018527582288,-0.0013285453896969557,0.0050067841075360775,-0.05981097370386124,0.024229027330875397,-0.05286102369427681,0.01717003434896469,0.004155666567385197,-0.0019863341003656387,0.0,0.0,0.0,0.0,0.0,0.0,-0.0015164688229560852,-0.012699425220489502,-0.0,0.0,0.0,0.0,-0.005072539672255516,-0.03812067210674286,-0.0010654962388798594,10438.0,16595.0,15427.0,10562.0,0.23414111137390137,0.6285216808319092,0.5390480756759644,0.24019986391067505,0.0,0.0,0.0,0.0,0.0,0.0,0.0,0.0,1.7711156606674194,0.007877165632068486,-0.1877997047411054,0.01694346426592756,0.05419643595814705,-0.004978387150913477,0.0,-0.0011953518260270357,-0.0011932014022022486,0.0
446,5,-0.0009942393517121673,-0.0014307855162769556,0.00508652999997139,-0.05981097370386124,0.024229027330875397,-0.05286102369427681,0.01717003434896469,0.004155666567385197,-0.0019863341003656387,0.0,0.0,0.0,0.0,0.0,0.0,-0.0235699824988842,-0.04224061593413353,-0.0,0.0,0.0,0.0,-0.005072539672255516,-0.03812067210674286,-0.0010654962388798594,10438.0,16595.0,15427.0,10562.0,0.23414111137390137,0.6285216808319092,0.5390480756759644,0.24019986391067505,0.0,0.0,0.0,0.0,0.0,0.0,0.0,0.0,2.24883770942688,-0.002064101872008172,-0.19995950228076648,0.012644678621103451,0.22876545786857605,-0.0982319712638855,0.0,-0.0011953518260270357,-0.0011932014022022486,0.0
451,5,-0.0009942393517121673,-0.0014307855162769556,0.00508652999997139,-0.05981097370386124,0.024229027330875397,-0.05286102369427681,0.017310604453086853,0.019179124385118484,-0.0025511907879263163,0.0,0.0,0.0,0.0,0.0,0.0,-0.0235699824988842,-0.04224061593413353,-0.0,0.0,0.0,0.0,-0.003616787726059556,-0.04319518804550171,-0.0015590458642691374,10268.0,17336.0,15954.0,11257.0,0.22593821585178375,0.6887900233268738,0.5785708427429199,0.2756287157535553,0.0,0.0,0.0,0.0,0.0,0.0,0.0,0.0,2.24883770942688,-0.002064101872008172,-0.19995950228076648,0.012644678621103451,0.22876545786857605,-0.0982319712638855,0.0,-0.0015054119285196066,-0.012519663199782372,0.0
456,5,-0.0009942393517121673,-0.0014307855162769556,0.00508652999997139,-0.05981097370386124,0.024229027330875397,-0.05286102369427681,0.017310604453086853,0.019179124385118484,-0.0025511907879263163,0.0,0.0,0.0,0.0,0.0,0.0,-0.023678163066506386,-0.04237948730587959,-0.0,0.0,0.0,0.0,-0.003616787726059556,-0.04319518804550171,-0.0015590458642691374,10268.0,17336.0,15954.0,11257.0,0.22593821585178375,0.6887900233268738,0.5785708427429199,0.2756287157535553,0.0,0.0,0.0,0.0,0.0,0.0,0.0,0.0,2.251495122909546,-0.002064101872008172,-0.19995950228076648,0.012644678621103451,0.22978775203227997,-0.09879929572343826,0.0,-0.0015054119285196066,-0.012519663199782372,0.0
461,5,-0.001182336127385497,-0.0012982909101992846,0.005271139554679394,-0.05981097370386124,0.024229027330875397,-0.05286102369427681,0.015948662534356117,0.036744844168424606,-0.0033567738719284534,0.0,0.0,0.0,0.0,0.0,0.0,-0.023678163066506386,-0.04237948730587959,-0.0,0.0,0.0,0.0,-0.009594384580850601,-0.032783303409814835,-0.0017170760547742248,10997.0,16774.0,15867.0,11605.0,0.2620668411254883,0.6428056359291077,0.5719460844993591,0.29429709911346436,0.0,0.0,0.0,0.0,0.0,0.0,0.0,0.0,2.251495122909546,0.009526764084459677,-0.2035256760753864,0.012917354166208038,0.22978775203227997,-0.09879929572343826,0.0,-0.0235699824988842,-0.04224061593413353,0.0
466,5,-0.0012210592394694686,-0.0013019171310588717,0.005237686913460493,-0.02857116051018238,0.010126743465662003,-0.01713009551167488,0.015948662534356117,0.036744844168424606,-0.0033567738719284534,0.0,0.0,0.0,0.0,0.0,0.0,-0.023488633334636688,-0.04254213720560074,-0.0,0.0,0.0,0.0,-0.009594384580850601,-0.032783303409814835,-0.0017170760547742248,10997.0,16774.0,15867.0,11605.0,0.2620668411254883,0.6428056359291077,0.5719460844993591,0.29429709911346436,0.0,0.0,0.0,0.0,0.0,0.0,0.0,0.0,2.2530202865600586,0.020159190365198167,-0.20082352212738483,0.012653759349222948,0.23082642257213593,-0.09807512164115906,0.0,-0.0235699824988842,-0.04224061593413353,0.0
471,5,-0.0012210592394694686,-0.0013019171310588717,0.005237686913460493,-0.02857116051018238,0.010126743465662003,-0.01713009551167488,0.0156578216701746,0.04298914596438408,-0.003841649740934372,0.0,0.0,0.0,0.0,0.0,0.0,-0.023488633334636688,-0.04254213720560074,-0.0,0.0,0.0,0.0,-0.008134405128657818,-0.021010540425777435,-0.002322843996807933,14150.0,17995.0,15724.0,14838.0,0.4491334557533264,0.7446922659873962,0.5611289143562317,0.49654048681259155,0.0,0.0,0.0,0.0,0.0,0.0,0.0,0.0,2.2530202865600586,0.020159190365198167,-0.20082352212738483,0.012653759349222948,0.23082642257213593,-0.09807512164115906,0.0,-0.023678163066506386,-0.04237948730587959,0.0
476,5,-0.0013130942825227976,-0.0011315860319882631,0.00526809599250555,-0.02857116051018238,0.010126743465662003,-0.01713009551167488,0.0156578216701746,0.04298914596438408,-0.003841649740934372,0.0,0.0,0.0,0.0,0.0,0.0,-0.012536726891994476,-0.024294421076774597,-0.0,0.0,0.0,0.0,-0.008134405128657818,-0.021010540425777435,-0.002322843996807933,14150.0,17995.0,15724.0,14838.0,0.4491334557533264,0.7446922659873962,0.5611289143562317,0.49654048681259155,0.0,0.0,0.0,0.0,0.0,0.0,0.0,0.0,1.945900559425354,0.028022457491102503,-0.19606472567156646,0.014246141688337764,0.11389436572790146,-0.04521605744957924,0.0,-0.023678163066506386,-0.04237948730587959,0.0
481,5,-0.0013130942825227976,-0.0011315860319882631,0.00526809599250555,-0.02857116051018238,0.010126743465662003,-0.01713009551167488,0.016699569299817085,0.04405597969889641,-0.0046439990401268005,0.0,0.0,0.0,0.0,0.0,0.0,-0.012536726891994476,-0.024294421076774597,-0.0,0.0,0.0,0.0,-0.008482212200760841,-0.007444730959832668,-0.0022512536961585283,15050.0,17343.0,14841.0,15644.0,0.5116967558860779,0.6893859505653381,0.4967929720878601,0.5551446080207825,0.0,0.0,0.0,0.0,0.0,0.0,0.0,0.0,1.945900559425354,0.028022457491102503,-0.19606472567156646,0.014246141688337764,0.11389436572790146,-0.04521605744957924,0.0,-0.023488633334636688,-0.04254213720560074,0.0
487,5,-0.001258331467397511,-0.0010956175392493606,0.0050092111341655254,-0.004856931045651436,-0.0002655220159795135,0.02421414665877819,0.016699569299817085,0.04405597969889641,-0.0046439990401268005,0.0,0.0,0.0,0.0,0.0,0.0,-0.0122759360820055,-0.024399105459451675,-0.0,0.0,0.0,0.0,-0.008482212200760841,-0.007444730959832668,-0.0022512536961585283,15050.0,17343.0,14841.0,15644.0,0.5116967558860779,0.6893859505653381,0.4967929720878601,0.5551446080207825,0.0,0.0,0.0,0.0,0.0,0.0,0.0,0.0,1.946236491203308,0.024900392947061385,-0.1862019334702061,0.011379018773974374,0.11440515518188477,-0.044283196330070496,0.0,-0.023488633334636688,-0.04254213720560074,0.0
492,5,-0.001258331467397511,-0.0010956175392493606,0.0050092111341655254,-0.004856931045651436,-0.0002655220159795135,0.02421414665877819,0.016308236867189407,0.039965156465768814,-0.005116939544677734,0.0,0.0,0.0,0.0,0.0,0.0,-0.0122759360820055,-0.024399105459451675,-0.0,0.0,0.0,0.0,-0.007077033165842295,0.008175922557711601,-0.003426085691899061,14589.0,15679.0,12292.0,15921.0,0.4791446328163147,0.5578064918518066,0.3328571915626526,0.5760923624038696,0.0,0.0,0.0,0.0,0.0,0.0,0.0,0.0,1.946236491203308,0.024900392947061385,-0.1862019334702061,0.011379018773974374,0.11440515518188477,-0.044283196330070496,0.0,-0.012536726891994476,-0.024294421076774597,0.0
497,5,-0.0012049119686707854,-0.0010604828130453825,0.004738663788884878,-0.004856931045651436,-0.0002655220159795135,0.02421414665877819,0.016308236867189407,0.039965156465768814,-0.005116939544677734,0.0,0.0,0.0,0.0,0.0,0.0,-0.0122759360820055,-0.024399105459451675,-0.0,0.0,0.0,0.0,-0.007077033165842295,0.008175922557711601,-0.003426085691899061,14589.0,15679.0,12292.0,15921.0,0.4791446328163147,0.5578064918518066,0.3328571915626526,0.5760923624038696,0.0,0.0,0.0,0.0,0.0,0.0,0.0,0.0,1.946236491203308,0.027929422000396917,-0.17355634449843862,0.010767819957159686,0.11440515518188477,-0.044283196330070496,0.0,-0.012536726891994476,-0.024294421076774597,0.0
