timestamp,dt,pos_x,pos_y,pos_z,vel_x,vel_y,vel_z,roll,pitch,yaw,agv_x,agv_y,agv_z,x_ref,y_ref,z_ref,roll_ref,pitch_ref,yaw_ref,x_vel_ref,y_vel_ref,z_vel_ref,x_torque,y_torque,z_torque,w0,w1,w2,w3,u0,u1,u2,u3,m0req,m1req,m2req,m3req,thrust0,thrust1,thrust2,thrust3,thrust_ref,roll_vicon,pitch_vicon,yaw_vicon,acc_x,acc_y,acc_z,roll_received,pitch_received,yaw_received
5,5,0.0,0.0,0.0,0.0001259167620446533,0.0009207486291415989,0.0017444149125367403,0.017262667417526245,-0.1839502453804016,0.003945155534893274,0.0,0.0,0.0,0.0,0.0,0.0,-0.0011391788721084595,0.000119837059173733,-0.0,0.0,0.0,0.0,-0.0034597860649228096,0.055227816104888916,0.00037613086169585586,1495.0,1495.0,1495.0,1495.0,0.0,0.0,0.0,0.0,0.0,0.0,0.0,0.0,0.0,0.0,0.0,0.0,1.6352043151855469,0.021089514365281267,0.04304867966096247,-0.04277947814019057,-0.00047218785039149225,-0.003452807432040572,0.0,-0.0,-0.0,0.0
32,27,0.0,0.0,0.0,0.0015073410468176007,-0.0002264427166664973,0.0013026819797232747,0.017262667417526245,-0.1839502453804016,0.003945155534893274,0.0,0.0,0.0,0.0,0.0,0.0,-0.0011391788721084595,0.000119837059173733,-0.0,0.0,0.0,0.0,-0.0034597860649228096,0.055227816104888916,0.00037613086169585586,1495.0,1495.0,1495.0,1495.0,0.0,0.0,0.0,0.0,0.0,0.0,0.0,0.0,0.0,0.0,0.0,0.0,1.6352043151855469,0.021606858962574273,0.04265143898874573,-0.04263061685243126,-0.00047218785039149225,-0.003452807432040572,0.0,-0.0,-0.0,0.0
38,5,0.0,0.0,0.0,0.0015073410468176007,-0.0002264427166664973,0.0013026819797232747,0.01725011132657528,-0.1839645653963089,0.00394646730273962,0.0,0.0,0.0,0.0,0.0,0.0,0.0002791299484670162,0.0014292768901214004,-0.0,0.0,0.0,0.0,-0.0033956130500882864,0.05568179488182068,0.00038746075006201863,17314.0,8848.0,8553.0,16735.0,0.6869502663612366,0.1631900817155838,0.1514234095811844,0.639685869216919,0.0,0.0,0.0,0.0,0.0,0.0,0.0,0.0,1.641249656677246,0.021606858962574273,0.04265143898874573,-0.04263061685243126,-0.0056525287218391895,0.0008491601911373436,0.0,0.0002791299484670162,0.0014292768901214004,0.0
54,16,0.0,0.0,0.0,-5.7234650739701465e-05,0.000478943285997957,0.0006559244939126074,0.01725011132657528,-0.1839645653963089,0.00394646730273962,0.0,0.0,0.0,0.0,0.0,0.0,0.0002791299484670162,0.0014292768901214004,-0.0,0.0,0.0,0.0,-0.0033956130500882864,0.05568179488182068,0.00038746075006201863,17314.0,8848.0,8553.0,16735.0,0.6869502663612366,0.1631900817155838,0.1514234095811844,0.639685869216919,0.0,0.0,0.0,0.0,0.0,0.0,0.0,0.0,1.641249656677246,0.021605458101207203,0.043422625713471316,-0.043035420192105545,-0.0056525287218391895,0.0008491601911373436,0.0,0.0002791299484670162,0.0014292768901214004,0.0
59,5,0.0,0.0,0.0,-5.7234650739701465e-05,0.000478943285997957,0.0006559244939126074,0.017232684418559074,-0.18397033214569092,0.0039584338665008545,0.0,0.0,0.0,0.0,0.0,0.0,0.0002791299484670162,0.0014292768901214004,-0.0,0.0,0.0,0.0,-0.003379188012331724,0.05576353147625923,0.0004107339773327112,17314.0,8848.0,8553.0,16735.0,0.6869502663612366,0.1631900817155838,0.1514234095811844,0.639685869216919,0.0,0.0,0.0,0.0,0.0,0.0,0.0,0.0,1.641249656677246,0.021605458101207203,0.043422625713471316,-0.043035420192105545,-0.0056525287218391895,0.0008491601911373436,0.0,0.0002791299484670162,0.0014292768901214004,0.0
64,5,0.0,0.0,0.0,-0.0014432246098294854,-0.0005795338074676692,-0.001044230186380446,0.017232684418559074,-0.18397033214569092,0.0039584338665008545,0.0,0.0,0.0,0.0,0.0,0.0,0.0002791299484670162,0.0014292768901214004,-0.0,0.0,0.0,0.0,-0.003379188012331724,0.05576353147625923,0.0004107339773327112,17314.0,8848.0,8553.0,16735.0,0.6869502663612366,0.1631900817155838,0.1514234095811844,0.639685869216919,0.0,0.0,0.0,0.0,0.0,0.0,0.0,0.0,1.641249656677246,0.02193974934428678,0.043342196707249266,-0.042831828076732636,0.005412092432379723,0.0021732517052441835,0.0,0.0002791299484670162,0.0014292768901214004,0.0
69,5,0.0,0.0,0.0,-0.0014432246098294854,-0.0005795338074676692,-0.001044230186380446,0.017214927822351456,-0.18401776254177094,0.003970778081566095,0.0,0.0,0.0,0.0,0.0,0.0,0.0007142390822991729,-0.001368219032883644,-0.0,0.0,0.0,0.0,-0.0034146385733038187,0.055754974484443665,0.0004659774131141603,17334.0,8801.0,8579.0,16725.0,0.6886141300201416,0.1612907350063324,0.15244027972221375,0.6389044523239136,0.0,0.0,0.0,0.0,0.0,0.0,0.0,0.0,1.6415644884109497,0.02193974934428678,0.043342196707249266,-0.042831828076732636,0.005412092432379723,0.0021732517052441835,0.0,0.0002791299484670162,0.0014292768901214004,0.0
74,5,1.0881743037316483e-05,3.90360355595476e-06,-4.145148977841018e-06,0.0007285193423740566,-0.0007002459606155753,7.972581079229712e-05,0.017214927822351456,-0.18401776254177094,0.003970778081566095,0.0,0.0,0.0,0.0,0.0,0.0,0.0007142390822991729,-0.001368219032883644,-0.0,0.0,0.0,0.0,-0.0034146385733038187,0.055754974484443665,0.0004659774131141603,17334.0,8801.0,8579.0,16725.0,0.6886141300201416,0.1612907350063324,0.15244027972221375,0.6389044523239136,0.0,0.0,0.0,0.0,0.0,0.0,0.0,0.0,1.6415644884109497,0.022021791405168835,0.04321502441249459,-0.042953904079450815,0.005412092432379723,0.0021732517052441835,0.0,0.0002791299484670162,0.0014292768901214004,0.0
80,5,1.0881743037316483e-05,3.90360355595476e-06,-4.145148977841018e-06,0.0007285193423740566,-0.0007002459606155753,7.972581079229712e-05,0.017213745042681694,-0.1840028315782547,0.003975740633904934,0.0,0.0,0.0,0.0,0.0,0.0,0.0007142390822991729,-0.001368219032883644,-0.0,0.0,0.0,0.0,-0.003409166820347309,0.05574072152376175,0.00043899769661948085,17290.0,8876.0,8715.0,16670.0,0.684952437877655,0.1643352061510086,0.15781138837337494,0.6344654560089111,0.0,0.0,0.0,0.0,0.0,0.0,0.0,0.0,1.6415644884109497,0.022021791405168835,0.04321502441249459,-0.042953904079450815,0.005412092432379723,0.0021732517052441835,0.0,0.0002791299484670162,0.0014292768901214004,0.0
85,5,1.7495358406449668e-05,1.1896350770257413e-05,-8.250567589129787e-06,0.0007285193423740566,-0.0007002459606155753,7.972581079229712e-05,0.017213745042681694,-0.1840028315782547,0.003975740633904934,0.0,0.0,0.0,0.0,0.0,0.0,0.0007142390822991729,-0.001368219032883644,-0.0,0.0,0.0,0.0,-0.003409166820347309,0.05574072152376175,0.00043899769661948085,17290.0,8876.0,8715.0,16670.0,0.684952437877655,0.1643352061510086,0.15781138837337494,0.6344654560089111,0.0,0.0,0.0,0.0,0.0,0.0,0.0,0.0,1.6415644884109497,0.021411032206348258,0.042955725871121404,-0.04262884264035081,0.005412092432379723,0.0021732517052441835,0.0,0.0002791299484670162,0.0014292768901214004,0.0
90,5,1.7495358406449668e-05,1.1896350770257413e-05,-8.250567589129787e-06,0.0007285193423740566,-0.0007002459606155753,7.972581079229712e-05,0.017216451466083527,-0.18401026725769043,0.003963921684771776,0.0,0.0,0.0,0.0,0.0,0.0,0.0008873501792550087,0.0007172816549427807,-0.0,0.0,0.0,0.0,-0.003333474975079298,0.0550537072122097,0.0003538062737789005,17277.0,8912.0,8637.0,16705.0,0.6838477253913879,0.16577595472335815,0.15470477938652039,0.6372359991073608,0.0,0.0,0.0,0.0,0.0,0.0,0.0,0.0,1.636340856552124,0.021411032206348258,0.042955725871121404,-0.04262884264035081,-0.002828233176842332,0.0026913939509540796,0.0,0.0007142390822991729,-0.001368219032883644,0.0
95,5,6.613451205339516e-06,-3.1837707865634e-06,-8.02355043560965e-06,-0.0010144212283194065,0.0015295161865651608,4.648280992114451e-06,0.017216451466083527,-0.18401026725769043,0.003963921684771776,0.0,0.0,0.0,0.0,0.0,0.0,0.0008873501792550087,0.0007172816549427807,-0.0,0.0,0.0,0.0,-0.003333474975079298,0.0550537072122097,0.0003538062737789005,17277.0,8912.0,8637.0,16705.0,0.6838477253913879,0.16577595472335815,0.15470477938652039,0.6372359991073608,0.0,0.0,0.0,0.0,0.0,0.0,0.0,0.0,1.636340856552124,0.022166664652415916,0.043474351490807264,-0.042983852928896664,-0.002828233176842332,0.0026913939509540796,0.0,0.0007142390822991729,-0.001368219032883644,0.0
100,5,6.613451205339516e-06,-3.1837707865634e-06,-8.02355043560965e-06,-0.0010144212283194065,0.0015295161865651608,4.648280992114451e-06,0.017216451466083527,-0.18401026725769043,0.003963921684771776,0.0,0.0,0.0,0.0,0.0,0.0,-0.0018875260138884187,-0.0009508462389931083,-0.0,0.0,0.0,0.0,-0.003333474975079298,0.0550537072122097,0.0003538062737789005,17277.0,8912.0,8637.0,16705.0,0.6838477253913879,0.16577595472335815,0.15470477938652039,0.6372359991073608,0.0,0.0,0.0,0.0,0.0,0.0,0.0,0.0,1.6443939208984375,0.022166664652415916,0.043474351490807264,-0.042983852928896664,0.003767621237784624,-0.005753166042268276,0.0,0.0007142390822991729,-0.001368219032883644,0.0
105,5,3.142925561405718e-05,-1.3452356597554171e-06,-1.9094297385890968e-05,0.0025721280835568905,0.00039118225686252117,0.0013303488958626986,0.017216451466083527,-0.18401026725769043,0.003963921684771776,0.0,0.0,0.0,0.0,0.0,0.0,-0.00048128285561688244,0.0024655647575855255,-0.0,0.0,0.0,0.0,-0.003333474975079298,0.0550537072122097,0.0003538062737789005,17277.0,8912.0,8637.0,16705.0,0.6838477253913879,0.16577595472335815,0.15470477938652039,0.6372359991073608,0.0,0.0,0.0,0.0,0.0,0.0,0.0,0.0,1.6526422500610352,0.022221008206924645,0.04259161464870231,-0.0427245632104912,-0.009818535298109055,-0.0014743064530193806,0.0,0.0007142390822991729,-0.001368219032883644,0.0
110,5,3.142925561405718e-05,-1.3452356597554171e-06,-1.9094297385890968e-05,0.0025721280835568905,0.00039118225686252117,0.0013303488958626986,0.01720229722559452,-0.18403050303459167,0.003933022264391184,0.0,0.0,0.0,0.0,0.0,0.0,-0.00048128285561688244,0.0024655647575855255,-0.0,0.0,0.0,0.0,-0.003296300070360303,0.05501928552985191,0.0004061112704221159,17269.0,8918.0,8646.0,16704.0,0.683254599571228,0.166043221950531,0.1550930142402649,0.6371736526489258,0.0,0.0,0.0,0.0,0.0,0.0,0.0,0.0,1.6526422500610352,0.022221008206924645,0.04259161464870231,-0.0427245632104912,-0.009818535298109055,-0.0014743064530193806,0.0,0.0007142390822991729,-0.001368219032883644,0.0
115,5,2.1928637579549104e-05,1.2563155905809253e-05,7.1186104833032005e-06,0.0025721280835568905,0.00039118225686252117,0.0013303488958626986,0.01720229722559452,-0.18403050303459167,0.003933022264391184,0.0,0.0,0.0,0.0,0.0,0.0,-0.00048128285561688244,0.0024655647575855255,-0.0,0.0,0.0,0.0,-0.003296300070360303,0.05501928552985191,0.0004061112704221159,17269.0,8918.0,8646.0,16704.0,0.683254599571228,0.166043221950531,0.1550930142402649,0.6371736526489258,0.0,0.0,0.0,0.0,0.0,0.0,0.0,0.0,1.6526422500610352,0.021898603155963082,0.04300242014049588,-0.04288301671941191,-0.009818535298109055,-0.0014743064530193806,0.0,0.0007142390822991729,-0.001368219032883644,0.0
120,5,2.1928637579549104e-05,1.2563155905809253e-05,7.1186104833032005e-06,0.0025721280835568905,0.00039118225686252117,0.0013303488958626986,0.017214665189385414,-0.1839829385280609,0.0039338041096925735,0.0,0.0,0.0,0.0,0.0,0.0,-0.00045634337584488094,0.0024527141358703375,-0.0,0.0,0.0,0.0,-0.0038485629484057426,0.0552184171974659,0.0004528866847977042,17347.0,8906.0,8631.0,16673.0,0.6896661520004272,0.16554400324821472,0.1544887125492096,0.6346950531005859,0.0,0.0,0.0,0.0,0.0,0.0,0.0,0.0,1.6524728536605835,0.021898603155963082,0.04300242014049588,-0.04288301671941191,-0.009766358882188797,-0.0013977664057165384,0.0,-0.0018875260138884187,-0.0009508462389931083,0.0
125,5,1.806633736123331e-05,-5.9902599787164945e-06,-8.909521056921221e-06,0.0005653753178194165,0.002382882870733738,0.002455515321344137,0.017214665189385414,-0.1839829385280609,0.0039338041096925735,0.0,0.0,0.0,0.0,0.0,0.0,-0.00045634337584488094,0.0024527141358703375,-0.0,0.0,0.0,0.0,-0.0038485629484057426,0.0552184171974659,0.0004528866847977042,17347.0,8906.0,8631.0,16673.0,0.6896661520004272,0.16554400324821472,0.1544887125492096,0.6346950531005859,0.0,0.0,0.0,0.0,0.0,0.0,0.0,0.0,1.6524728536605835,0.022386895337790258,0.04334425142271638,-0.043108357274485636,-0.009766358882188797,-0.0013977664057165384,0.0,-0.0018875260138884187,-0.0009508462389931083,0.0
130,5,1.806633736123331e-05,-5.9902599787164945e-06,-8.909521056921221e-06,0.0005653753178194165,0.002382882870733738,0.002455515321344137,0.017214665189385414,-0.1839829385280609,0.0039338041096925735,0.0,0.0,0.0,0.0,0.0,0.0,-0.002931112190708518,0.000558065134100616,-0.0,0.0,0.0,0.0,-0.0038485629484057426,0.0552184171974659,0.0004528866847977042,17347.0,8906.0,8631.0,16673.0,0.6896661520004272,0.16554400324821472,0.1544887125492096,0.6346950531005859,0.0,0.0,0.0,0.0,0.0,0.0,0.0,0.0,1.6507831811904907,0.022386895337790258,0.04334425142271638,-0.043108357274485636,-0.0022198567166924477,-0.008968708105385303,0.0,-0.0018875260138884187,-0.0009508462389931083,0.0
135,5,-6.252270736695209e-07,-8.731542038731277e-06,-1.4001420822751243e-05,-0.0020168377086520195,0.001282106968574226,0.0015932340174913406,0.01720997877418995,-0.1840076595544815,0.003934951964765787,0.0,0.0,0.0,0.0,0.0,0.0,-0.002931112190708518,0.000558065134100616,-0.0,0.0,0.0,0.0,-0.0035763022024184465,0.05639594420790672,0.0004090897273272276,17422.0,8795.0,8584.0,16776.0,0.6959505081176758,0.16105373203754425,0.15264035761356354,0.642997682094574,0.0,0.0,0.0,0.0,0.0,0.0,0.0,0.0,1.6507831811904907,0.021331837792121888,0.04345788881276421,-0.042953693636688814,-0.0022198567166924477,-0.008968708105385303,0.0,-0.00048128285561688244,0.0024655647575855255,0.0
140,5,-6.252270736695209e-07,-8.731542038731277e-06,-1.4001420822751243e-05,-0.0020168377086520195,0.001282106968574226,0.0015932340174913406,0.01720997877418995,-0.1840076595544815,0.003934951964765787,0.0,0.0,0.0,0.0,0.0,0.0,-0.001587631064467132,-0.001902904361486435,-0.0,0.0,0.0,0.0,-0.0035763022024184465,0.05639594420790672,0.0004090897273272276,17422.0,8795.0,8584.0,16776.0,0.6959505081176758,0.16105373203754425,0.15264035761356354,0.642997682094574,0.0,0.0,0.0,0.0,0.0,0.0,0.0,0.0,1.6501085758209229,0.021331837792121888,0.04345788881276421,-0.042953693636688814,0.007566248066723347,-0.004855906590819359,0.0,-0.00048128285561688244,0.0024655647575855255,0.0
145,5,3.846840172627708e-06,4.51659616373945e-06,-2.990581606354681e-06,-0.0020168377086520195,0.001282106968574226,0.0015932340174913406,0.01719752699136734,-0.18403498828411102,0.003935786429792643,0.0,0.0,0.0,0.0,0.0,0.0,-0.001587631064467132,-0.001902904361486435,-0.0,0.0,0.0,0.0,-0.0035687729250639677,0.05631079524755478,0.0003207530244253576,17400.0,8843.0,8559.0,16785.0,0.6941538453102112,0.16297249495983124,0.15164826810359955,0.6436982154846191,0.0,0.0,0.0,0.0,0.0,0.0,0.0,0.0,1.6501085758209229,0.02118687696815294,0.04312452302405702,-0.04279969843364607,0.007566248066723347,-0.004855906590819359,0.0,-0.00045634337584488094,0.0024527141358703375,0.0
150,5,3.846840172627708e-06,4.51659616373945e-06,-2.990581606354681e-06,-0.0020168377086520195,0.001282106968574226,0.0015932340174913406,0.01719752699136734,-0.18403498828411102,0.003935786429792643,0.0,0.0,0.0,0.0,0.0,0.0,-0.0015639563789591193,-0.0018969012890011072,-0.0,0.0,0.0,0.0,-0.0035687729250639677,0.05631079524755478,0.0003207530244253576,17400.0,8843.0,8559.0,16785.0,0.6941538453102112,0.16297249495983124,0.15164826810359955,0.6436982154846191,0.0,0.0,0.0,0.0,0.0,0.0,0.0,0.0,1.6499465703964233,0.02118687696815294,0.04312452302405702,-0.04279969843364607,0.00754163833335042,-0.0047830259427428246,0.0,-0.00045634337584488094,0.0024527141358703375,0.0
156,5,2.1828995159012266e-05,-7.906257906142855e-07,-3.007382656505797e-05,-0.0020168377086520195,0.001282106968574226,0.0015932340174913406,0.017190968617796898,-0.1839965581893921,0.003941159229725599,0.0,0.0,0.0,0.0,0.0,0.0,-0.0015639563789591193,-0.0018969012890011072,-0.0,0.0,0.0,0.0,-0.004084464628249407,0.0556005984544754,0.0005056714289821684,17418.0,8890.0,8624.0,16689.0,0.6956320405006409,0.16491425037384033,0.1542128324508667,0.6360240578651428,0.0,0.0,0.0,0.0,0.0,0.0,0.0,0.0,1.6499465703964233,0.021685306366701504,0.04202005939896008,-0.04213140127413888,0.00754163833335042,-0.0047830259427428246,0.0,-0.002931112190708518,0.000558065134100616,0.0
161,5,2.1828995159012266e-05,-7.906257906142855e-07,-3.007382656505797e-05,-0.0020168377086520195,0.001282106968574226,0.0015932340174913406,0.017190968617796898,-0.1839965581893921,0.003941159229725599,0.0,0.0,0.0,0.0,0.0,0.0,-0.001573676010593772,-0.0018722130917012691,-0.0,0.0,0.0,0.0,-0.004084464628249407,0.0556005984544754,0.0005056714289821684,17418.0,8890.0,8624.0,16689.0,0.6956320405006409,0.16491425037384033,0.1542128324508667,0.6360240578651428,0.0,0.0,0.0,0.0,0.0,0.0,0.0,0.0,1.649763822555542,0.021685306366701504,0.04202005939896008,-0.04213140127413888,0.0074426596984267235,-0.004812218248844147,0.0,-0.002931112190708518,0.000558065134100616,0.0
166,5,3.137178282486275e-05,-1.3286612556839827e-05,-2.6837491532205604e-05,0.00033839960815384984,0.0020123610738664865,0.0002489335311111063,0.017144160345196724,-0.18395397067070007,0.004029915668070316,0.0,0.0,0.0,0.0,0.0,0.0,-0.001573676010593772,-0.0018722130917012691,-0.0,0.0,0.0,0.0,-0.0036786876153200865,0.05488518252968788,0.000881973362993449,17328.0,9004.0,8663.0,16697.0,0.6881301403045654,0.16957463324069977,0.1557377427816391,0.6366659998893738,0.0,0.0,0.0,0.0,0.0,0.0,0.0,0.0,1.649763822555542,0.022084353067532977,0.043187616044262356,-0.04260420680767265,0.0074426596984267235,-0.004812218248844147,0.0,-0.001587631064467132,-0.001902904361486435,0.0
172,6,2.4255879907286726e-05,-1.996620630961843e-05,-5.405224874266423e-05,-0.0007185486610978842,0.0016064958181232214,0.0033653443679213524,0.017144160345196724,-0.18395397067070007,0.004029915668070316,0.0,0.0,0.0,0.0,0.0,0.0,-0.0024962204042822123,0.00036341650411486626,-0.0,0.0,0.0,0.0,-0.0036786876153200865,0.05488518252968788,0.000881973362993449,17328.0,9004.0,8663.0,16697.0,0.6881301403045654,0.16957463324069977,0.1557377427816391,0.6366659998893738,0.0,0.0,0.0,0.0,0.0,0.0,0.0,0.0,1.6467690467834473,0.021851956264462707,0.04186881762476751,-0.0424109646181692,-0.0014420751249417663,-0.00761944567784667,0.0,-0.001587631064467132,-0.001902904361486435,0.0
177,5,2.4255879907286726e-05,-1.996620630961843e-05,-5.405224874266423e-05,-0.0007185486610978842,0.0016064958181232214,0.0033653443679213524,0.01715838350355625,-0.18400931358337402,0.0037853599060326815,0.0,0.0,0.0,0.0,0.0,0.0,-0.0024962204042822123,0.00036341650411486626,-0.0,0.0,0.0,0.0,-0.003768859663978219,0.054957833141088486,-0.0015663612866774201,18016.0,7492.0,9994.0,15942.0,0.7465081214904785,0.11268934607505798,0.21306243538856506,0.5776866674423218,0.0,0.0,0.0,0.0,0.0,0.0,0.0,0.0,1.6467690467834473,0.021851956264462707,0.04186881762476751,-0.0424109646181692,-0.0014420751249417663,-0.00761944567784667,0.0,-0.001573676010593772,-0.0018722130917012691,0.0
182,5,2.79190771834692e-05,9.042260899150278e-06,-4.563562924886355e-06,0.00015216418250929564,-0.002838417887687683,-0.004592504817992449,0.01715838350355625,-0.18400931358337402,0.0037853599060326815,0.0,0.0,0.0,0.0,0.0,0.0,-0.0020133182406425476,-0.000646454282104969,-0.0,0.0,0.0,0.0,-0.003768859663978219,0.054957833141088486,-0.0015663612866774201,18016.0,7492.0,9994.0,15942.0,0.7465081214904785,0.11268934607505798,0.21306243538856506,0.5776866674423218,0.0,0.0,0.0,0.0,0.0,0.0,0.0,0.0,1.6437721252441406,0.021677944452403092,0.04302711779762518,-0.042106121046019025,0.0025605333503335714,-0.006134258583188057,0.0,-0.001573676010593772,-0.0018722130917012691,0.0
187,5,2.79190771834692e-05,9.042260899150278e-06,-4.563562924886355e-06,0.00015216418250929564,-0.002838417887687683,-0.004592504817992449,0.017231766134500504,-0.18386220932006836,0.003902684198692441,0.0,0.0,0.0,0.0,0.0,0.0,-0.0020133182406425476,-0.000646454282104969,-0.0,0.0,0.0,0.0,-0.003997336141765118,0.05560915172100067,0.003624227363616228,16462.0,10545.0,6545.0,17583.0,0.617997407913208,0.23935574293136597,0.08289548009634018,0.7095151543617249,0.0,0.0,0.0,0.0,0.0,0.0,0.0,0.0,1.6437721252441406,0.021677944452403092,0.04302711779762518,-0.042106121046019025,0.0025605333503335714,-0.006134258583188057,0.0,-0.0024962204042822123,0.00036341650411486626,0.0
192,5,-7.647621714568231e-06,-3.6141254895483144e-06,-7.386392826447263e-05,0.00015216418250929564,-0.002838417887687683,-0.004592504817992449,0.017231766134500504,-0.18386220932006836,0.003902684198692441,0.0,0.0,0.0,0.0,0.0,0.0,0.0034864465706050396,0.00018179419566877186,-0.0,0.0,0.0,0.0,-0.003997336141765118,0.05560915172100067,0.003624227363616228,16462.0,10545.0,6545.0,17583.0,0.617997407913208,0.23935574293136597,0.08289548009634018,0.7095151543617249,0.0,0.0,0.0,0.0,0.0,0.0,0.0,0.0,1.6547784805297852,0.02064583394602087,0.039561609431990455,-0.0418304736759281,-0.0007248850888572633,0.01069374568760395,0.0,-0.0024962204042822123,0.00036341650411486626,0.0
197,5,-7.647621714568231e-06,-3.6141254895483144e-06,-7.386392826447263e-05,0.00015216418250929564,-0.002838417887687683,-0.004592504817992449,0.017200801521539688,-0.1839357316493988,0.004075348377227783,0.0,0.0,0.0,0.0,0.0,0.0,0.0034864465706050396,0.00018179419566877186,-0.0,0.0,0.0,0.0,-0.003711637808009982,0.05647624284029007,-0.0009921386372298002,18378.0,6467.0,10517.0,15574.0,0.7782193422317505,0.08065648376941681,0.2379681020975113,0.5499250888824463,0.0,0.0,0.0,0.0,0.0,0.0,0.0,0.0,1.6547784805297852,0.02064583394602087,0.039561609431990455,-0.0418304736759281,-0.0007248850888572633,0.01069374568760395,0.0,-0.0020133182406425476,-0.000646454282104969,0.0
202,5,-5.239324309513904e-06,-3.4538484214863274e-06,-7.455912418663502e-05,0.00015216418250929564,-0.002838417887687683,-0.004592504817992449,0.017200801521539688,-0.1839357316493988,0.004075348377227783,0.0,0.0,0.0,0.0,0.0,0.0,0.0034642056562006474,0.00013274619414005429,-0.0,0.0,0.0,0.0,-0.003711637808009982,0.05647624284029007,-0.0009921386372298002,18378.0,6467.0,10517.0,15574.0,0.7782193422317505,0.08065648376941681,0.2379681020975113,0.5499250888824463,0.0,0.0,0.0,0.0,0.0,0.0,0.0,0.0,1.654559850692749,0.020432229805733983,0.0395745474310188,-0.040972487367565175,-0.0005292414571158588,0.010624123737215996,0.0,-0.0020133182406425476,-0.000646454282104969,0.0
207,5,-5.239324309513904e-06,-3.4538484214863274e-06,-7.455912418663502e-05,0.00015216418250929564,-0.002838417887687683,-0.004592504817992449,0.01728479191660881,-0.18414375185966492,0.004465259611606598,0.0,0.0,0.0,0.0,0.0,0.0,0.0034642056562006474,0.00013274619414005429,-0.0,0.0,0.0,0.0,-0.0036505283787846565,0.055819712579250336,0.0023276570718735456,17486.0,8673.0,8851.0,16665.0,0.7012766599655151,0.15615853667259216,0.16330525279045105,0.634037971496582,0.0,0.0,0.0,0.0,0.0,0.0,0.0,0.0,1.654559850692749,0.020432229805733983,0.0395745474310188,-0.040972487367565175,-0.0005292414571158588,0.010624123737215996,0.0,0.0034864465706050396,0.00018179419566877186,0.0
212,5,-8.562657967559062e-06,5.567584594246e-05,-7.973266474436969e-05,-0.0003379344125278294,-0.00823093019425869,-0.0012161775957792997,0.01728479191660881,-0.18414375185966492,0.004465259611606598,0.0,0.0,0.0,0.0,0.0,0.0,0.003464480396360159,0.00013606356515083462,-0.0,0.0,0.0,0.0,-0.0036505283787846565,0.055819712579250336,0.0023276570718735456,17486.0,8673.0,8851.0,16665.0,0.7012766599655151,0.15615853667259216,0.16330525279045105,0.634037971496582,0.0,0.0,0.0,0.0,0.0,0.0,0.0,0.0,1.6545640230178833,0.016254396958565544,0.03891337533041896,-0.04118302301394757,-0.0005424687406048179,0.010624992661178112,0.0,0.0034864465706050396,0.00018179419566877186,0.0
217,5,-8.562657967559062e-06,5.567584594246e-05,-7.973266474436969e-05,-0.0003379344125278294,-0.00823093019425869,-0.0012161775957792997,0.017638185992836952,-0.18436171114444733,0.00469847209751606,0.0,0.0,0.0,0.0,0.0,0.0,0.003464480396360159,0.00013606356515083462,-0.0,0.0,0.0,0.0,-0.003013483714312315,0.05625390633940697,0.0007865000516176224,17784.0,7847.0,9528.0,16374.0,0.7265176177024841,0.12501981854438782,0.19196158647537231,0.6110607981681824,0.0,0.0,0.0,0.0,0.0,0.0,0.0,0.0,1.6545640230178833,0.016254396958565544,0.03891337533041896,-0.04118302301394757,-0.0005424687406048179,0.010624992661178112,0.0,0.0034642056562006474,0.00013274619414005429,0.0
222,5,5.074415821582079e-05,1.2536802387330681e-05,-1.7489173842477612e-05,-0.0003379344125278294,-0.00823093019425869,-0.0012161775957792997,0.017638185992836952,-0.18436171114444733,0.00469847209751606,0.0,0.0,0.0,0.0,0.0,0.0,0.009836576879024506,-0.0003188886621501297,-0.0,0.0,0.0,0.0,-0.003013483714312315,0.05625390633940697,0.0007865000516176224,17784.0,7847.0,9528.0,16374.0,0.7265176177024841,0.12501981854438782,0.19196158647537231,0.6110607981681824,0.0,0.0,0.0,0.0,0.0,0.0,0.0,0.0,1.7097370624542236,0.020676094683382894,0.04276006362198439,-0.041998238510969156,0.0013137093046680093,0.03117232210934162,0.0,0.0034642056562006474,0.00013274619414005429,0.0
227,5,5.074415821582079e-05,1.2536802387330681e-05,-1.7489173842477612e-05,-0.0003379344125278294,-0.00823093019425869,-0.0012161775957792997,0.017638185992836952,-0.18436171114444733,0.00469847209751606,0.0,0.0,0.0,0.0,0.0,0.0,0.009836576879024506,-0.0003188886621501297,-0.0,0.0,0.0,0.0,-0.002947770757600665,0.05527075007557869,-0.0008608353673480451,16921.0,9693.0,7953.0,17130.0,0.6546810865402222,0.19932086765766144,0.12881572544574738,0.6717463135719299,0.0,0.0,0.0,0.0,0.0,0.0,0.0,0.0,1.7097370624542236,0.020676094683382894,0.04276006362198439,-0.041998238510969156,0.0013137093046680093,0.03117232210934162,0.0,0.003464480396360159,0.00013606356515083462,0.0
233,5,5.488015085575171e-05,1.3471596957970178e-06,-1.2518132280092686e-05,0.00036114538670517504,-0.001949615078046918,-0.001082996022887528,0.017638185992836952,-0.18436171114444733,0.00469847209751606,0.0,0.0,0.0,0.0,0.0,0.0,0.009765511378645897,-0.00023976006195880473,-0.0,0.0,0.0,0.0,-0.002947770757600665,0.05527075007557869,-0.0008608353673480451,16921.0,9693.0,7953.0,17130.0,0.6546810865402222,0.19932086765766144,0.12881572544574738,0.6717463135719299,0.0,0.0,0.0,0.0,0.0,0.0,0.0,0.0,1.7090727090835571,0.019671721139937235,0.03731112854761929,-0.040369257986612395,0.0009873441886156797,0.030935101211071014,0.0,0.003464480396360159,0.00013606356515083462,0.0
238,5,5.488015085575171e-05,1.3471596957970178e-06,-1.2518132280092686e-05,0.00036114538670517504,-0.001949615078046918,-0.001082996022887528,0.017550721764564514,-0.18229825794696808,0.00480275833979249,0.0,0.0,0.0,0.0,0.0,0.0,0.009765511378645897,-0.00023976006195880473,-0.0,0.0,0.0,0.0,-0.001287592458538711,0.05088310316205025,0.0011301039485260844,17081.0,9662.0,9953.0,16650.0,0.667738676071167,0.19792991876602173,0.2111527919769287,0.6329156756401062,0.0,0.0,0.0,0.0,0.0,0.0,0.0,0.0,1.7090727090835571,0.019671721139937235,0.03731112854761929,-0.040369257986612395,0.0009873441886156797,0.030935101211071014,0.0,0.009836576879024506,-0.0003188886621501297,0.0
243,5,9.193397272611037e-05,-2.4881204808480106e-05,0.00016279477858915925,0.00036114538670517504,-0.001949615078046918,-0.001082996022887528,0.017550721764564514,-0.18229825794696808,0.00480275833979249,0.0,0.0,0.0,0.0,0.0,0.0,0.0023986580781638622,0.0004177881928626448,-0.0,0.0,0.0,0.0,-0.001287592458538711,0.05088310316205025,0.0011301039485260844,17081.0,9662.0,9953.0,16650.0,0.667738676071167,0.19792991876602173,0.2111527919769287,0.6329156756401062,0.0,0.0,0.0,0.0,0.0,0.0,0.0,0.0,1.6460905075073242,0.024551379451337552,0.03231921296252949,-0.04234411366875458,-0.0016571450978517532,0.0073186312802135944,0.0,0.009836576879024506,-0.0003188886621501297,0.0
248,5,9.193397272611037e-05,-2.4881204808480106e-05,0.00016279477858915925,0.00036114538670517504,-0.001949615078046918,-0.001082996022887528,0.017432348802685738,-0.17805874347686768,0.004423255100846291,0.0,0.0,0.0,0.0,0.0,0.0,0.0023986580781638622,0.0004177881928626448,-0.0,0.0,0.0,0.0,-0.0017075513023883104,0.03941163420677185,-0.0001388200034853071,16473.0,10708.0,11200.0,15843.0,0.6188483834266663,0.24745552241802216,0.2726050615310669,0.5701637268066406,0.0,0.0,0.0,0.0,0.0,0.0,0.0,0.0,1.6460905075073242,0.024551379451337552,0.03231921296252949,-0.04234411366875458,-0.0016571450978517532,0.0073186312802135944,0.0,0.009765511378645897,-0.00023976006195880473,0.0
253,5,6.0937731177546084e-05,-3.90826680813916e-05,0.0003712812322191894,-0.0035750912502408028,0.0009243293898180127,-0.025451574474573135,0.017432348802685738,-0.17805874347686768,0.004423255100846291,0.0,0.0,0.0,0.0,0.0,0.0,0.00235170591622591,0.00046931998804211617,-0.0,0.0,0.0,0.0,-0.0017075513023883104,0.03941163420677185,-0.0001388200034853071,16473.0,10708.0,11200.0,15843.0,0.6188483834266663,0.24745552241802216,0.2726050615310669,0.5701637268066406,0.0,0.0,0.0,0.0,0.0,0.0,0.0,0.0,1.645841360092163,0.019370057137879156,0.019634619075359138,-0.0416244841321589,-0.001861262833699584,0.007174287922680378,0.0,0.009765511378645897,-0.00023976006195880473,0.0
258,5,6.0937731177546084e-05,-3.90826680813916e-05,0.0003712812322191894,-0.0035750912502408028,0.0009243293898180127,-0.025451574474573135,0.01694493368268013,-0.16359573602676392,0.004204211290925741,0.0,0.0,0.0,0.0,0.0,0.0,0.00235170591622591,0.00046931998804211617,-0.0,0.0,0.0,0.0,-0.002689710818231106,0.022499317303299904,-0.0005627198843285441,14785.0,12699.0,11784.0,14778.0,0.4928097426891327,0.3568357825279236,0.3041016459465027,0.49234330654144287,0.0,0.0,0.0,0.0,0.0,0.0,0.0,0.0,1.645841360092163,0.019370057137879156,0.019634619075359138,-0.0416244841321589,-0.001861262833699584,0.007174287922680378,0.0,0.0023986580781638622,0.0004177881928626448,0.0
263,5,3.664948235382326e-05,-7.101026130840182e-05,0.0007890254491940141,-0.004344625864177942,0.004201042931526899,-0.06030993163585663,0.01694493368268013,-0.16359573602676392,0.004204211290925741,0.0,0.0,0.0,0.0,0.0,0.0,-0.0011946153827011585,-0.0032625896856188774,-0.0,0.0,0.0,0.0,-0.002689710818231106,0.022499317303299904,-0.0005627198843285441,14785.0,12699.0,11784.0,14778.0,0.4928097426891327,0.3568357825279236,0.3041016459465027,0.49234330654144287,0.0,0.0,0.0,0.0,0.0,0.0,0.0,0.0,1.662488579750061,0.021784581500178934,-0.0027027346193401443,-0.04181626224865308,0.013069890439510345,-0.0036812485195696354,0.0,0.0023986580781638622,0.0004177881928626448,0.0
268,5,3.664948235382326e-05,-7.101026130840182e-05,0.0007890254491940141,-0.004344625864177942,0.004201042931526899,-0.06030993163585663,0.016881175339221954,-0.14792746305465698,0.004070614464581013,0.0,0.0,0.0,0.0,0.0,0.0,-0.0011946153827011585,-0.0032625896856188774,-0.0,0.0,0.0,0.0,-0.002530273050069809,0.0006314640049822628,0.0010722796432673931,13980.0,13513.0,13956.0,12826.0,0.4378018379211426,0.4073193073272705,0.4361879229545593,0.3645322918891907,0.0,0.0,0.0,0.0,0.0,0.0,0.0,0.0,1.662488579750061,0.021784581500178934,-0.0027027346193401443,-0.04181626224865308,0.013069890439510345,-0.0036812485195696354,0.0,0.0023986580781638622,0.0004177881928626448,0.0
273,5,-0.0001277705596294254,-3.887070852215402e-05,0.0012310217134654522,-0.004344625864177942,0.004201042931526899,-0.06030993163585663,0.016881175339221954,-0.14792746305465698,0.004070614464581013,0.0,0.0,0.0,0.0,0.0,0.0,-0.005162341985851526,-0.003957370296120644,-0.0,0.0,0.0,0.0,-0.002530273050069809,0.0006314640049822628,0.0010722796432673931,13980.0,13513.0,13956.0,12826.0,0.4378018379211426,0.4073193073272705,0.4361879229545593,0.3645322918891907,0.0,0.0,0.0,0.0,0.0,0.0,0.0,0.0,1.6872528791427612,0.01412114038786666,-0.034753928740860744,-0.03865857746432922,0.016089102253317833,-0.016144774854183197,0.0,0.0023986580781638622,0.0004177881928626448,0.0
278,5,-0.0001277705596294254,-3.887070852215402e-05,0.0012310217134654522,-0.004344625864177942,0.004201042931526899,-0.06030993163585663,0.016669105738401413,-0.1158176064491272,0.0035327691584825516,0.0,0.0,0.0,0.0,0.0,0.0,-0.005162341985851526,-0.003957370296120644,-0.0,0.0,0.0,0.0,-0.0029991280753165483,-0.018833449110388756,0.000675346702337265,12242.0,15358.0,15351.0,11054.0,0.32997918128967285,0.5339717864990234,0.5335067510604858,0.2650308609008789,0.0,0.0,0.0,0.0,0.0,0.0,0.0,0.0,1.6872528791427612,0.01412114038786666,-0.034753928740860744,-0.03865857746432922,0.016089102253317833,-0.016144774854183197,0.0,0.00235170591622591,0.00046931998804211617,0.0
283,5,-0.0002112325164489448,-6.763261626474559e-05,0.001843743142671883,-0.011753286235034466,0.005131845828145742,-0.09765054285526276,0.016669105738401413,-0.1158176064491272,0.0035327691584825516,0.0,0.0,0.0,0.0,0.0,0.0,-0.005101602990180254,-0.004176422022283077,-0.0,0.0,0.0,0.0,-0.0029991280753165483,-0.018833449110388756,0.000675346702337265,12242.0,15358.0,15351.0,11054.0,0.32997918128967285,0.5339717864990234,0.5335067510604858,0.2650308609008789,0.0,0.0,0.0,0.0,0.0,0.0,0.0,0.0,1.6886616945266724,0.018582115157790645,-0.062492266110240634,-0.04133529560318506,0.01699385978281498,-0.015968143939971924,0.0,0.00235170591622591,0.00046931998804211617,0.0
288,5,-0.0002112325164489448,-6.763261626474559e-05,0.001843743142671883,-0.011753286235034466,0.005131845828145742,-0.09765054285526276,0.016303151845932007,-0.09000067412853241,0.003131619654595852,0.0,0.0,0.0,0.0,0.0,0.0,-0.005101602990180254,-0.004176422022283077,-0.0,0.0,0.0,0.0,-0.0033973450772464275,-0.04005718231201172,-3.7796140532009304e-05,10957.0,16429.0,16215.0,9996.0,0.2600603699684143,0.6153678297996521,0.598678708076477,0.21314598619937897,0.0,0.0,0.0,0.0,0.0,0.0,0.0,0.0,1.6886616945266724,0.018582115157790645,-0.062492266110240634,-0.04133529560318506,0.01699385978281498,-0.015968143939971924,0.0,-0.005162341985851526,-0.003957370296120644,0.0
293,5,-0.0004688255721703172,-0.00012018284178338945,0.002534138970077038,-0.011753286235034466,0.005131845828145742,-0.09765054285526276,0.016303151845932007,-0.09000067412853241,0.003131619654595852,0.0,0.0,0.0,0.0,0.0,0.0,-0.006021326407790184,-0.010680980049073696,-0.0,0.0,0.0,0.0,-0.0033973450772464275,-0.04005718231201172,-3.7796140532009304e-05,10957.0,16429.0,16215.0,9996.0,0.2600603699684143,0.6153678297996521,0.598678708076477,0.21314598619937897,0.0,0.0,0.0,0.0,0.0,0.0,0.0,0.0,1.7576744556427002,0.018550413864141038,-0.09677183137737441,-0.039482650567130795,0.045236118137836456,-0.019617080688476562,0.0,-0.005162341985851526,-0.003957370296120644,0.0
298,5,-0.0004688255721703172,-0.00012018284178338945,0.002534138970077038,-0.011753286235034466,0.005131845828145742,-0.09765054285526276,0.015931708738207817,-0.04947590455412865,0.002597498008981347,0.0,0.0,0.0,0.0,0.0,0.0,-0.006021326407790184,-0.010680980049073696,-0.0,0.0,0.0,0.0,-0.00425220699980855,-0.048822980374097824,0.0006845173193141818,10016.0,17067.0,16875.0,8697.0,0.21405711770057678,0.6665570735931396,0.650936484336853,0.15711098909378052,0.0,0.0,0.0,0.0,0.0,0.0,0.0,0.0,1.7576744556427002,0.018550413864141038,-0.09677183137737441,-0.039482650567130795,0.045236118137836456,-0.019617080688476562,0.0,-0.005162341985851526,-0.003957370296120644,0.0
304,5,-0.0006205988465808332,-0.00020266063802409917,0.002996928058564663,-0.02291410230100155,0.011950072832405567,-0.09459492564201355,0.015931708738207817,-0.04947590455412865,0.002597498008981347,0.0,0.0,0.0,0.0,0.0,0.0,-0.006097231060266495,-0.010992574505507946,-0.0,0.0,0.0,0.0,-0.00425220699980855,-0.048822980374097824,0.0006845173193141818,10016.0,17067.0,16875.0,8697.0,0.21405711770057678,0.6665570735931396,0.650936484336853,0.15711098909378052,0.0,0.0,0.0,0.0,0.0,0.0,0.0,0.0,1.7614049911499023,0.012142035313411357,-0.12817206216930752,-0.04027224999974167,0.04665451869368553,-0.019906528294086456,0.0,-0.005162341985851526,-0.003957370296120644,0.0
309,5,-0.0006205988465808332,-0.00020266063802409917,0.002996928058564663,-0.02291410230100155,0.011950072832405567,-0.09459492564201355,0.015534996055066586,-0.02421116642653942,0.0022210562601685524,0.0,0.0,0.0,0.0,0.0,0.0,-0.006097231060266495,-0.010992574505507946,-0.0,0.0,0.0,0.0,-0.003877005074173212,-0.05324431136250496,0.0004297670675441623,10489.0,17274.0,17154.0,8860.0,0.23660485446453094,0.6836684346199036,0.6737214922904968,0.16367964446544647,0.0,0.0,0.0,0.0,0.0,0.0,0.0,0.0,1.7614049911499023,0.012142035313411357,-0.12817206216930752,-0.04027224999974167,0.04665451869368553,-0.019906528294086456,0.0,-0.005101602990180254,-0.004176422022283077,0.0
314,5,-0.0008391459123231471,-0.00012867884652223438,0.0036037524696439505,-0.02291410230100155,0.011950072832405567,-0.09459492564201355,0.015534996055066586,-0.02421116642653942,0.0022210562601685524,0.0,0.0,0.0,0.0,0.0,0.0,-0.013110154308378696,-0.019619405269622803,-0.0,0.0,0.0,0.0,-0.003877005074173212,-0.05324431136250496,0.0004297670675441623,10489.0,17274.0,17154.0,8860.0,0.23660485446453094,0.6836684346199036,0.6737214922904968,0.16367964446544647,0.0,0.0,0.0,0.0,0.0,0.0,0.0,0.0,1.8901456594467163,0.012565649171506155,-0.14924162737682842,-0.03982576010977497,0.08934450149536133,-0.04592921584844589,0.0,-0.005101602990180254,-0.004176422022283077,0.0
319,5,-0.0008391459123231471,-0.00012867884652223438,0.0036037524696439505,-0.02291410230100155,0.011950072832405567,-0.09459492564201355,0.015534996055066586,-0.02421116642653942,0.0022210562601685524,0.0,0.0,0.0,0.0,0.0,0.0,-0.013110154308378696,-0.019619405269622803,-0.0,0.0,0.0,0.0,-0.003877005074173212,-0.05324431136250496,0.0004297670675441623,10489.0,17274.0,17154.0,8860.0,0.23660485446453094,0.6836684346199036,0.6737214922904968,0.16367964446544647,0.0,0.0,0.0,0.0,0.0,0.0,0.0,0.0,1.8901456594467163,0.012565649171506155,-0.14924162737682842,-0.03982576010977497,0.08934450149536133,-0.04592921584844589,0.0,-0.005101602990180254,-0.004176422022283077,0.0
324,5,-0.0013180298265069723,-0.00015759131929371506,0.003725253976881504,-0.06663171201944351,0.008249525912106037,-0.052418142557144165,0.015537789091467857,0.00654245400801301,0.0016853666165843606,0.0,0.0,0.0,0.0,0.0,0.0,-0.012978590093553066,-0.01986023038625717,-0.0,0.0,0.0,0.0,-0.0040840948931872845,-0.04755996912717819,-0.0003164082008879632,10344.0,17294.0,16549.0,10179.0,0.22959336638450623,0.6852772831916809,0.6248220801353455,0.22171229124069214,0.0,0.0,0.0,0.0,0.0,0.0,0.0,0.0,1.8924078941345215,-0.0076208948635757955,-0.18121986137398663,-0.04475732718573728,0.09054944664239883,-0.045522768050432205,0.0,-0.006021326407790184,-0.010680980049073696,0.0
329,5,-0.0013180298265069723,-0.00015759131929371506,0.003725253976881504,-0.06663171201944351,0.008249525912106037,-0.052418142557144165,0.015537789091467857,0.00654245400801301,0.0016853666165843606,0.0,0.0,0.0,0.0,0.0,0.0,-0.012978590093553066,-0.01986023038625717,-0.0,0.0,0.0,0.0,-0.0040840948931872845,-0.04755996912717819,-0.0003164082008879632,10344.0,17294.0,16549.0,10179.0,0.22959336638450623,0.6852772831916809,0.6248220801353455,0.22171229124069214,0.0,0.0,0.0,0.0,0.0,0.0,0.0,0.0,1.8924078941345215,-0.0076208948635757955,-0.18121986137398663,-0.04475732718573728,0.09054944664239883,-0.045522768050432205,0.0,-0.006021326407790184,-0.010680980049073696,0.0
334,5,-0.0013175345957279205,-0.0001295028778258711,0.003932352177798748,-0.06663171201944351,0.008249525912106037,-0.052418142557144165,0.015365991741418839,0.02023128792643547,0.0012340375687927008,0.0,0.0,0.0,0.0,0.0,0.0,-0.012978590093553066,-0.01986023038625717,-0.0,0.0,0.0,0.0,-0.0038669221103191376,-0.03630879893898964,-0.0008585065370425582,11620.0,16503.0,15650.0,11517.0,0.29510602355003357,0.6211670637130737,0.5556081533432007,0.28952375054359436,0.0,0.0,0.0,0.0,0.0,0.0,0.0,0.0,1.8924078941345215,-0.0041936162816944905,-0.18326858761095072,-0.047940523513136775,0.09054944664239883,-0.045522768050432205,0.0,-0.006097231060266495,-0.010992574505507946,0.0
339,5,-0.0013175345957279205,-0.0001295028778258711,0.003932352177798748,-0.06663171201944351,0.008249525912106037,-0.052418142557144165,0.015365991741418839,0.02023128792643547,0.0012340375687927008,0.0,0.0,0.0,0.0,0.0,0.0,-0.00751714501529932,-0.046993453055620193,-0.0,0.0,0.0,0.0,-0.0038669221103191376,-0.03630879893898964,-0.0008585065370425582,11620.0,16503.0,15650.0,11517.0,0.29510602355003357,0.6211670637130737,0.5556081533432007,0.28952375054359436,0.0,0.0,0.0,0.0,0.0,0.0,0.0,0.0,2.2715864181518555,-0.0041936162816944905,-0.18326858761095072,-0.047940523513136775,0.25712624192237854,-0.03165069967508316,0.0,-0.006097231060266495,-0.010992574505507946,0.0
344,5,-0.001645354088395834,-0.00033597290166653693,0.0036543163005262613,-0.06599102169275284,0.028076212853193283,0.01239707786589861,0.01527380757033825,0.02981160394847393,0.0006087094079703093,0.0,0.0,0.0,0.0,0.0,0.0,-0.00751714501529932,-0.046993453055620193,-0.0,0.0,0.0,0.0,-0.005597189534455538,-0.02301156520843506,-0.0008350324933417141,13109.0,16361.0,15108.0,13119.0,0.381841778755188,0.6100343465805054,0.5158055424690247,0.3824639916419983,0.0,0.0,0.0,0.0,0.0,0.0,0.0,0.0,2.2715864181518555,-0.007896324666020927,-0.19829607126814044,-0.04224766617753123,0.25712624192237854,-0.03165069967508316,0.0,-0.013110154308378696,-0.019619405269622803,0.0
349,5,-0.001645354088395834,-0.00033597290166653693,0.0036543163005262613,-0.06599102169275284,0.028076212853193283,0.01239707786589861,0.01527380757033825,0.02981160394847393,0.0006087094079703093,0.0,0.0,0.0,0.0,0.0,0.0,-0.024978626519441605,-0.04602910950779915,-0.0,0.0,0.0,0.0,-0.005597189534455538,-0.02301156520843506,-0.0008350324933417141,13109.0,16361.0,15108.0,13119.0,0.381841778755188,0.6100343465805054,0.5158055424690247,0.3824639916419983,0.0,0.0,0.0,0.0,0.0,0.0,0.0,0.0,2.314443588256836,-0.007896324666020927,-0.19829607126814044,-0.04224766617753123,0.2565324008464813,-0.1071375384926796,-0.0,-0.013110154308378696,-0.019619405269622803,0.0
354,5,-0.0015173917636275291,-0.0003549936518538743,0.0035621733404695988,-0.06599102169275284,0.028076212853193283,0.01239707786589861,0.014970513992011547,0.029350874945521355,0.00028790932265110314,0.0,0.0,0.0,0.0,0.0,0.0,-0.024978626519441605,-0.04602910950779915,-0.0,0.0,0.0,0.0,-0.0056308298371732235,-0.007526221219450235,-0.0011319952318444848,14228.0,15531.0,14012.0,14183.0,0.45437195897102356,0.5467804074287415,0.43988126516342163,0.4513742923736572,0.0,0.0,0.0,0.0,0.0,0.0,0.0,0.0,2.314443588256836,-0.00563759728468433,-0.18740024006309292,-0.042814257650044076,0.2565324008464813,-0.1071375384926796,-0.0,-0.012978590093553066,-0.01986023038625717,0.0
359,5,-0.0015173917636275291,-0.0003549936518538743,0.0035621733404695988,-0.06599102169275284,0.028076212853193283,0.01239707786589861,0.014970513992011547,0.029350874945521355,0.00028790932265110314,0.0,0.0,0.0,0.0,0.0,0.0,-0.0250178761780262,-0.04593048244714737,-0.0,0.0,0.0,0.0,-0.0056308298371732235,-0.007526221219450235,-0.0011319952318444848,14228.0,15531.0,14012.0,14183.0,0.45437195897102356,0.5467804074287415,0.43988126516342163,0.4513742923736572,0.0,0.0,0.0,0.0,0.0,0.0,0.0,0.0,2.3130972385406494,-0.00563759728468433,-0.18740024006309292,-0.042814257650044076,0.2558339238166809,-0.10724339634180069,-0.0,-0.012978590093553066,-0.01986023038625717,0.0
364,5,-0.0013279847335070372,-0.0004134266637265682,0.003424427006393671,-0.003667567390948534,0.018242448568344116,0.02148839458823204,0.014723315834999084,0.020764684304594994,-0.00014768163964617997,0.0,0.0,0.0,0.0,0.0,0.0,-0.0250178761780262,-0.04593048244714737,-0.0,0.0,0.0,0.0,-0.0037236064672470093,-0.002877454971894622,-0.0010970610892400146,15598.0,16436.0,15162.0,16028.0,0.551720142364502,0.615890383720398,0.5197275876998901,0.5842483043670654,0.0,0.0,0.0,0.0,0.0,0.0,0.0,0.0,2.3130972385406494,0.000977572576060904,-0.17174845812627407,-0.04396105025141078,0.2558339238166809,-0.10724339634180069,-0.0,-0.00751714501529932,-0.046993453055620193,0.0
369,5,-0.0013279847335070372,-0.0004134266637265682,0.003424427006393671,-0.003667567390948534,0.018242448568344116,0.02148839458823204,0.014723315834999084,0.020764684304594994,-0.00014768163964617997,0.0,0.0,0.0,0.0,0.0,0.0,-0.020937509834766388,-0.0048041436821222305,-0.0,0.0,0.0,0.0,-0.0037236064672470093,-0.002877454971894622,-0.0010970610892400146,15598.0,16436.0,15162.0,16028.0,0.551720142364502,0.615890383720398,0.5197275876998901,0.5842483043670654,0.0,0.0,0.0,0.0,0.0,0.0,0.0,0.0,1.821711778640747,0.000977572576060904,-0.17174845812627407,-0.04396105025141078,0.021083887666463852,-0.0706896111369133,-0.0,-0.00751714501529932,-0.046993453055620193,0.0
374,5,-0.0013604200212284923,-0.0004673729417845607,0.0031018389854580164,-0.003667567390948534,0.018242448568344116,0.02148839458823204,0.014504717662930489,0.011946949176490307,-0.0005032425397075713,0.0,0.0,0.0,0.0,0.0,0.0,-0.020937509834766388,-0.0048041436821222305,-0.0,0.0,0.0,0.0,-0.007936989888548851,0.007071752566844225,-0.0019060535123571754,16193.0,16605.0,14235.0,16655.0,0.5969170331954956,0.6293190717697144,0.45489251613616943,0.6333149671554565,0.0,0.0,0.0,0.0,0.0,0.0,0.0,0.0,1.821711778640747,-0.004050319103563417,-0.16686105152332253,-0.03932334825195214,0.021083887666463852,-0.0706896111369133,-0.0,-0.024978626519441605,-0.04602910950779915,0.0
379,5,-0.0013604200212284923,-0.0004673729417845607,0.0031018389854580164,-0.003667567390948534,0.018242448568344116,0.02148839458823204,0.014504717662930489,0.011946949176490307,-0.0005032425397075713,0.0,0.0,0.0,0.0,0.0,0.0,-0.021015768870711327,-0.00484355166554451,-0.0,0.0,0.0,0.0,-0.007936989888548851,0.007071752566844225,-0.0019060535123571754,16193.0,16605.0,14235.0,16655.0,0.5969170331954956,0.6293190717697144,0.45489251613616943,0.6333149671554565,0.0,0.0,0.0,0.0,0.0,0.0,0.0,0.0,1.82258939743042,-0.004050319103563417,-0.16686105152332253,-0.03932334825195214,0.021267041563987732,-0.07098794728517532,-0.0,-0.024978626519441605,-0.04602910950779915,0.0
385,5,-0.0012354057980701327,-0.0005282197962515056,0.0028885677456855774,0.013534685596823692,0.014598604291677475,0.03418790176510811,0.014664528891444206,-0.0035400032065808773,-0.0010682567954063416,0.0,0.0,0.0,0.0,0.0,0.0,-0.021015768870711327,-0.00484355166554451,-0.0,0.0,0.0,0.0,-0.007144390605390072,0.028944458812475204,-0.0011258157901465893,16809.0,15954.0,14072.0,16801.0,0.6456356644630432,0.578597366809845,0.4438815414905548,0.644982635974884,0.0,0.0,0.0,0.0,0.0,0.0,0.0,0.0,1.82258939743042,-0.0039475477564658076,-0.15217212755056092,-0.040502292185740044,0.021267041563987732,-0.07098794728517532,-0.0,-0.020937509834766388,-0.0048041436821222305,0.0
390,5,-0.0012354057980701327,-0.0005282197962515056,0.0028885677456855774,0.013534685596823692,0.014598604291677475,0.03418790176510811,0.014664528891444206,-0.0035400032065808773,-0.0010682567954063416,0.0,0.0,0.0,0.0,0.0,0.0,-0.017109252512454987,0.010026595555245876,-0.0,0.0,0.0,0.0,-0.007144390605390072,0.028944458812475204,-0.0011258157901465893,16809.0,15954.0,14072.0,16801.0,0.6456356644630432,0.578597366809845,0.4438815414905548,0.644982635974884,0.0,0.0,0.0,0.0,0.0,0.0,0.0,0.0,1.8183348178863525,-0.0039475477564658076,-0.15217212755056092,-0.040502292185740044,-0.04392465949058533,-0.05766003951430321,-0.0,-0.020937509834766388,-0.0048041436821222305,0.0
395,5,-0.0010913549922406673,-0.0006224047392606735,0.0026178471744060516,0.013534685596823692,0.014598604291677475,0.03418790176510811,0.014263310469686985,-0.01390653382986784,-0.0013017362216487527,0.0,0.0,0.0,0.0,0.0,0.0,-0.017109252512454987,0.010026595555245876,-0.0,0.0,0.0,0.0,-0.0064890431240201,0.02631840482354164,-0.0013222843408584595,16091.0,13197.0,11027.0,15995.0,0.5890601277351379,0.38730812072753906,0.26365286111831665,0.5816907286643982,0.0,0.0,0.0,0.0,0.0,0.0,0.0,0.0,1.8183348178863525,0.0008020056490348001,-0.14329452060324438,-0.041779326425126266,-0.04392465949058533,-0.05766003951430321,-0.0,-0.021015768870711327,-0.00484355166554451,0.0
400,5,-0.0010913549922406673,-0.0006224047392606735,0.0026178471744060516,0.013534685596823692,0.014598604291677475,0.03418790176510811,0.014263310469686985,-0.01390653382986784,-0.0013017362216487527,0.0,0.0,0.0,0.0,0.0,0.0,-0.01724168471992016,0.010193629190325737,-0.0,0.0,0.0,0.0,-0.0064890431240201,0.02631840482354164,-0.0013222843408584595,16091.0,13197.0,11027.0,15995.0,0.5890601277351379,0.38730812072753906,0.26365286111831665,0.5816907286643982,0.0,0.0,0.0,0.0,0.0,0.0,0.0,0.0,1.82064950466156,0.0008020056490348001,-0.14329452060324438,-0.041779326425126266,-0.04471312090754509,-0.05818023532629013,-0.0,-0.021015768870711327,-0.00484355166554451,0.0
405,5,-0.0010872434359043837,-0.0006629709387198091,0.0024471692740917206,0.005907257087528706,0.010707380250096321,0.03415650501847267,0.013978454284369946,-0.027413714677095413,-0.0016816306160762906,0.0,0.0,0.0,0.0,0.0,0.0,-0.01724168471992016,0.010193629190325737,-0.0,0.0,0.0,0.0,-0.006358674727380276,0.024838421493768692,-0.0016265278682112694,15803.0,13423.0,11164.0,16014.0,0.5671320557594299,0.4015807807445526,0.2707246243953705,0.5831519365310669,0.0,0.0,0.0,0.0,0.0,0.0,0.0,0.0,1.82064950466156,-0.0016300308977088731,-0.1382243068073693,-0.041560572825900165,-0.04471312090754509,-0.05818023532629013,-0.0,-0.017109252512454987,0.010026595555245876,0.0
410,5,-0.0010872434359043837,-0.0006629709387198091,0.0024471692740917206,0.005907257087528706,0.010707380250096321,0.03415650501847267,0.013978454284369946,-0.027413714677095413,-0.0016816306160762906,0.0,0.0,0.0,0.0,0.0,0.0,-0.01724168471992016,0.010193629190325737,-0.0,0.0,0.0,0.0,-0.006358674727380276,0.024838421493768692,-0.0016265278682112694,15803.0,13423.0,11164.0,16014.0,0.5671320557594299,0.4015807807445526,0.2707246243953705,0.5831519365310669,0.0,0.0,0.0,0.0,0.0,0.0,0.0,0.0,1.82064950466156,-0.0016300308977088731,-0.1382243068073693,-0.041560572825900165,-0.04471312090754509,-0.05818023532629013,-0.0,-0.017109252512454987,0.010026595555245876,0.0
415,5,-0.0011289065005257726,-0.0007125279516912997,0.00253044324927032,-0.002636668039485812,0.010229798033833504,0.00366971199400723,0.013912859372794628,-0.033316127955913544,-0.002044705208390951,0.0,0.0,0.0,0.0,0.0,0.0,-0.013501472771167755,0.0038234470412135124,-0.0,0.0,0.0,0.0,-0.0063981059938669205,0.012599080801010132,-0.0012959380401298404,15514.0,13628.0,11522.0,15819.0,0.5454860925674438,0.4147251546382904,0.2897689640522003,0.568354606628418,0.0,0.0,0.0,0.0,0.0,0.0,0.0,0.0,1.750826120376587,-0.003734763767925946,-0.13649208481860592,-0.041337224694395644,-0.01612907089293003,-0.04381357878446579,-0.0,-0.01724168471992016,0.010193629190325737,0.0
420,5,-0.0011289065005257726,-0.0007125279516912997,0.00253044324927032,-0.002636668039485812,0.010229798033833504,0.00366971199400723,0.013912859372794628,-0.033316127955913544,-0.002044705208390951,0.0,0.0,0.0,0.0,0.0,0.0,-0.013501472771167755,0.0038234470412135124,-0.0,0.0,0.0,0.0,-0.0063981059938669205,0.012599080801010132,-0.0012959380401298404,15514.0,13628.0,11522.0,15819.0,0.5454860925674438,0.4147251546382904,0.2897689640522003,0.568354606628418,0.0,0.0,0.0,0.0,0.0,0.0,0.0,0.0,1.750826120376587,-0.003734763767925946,-0.13649208481860592,-0.041337224694395644,-0.01612907089293003,-0.04381357878446579,-0.0,-0.01724168471992016,0.010193629190325737,0.0
425,5,-0.0011136253597214818,-0.0007411999977193773,0.002652453724294901,-0.002636668039485812,0.010229798033833504,0.00366971199400723,0.013706921599805355,-0.034849800169467926,-0.0026459742803126574,0.0,0.0,0.0,0.0,0.0,0.0,-0.013062172569334507,-0.0038350874092429876,-0.0,0.0,0.0,0.0,-0.00637017609551549,-0.001413825899362564,-0.0009673609165474772,14861.0,14465.0,12584.0,14914.0,0.49819663166999817,0.47053712606430054,0.34997743368148804,0.5019382834434509,0.0,0.0,0.0,0.0,0.0,0.0,0.0,0.0,1.7470898628234863,-0.0015489492760453023,-0.1390679154336226,-0.0447952380907055,0.016143744811415672,-0.04229770228266716,-0.0,-0.013501472771167755,0.0038234470412135124,0.0
430,5,-0.0011136253597214818,-0.0007411999977193773,0.002652453724294901,-0.002636668039485812,0.010229798033833504,0.00366971199400723,0.013706921599805355,-0.034849800169467926,-0.0026459742803126574,0.0,0.0,0.0,0.0,0.0,0.0,-0.013062172569334507,-0.0038350874092429876,-0.0,0.0,0.0,0.0,-0.00637017609551549,-0.001413825899362564,-0.0009673609165474772,14861.0,14465.0,12584.0,14914.0,0.49819663166999817,0.47053712606430054,0.34997743368148804,0.5019382834434509,0.0,0.0,0.0,0.0,0.0,0.0,0.0,0.0,1.7470898628234863,-0.0015489492760453023,-0.1390679154336226,-0.0447952380907055,0.016143744811415672,-0.04229770228266716,-0.0,-0.013501472771167755,0.0038234470412135124,0.0
435,5,-0.0012653262820094824,-0.0007790219970047474,0.0026875180192291737,-0.002636668039485812,0.010229798033833504,0.00366971199400723,0.01431055087596178,-0.030970366671681404,-0.002956733340397477,0.0,0.0,0.0,0.0,0.0,0.0,-0.013109270483255386,-0.003815349191427231,-0.0,0.0,0.0,0.0,-0.005980927962809801,-0.014111132360994816,-0.0006351491902023554,13897.0,14830.0,13624.0,13526.0,0.4322696030139923,0.4959709346294403,0.41443291306495667,0.40815266966819763,0.0,0.0,0.0,0.0,0.0,0.0,0.0,0.0,1.7474106550216675,-0.0060034399360850066,-0.15405725779400656,-0.044030704685955935,0.016063597053289413,-0.04245799407362938,-0.0,-0.013062172569334507,-0.0038350874092429876,0.0
440,5,-0.0012653262820094824,-0.0007790219970047474,0.0026875180192291737,-0.002636668039485812,0.010229798033833504,0.00366971199400723,0.01431055087596178,-0.030970366671681404,-0.002956733340397477,0.0,0.0,0.0,0.0,0.0,0.0,-0.013109270483255386,-0.003815349191427231,-0.0,0.0,0.0,0.0,-0.005980927962809801,-0.014111132360994816,-0.0006351491902023554,13897.0,14830.0,13624.0,13526.0,0.4322696030139923,0.4959709346294403,0.41443291306495667,0.40815266966819763,0.0,0.0,0.0,0.0,0.0,0.0,0.0,0.0,1.7474106550216675,-0.0060034399360850066,-0.15405725779400656,-0.044030704685955935,0.016063597053289413,-0.04245799407362938,-0.0,-0.013062172569334507,-0.0038350874092429876,0.0
445,5,-0.0013955006143078208,-0.0007442417554557323,0.0029383415821939707,-0.002636668039485812,0.010229798033833504,0.00366971199400723,0.0147122573107481,-0.019945142790675163,-0.003245142986997962,0.0,0.0,0.0,0.0,0.0,0.0,-0.01316441223025322,-0.004011549986898899,-0.0,0.0,0.0,0.0,-0.005204046610742807,-0.02315850555896759,-0.0003578946052584797,12994.0,15551.0,14624.0,12458.0,0.374776154756546,0.5482068657875061,0.48156097531318665,0.34254589676856995,0.0,0.0,0.0,0.0,0.0,0.0,0.0,0.0,1.7487293481826782,-0.005904883688588925,-0.16461674440552906,-0.04682442808007895,0.01690238155424595,-0.04266874119639397,-0.0,-0.013109270483255386,-0.003815349191427231,0.0
450,5,-0.0013955006143078208,-0.0007442417554557323,0.0029383415821939707,-0.002636668039485812,0.010229798033833504,0.00366971199400723,0.0147122573107481,-0.019945142790675163,-0.003245142986997962,0.0,0.0,0.0,0.0,0.0,0.0,-0.01316441223025322,-0.004011549986898899,-0.0,0.0,0.0,0.0,-0.005204046610742807,-0.02315850555896759,-0.0003578946052584797,12994.0,15551.0,14624.0,12458.0,0.374776154756546,0.5482068657875061,0.48156097531318665,0.34254589676856995,0.0,0.0,0.0,0.0,0.0,0.0,0.0,0.0,1.7487293481826782,-0.005904883688588925,-0.16461674440552906,-0.04682442808007895,0.01690238155424595,-0.04266874119639397,-0.0,-0.013109270483255386,-0.003815349191427231,0.0
455,5,-0.0015724891563877463,-0.0007421635091304779,0.003221995197236538,-0.02229328639805317,0.0038425358943641186,-0.032570548355579376,0.01436503604054451,-0.010019960813224316,-0.0033848704770207405,0.0,0.0,0.0,0.0,0.0,0.0,-0.01310429722070694,-0.004182024858891964,-0.0,0.0,0.0,0.0,-0.003733664285391569,-0.026134410873055458,-0.001360087189823389,11650.0,16380.0,15016.0,12264.0,0.2967102527618408,0.6115381717681885,0.5092452764511108,0.3312355875968933,0.0,0.0,0.0,0.0,0.0,0.0,0.0,0.0,1.7489821910858154,-0.005375342325583448,-0.17315525664593193,-0.04640479273737573,0.01762322336435318,-0.04248005524277687,-0.0,-0.01316441223025322,-0.004011549986898899,0.0
460,5,-0.0015724891563877463,-0.0007421635091304779,0.003221995197236538,-0.02229328639805317,0.0038425358943641186,-0.032570548355579376,0.01436503604054451,-0.010019960813224316,-0.0033848704770207405,0.0,0.0,0.0,0.0,0.0,0.0,-0.01310429722070694,-0.004182024858891964,-0.0,0.0,0.0,0.0,-0.003733664285391569,-0.026134410873055458,-0.001360087189823389,11650.0,16380.0,15016.0,12264.0,0.2967102527618408,0.6115381717681885,0.5092452764511108,0.3312355875968933,0.0,0.0,0.0,0.0,0.0,0.0,0.0,0.0,1.7489821910858154,-0.005375342325583448,-0.17315525664593193,-0.04640479273737573,0.01762322336435318,-0.04248005524277687,-0.0,-0.01316441223025322,-0.004011549986898899,0.0
465,5,-0.0017318871105089784,-0.0007716770633123815,0.003447707276791334,-0.028045067563652992,0.005078638903796673,-0.040113650262355804,0.01436503604054451,-0.010019960813224316,-0.0033848704770207405,0.0,0.0,0.0,0.0,0.0,0.0,-0.005331378895789385,-0.020444734022021294,-0.0,0.0,0.0,0.0,-0.003733664285391569,-0.026134410873055458,-0.001360087189823389,11650.0,16380.0,15016.0,12264.0,0.2967102527618408,0.6115381717681885,0.5092452764511108,0.3312355875968933,0.0,0.0,0.0,0.0,0.0,0.0,0.0,0.0,1.8740142583847046,-0.00977399239187658,-0.18183314265729483,-0.05152021892799071,0.09231448173522949,-0.01851898804306984,0.0,-0.01316441223025322,-0.004011549986898899,0.0
470,5,-0.0017318871105089784,-0.0007716770633123815,0.003447707276791334,-0.028045067563652992,0.005078638903796673,-0.040113650262355804,0.013233690522611141,0.014631777070462704,-0.004517326131463051,0.0,0.0,0.0,0.0,0.0,0.0,-0.005331378895789385,-0.020444734022021294,-0.0,0.0,0.0,0.0,-0.0059127830900251865,-0.025616509839892387,-0.001332231448031962,11879.0,16413.0,14603.0,12506.0,0.3093678653240204,0.6141390800476074,0.4800651967525482,0.3454100787639618,0.0,0.0,0.0,0.0,0.0,0.0,0.0,0.0,1.8740142583847046,-0.00977399239187658,-0.18183314265729483,-0.05152021892799071,0.09231448173522949,-0.01851898804306984,0.0,-0.01310429722070694,-0.004182024858891964,0.0
475,5,-0.0019028319511562586,-0.0007640192634426057,0.0035925880074501038,-0.028045067563652992,0.005078638903796673,-0.040113650262355804,0.013233690522611141,0.014631777070462704,-0.004517326131463051,0.0,0.0,0.0,0.0,0.0,0.0,-0.006511140614748001,-0.024652374908328056,-0.0,0.0,0.0,0.0,-0.0059127830900251865,-0.025616509839892387,-0.001332231448031962,11879.0,16413.0,14603.0,12506.0,0.3093678653240204,0.6141390800476074,0.4800651967525482,0.3454100787639618,0.0,0.0,0.0,0.0,0.0,0.0,0.0,0.0,1.9322234392166138,-0.009392021891374742,-0.1921686492300436,-0.05019146009099842,0.11476641148328781,-0.02331940084695816,0.0,-0.01310429722070694,-0.004182024858891964,0.0
480,5,-0.0019028319511562586,-0.0007640192634426057,0.0035925880074501038,-0.028045067563652992,0.005078638903796673,-0.040113650262355804,0.01314295269548893,0.02463967725634575,-0.0051841880194842815,0.0,0.0,0.0,0.0,0.0,0.0,-0.006511140614748001,-0.024652374908328056,-0.0,0.0,0.0,0.0,-0.0033412997145205736,-0.026065049692988396,-0.0013922122307121754,12346.0,16575.0,15419.0,12959.0,0.3360189199447632,0.6268695592880249,0.5384846329689026,0.3726411461830139,0.0,0.0,0.0,0.0,0.0,0.0,0.0,0.0,1.9322234392166138,-0.009392021891374742,-0.1921686492300436,-0.05019146009099842,0.11476641148328781,-0.02331940084695816,0.0,-0.005331378895789385,-0.020444734022021294,0.0
485,5,-0.0019969542045146227,-0.0008235018467530608,0.0036331117153167725,-0.028045067563652992,0.005078638903796673,-0.040113650262355804,0.01314295269548893,0.02463967725634575,-0.0051841880194842815,0.0,0.0,0.0,0.0,0.0,0.0,-0.006511140614748001,-0.024652374908328056,-0.0,0.0,0.0,0.0,-0.0033412997145205736,-0.026065049692988396,-0.0013922122307121754,12346.0,16575.0,15419.0,12959.0,0.3360189199447632,0.6268695592880249,0.5384846329689026,0.3726411461830139,0.0,0.0,0.0,0.0,0.0,0.0,0.0,0.0,1.9322234392166138,-0.01395239853288987,-0.19135395279899942,-0.05249647724527599,0.11476641148328781,-0.02331940084695816,0.0,-0.005331378895789385,-0.020444734022021294,0.0
