timestamp,dt,pos_x,pos_y,pos_z,vel_x,vel_y,vel_z,roll,pitch,yaw,agv_x,agv_y,agv_z,x_ref,y_ref,z_ref,roll_ref,pitch_ref,yaw_ref,x_vel_ref,y_vel_ref,z_vel_ref,x_torque,y_torque,z_torque,w0,w1,w2,w3,u0,u1,u2,u3,m0req,m1req,m2req,m3req,thrust0,thrust1,thrust2,thrust3,thrust_ref,roll_vicon,pitch_vicon,yaw_vicon,acc_x,acc_y,acc_z
5,5,0.0,0.0,0.0,-0.0012293937616050243,0.0017011442687362432,-0.002906127367168665,-0.005391416605561972,-0.12073792517185211,0.009779980406165123,-0.0005497109959833324,0.0013027321547269821,0.0026287890505045652,0.0,0.0,0.0,-0.0020895323250442743,-0.0011615986004471779,-0.0,0.0,0.0,0.0,0.0010972584132105112,0.036273881793022156,0.0009286468848586082,1495.0,1495.0,1495.0,1495.0,0.0,0.0,0.0,0.0,0.0,0.0,0.0,0.0,1495.0,1495.0,1495.0,1495.0,1.6470824480056763,0.038054938392540504,-0.031515294992528475,0.07825836755919793,0.0046102264896035194,-0.006379290949553251,0.0
37,32,0.0,0.0,0.0,0.0026024524122476578,-0.0027909446507692337,0.003469873685389757,-0.005391416605561972,-0.12073792517185211,0.009779980406165123,-0.0005497109959833324,0.0013027321547269821,0.0026287890505045652,0.0,0.0,0.0,-0.0020895323250442743,-0.0011615986004471779,-0.0,0.0,0.0,0.0,0.0010972584132105112,0.036273881793022156,0.0009286468848586082,1495.0,1495.0,1495.0,1495.0,0.0,0.0,0.0,0.0,0.0,0.0,0.0,0.0,1495.0,1495.0,1495.0,1495.0,1.6470824480056763,0.04137890549736175,-0.029973942081734546,0.07857838858944537,0.0046102264896035194,-0.006379290949553251,0.0
42,5,0.0,0.0,0.0,-0.0003092485712841153,0.005577669013291597,-0.0022688335739076138,-0.0053816321305930614,-0.1206999197602272,0.009810090065002441,0.0007858921308070421,-0.004253270570188761,0.002160442527383566,0.0,0.0,0.0,-0.006707704626023769,-0.00028608128195628524,-0.0,0.0,0.0,0.0,0.0006533532286994159,0.035756565630435944,0.0009422292932868004,1495.0,1495.0,1495.0,1495.0,0.0,0.0,0.0,0.0,0.0,0.0,0.0,0.0,1495.0,1495.0,1495.0,1495.0,1.682315468788147,0.0382188259648919,-0.03145329460112252,0.07811801300064489,0.0011596821714192629,-0.020916258916258812,0.0
47,5,0.0,0.0,0.0,0.0007638924289494753,0.0029776890296489,0.003302536904811859,-0.0053816321305930614,-0.1206999197602272,0.009810090065002441,0.0007858921308070421,-0.004253270570188761,0.002160442527383566,0.0,0.0,0.0,-0.006707704626023769,-0.00028608128195628524,-0.0,0.0,0.0,0.0,0.0006533532286994159,0.035756565630435944,0.0009422292932868004,1495.0,1495.0,1495.0,1495.0,0.0,0.0,0.0,0.0,0.0,0.0,0.0,0.0,1495.0,1495.0,1495.0,1495.0,1.682315468788147,0.03941338590659845,-0.030914809924989003,0.07823587905702092,0.0011596821714192629,-0.020916258916258812,0.0
52,5,0.0,0.0,0.0,-0.0006198204937390983,0.0011763477232307196,-0.0014782145153731108,-0.005359733942896128,-0.12070711702108383,0.009816176258027554,-0.0018089127261191607,0.0013328511267900467,0.0011397056514397264,0.0,0.0,0.0,-0.001451801392249763,-0.000588429335039109,-0.0,0.0,0.0,0.0,0.0006280074594542384,0.0359220877289772,0.0009631426655687392,1495.0,1495.0,1495.0,1495.0,0.0,0.0,0.0,0.0,0.0,0.0,0.0,0.0,1495.0,1495.0,1495.0,1495.0,1.639273762702942,0.039567212699347445,-0.031001942601795292,0.0782660049780608,0.0023243268951773643,-0.0044113039039075375,0.0
63,11,-1.785358472261578e-05,1.405036891810596e-05,4.5371707528829575e-05,-0.0019416168797761202,6.0891696193721145e-05,-0.004546671640127897,-0.005359733942896128,-0.12070711702108383,0.009816176258027554,-0.0018089127261191607,0.0013328511267900467,0.0011397056514397264,0.0,0.0,0.0,-0.001451801392249763,-0.000588429335039109,-0.0,0.0,0.0,0.0,0.0006280074594542384,0.0359220877289772,0.0009631426655687392,1495.0,1495.0,1495.0,1495.0,0.0,0.0,0.0,0.0,0.0,0.0,0.0,0.0,1495.0,1495.0,1495.0,1495.0,1.639273762702942,0.037887179550357426,-0.03139534076265874,0.07824810656232765,0.0023243268951773643,-0.0044113039039075375,0.0
68,5,-1.947203782037832e-05,3.29682843585033e-05,2.603656321298331e-05,-0.000970861001405865,-0.002245793119072914,0.0005015486967749894,-0.0053612240590155125,-0.12074293196201324,0.009803013876080513,-0.0015983207849785686,0.001605186378583312,-0.0014771204441785812,0.0,0.0,0.0,-4.9505535571370274e-05,-0.0018607983365654945,-0.0,0.0,0.0,0.0,-0.000247198244323954,0.03618893027305603,0.0009337180526927114,16350.0,10437.0,11304.0,15721.0,0.6092056632041931,0.23408308625221252,0.2780843675136566,0.5609422922134399,0.0,0.0,0.0,0.0,16355.0,10434.0,11303.0,15718.0,1.6457557678222656,0.0396944226686747,-0.031075486458302826,0.07846113596787574,0.007379320450127125,-0.00015101765166036785,0.0
73,5,-3.4968750696862116e-05,2.188115286116954e-05,4.0164733945857733e-05,-0.00224794982932508,0.0004321384185459465,-0.0014947610907256603,-0.005356662441045046,-0.12076479196548462,0.009802774526178837,-0.0020499194506555796,0.0038226251490414143,0.005309258587658405,0.0,0.0,0.0,-0.0004906296380795538,-0.002169353421777487,-0.0,0.0,0.0,0.0,0.0007691073114983737,0.03611085191369057,0.0009946422651410103,16184.0,10071.0,11238.0,15599.0,0.596222996711731,0.2166246920824051,0.2746429741382599,0.5517830848693848,0.0,0.0,0.0,0.0,16355.0,10434.0,11303.0,15718.0,1.6494629383087158,0.0384948036456971,-0.0313274400231568,0.07819755359712192,0.008622325025498867,-0.0015000469284132123,0.0
81,8,-1.9195093045709655e-05,4.964328127243789e-06,2.335560930077918e-05,0.0007140212692320347,0.0027800705283880234,0.0012174214934930205,-0.005356662441045046,-0.12076479196548462,0.009802774526178837,-0.0020499194506555796,0.0038226251490414143,0.005309258587658405,0.0,0.0,0.0,-0.0004906296380795538,-0.002169353421777487,-0.0,0.0,0.0,0.0,0.0007691073114983737,0.03611085191369057,0.0009946422651410103,16184.0,10071.0,11238.0,15599.0,0.596222996711731,0.2166246920824051,0.2746429741382599,0.5517830848693848,0.0,0.0,0.0,0.0,16355.0,10434.0,11303.0,15718.0,1.6494629383087158,0.03841387470407322,-0.03130693539340589,0.07821692260135236,0.008622325025498867,-0.0015000469284132123,0.0
86,5,-1.2708997928712051e-05,1.7218973880517296e-05,7.510544037359068e-06,0.0010639398824423552,-0.0003585292724892497,0.002388376509770751,-0.005356662441045046,-0.12076479196548462,0.009802774526178837,-0.0020499194506555796,0.0038226251490414143,0.005309258587658405,0.0,0.0,0.0,-0.0033900055568665266,0.0006449787179008126,-0.0,0.0,0.0,0.0,0.0007691073114983737,0.03611085191369057,0.0009946422651410103,16184.0,10071.0,11238.0,15599.0,0.596222996711731,0.2166246920824051,0.2746429741382599,0.5517830848693848,0.0,0.0,0.0,0.0,16355.0,10434.0,11303.0,15718.0,1.6547590494155884,0.039432477108517876,-0.031172249253093236,0.0784386147637613,-0.0025717546232044697,-0.010397817939519882,-0.0
91,5,3.85399243896245e-06,-1.3366628991207108e-05,8.737110874790233e-06,0.002413134789094329,0.0035268606152385473,0.0008081625564955175,-0.005366545170545578,-0.12077668309211731,0.009804442524909973,-0.0028542422223836184,-0.00044818862807005644,-0.0033581294119358063,0.0,0.0,0.0,-0.0033900055568665266,0.0006449787179008126,-0.0,0.0,0.0,0.0,0.000967596541158855,0.035645220428705215,0.0009740105597302318,16132.0,10177.0,11283.0,15641.0,0.592223584651947,0.22160646319389343,0.2770077884197235,0.5549179911613464,0.0,0.0,0.0,0.0,16129.0,10171.0,11279.0,15651.0,1.6547590494155884,0.03836840716039074,-0.031169990802659708,0.07793075690821073,-0.0025717546232044697,-0.010397817939519882,-0.0
96,5,8.972101568360813e-06,2.028769267781172e-05,1.2260147741471883e-05,0.0015794270439073443,-0.0026277743745595217,-9.949936793418601e-05,-0.005366545170545578,-0.12077668309211731,0.009804442524909973,-0.0028542422223836184,-0.00044818862807005644,-0.0033581294119358063,0.0,0.0,0.0,-0.004298225976526737,0.0022549740970134735,-0.0,0.0,0.0,0.0,0.000967596541158855,0.035645220428705215,0.0009740105597302318,16132.0,10177.0,11283.0,15641.0,0.592223584651947,0.22160646319389343,0.2770077884197235,0.5549179911613464,0.0,0.0,0.0,0.0,16129.0,10171.0,11279.0,15651.0,1.6692771911621094,0.039287273420267686,-0.030966230932232542,0.07819943473621807,-0.009070213884115219,-0.013299147598445415,-0.0
101,5,9.170477824227419e-06,1.2686634363490157e-05,1.5235054888762534e-05,0.0006555759464390576,-0.00013898269389756024,-0.0003967886441387236,-0.005361257586628199,-0.12077159434556961,0.00980224646627903,-0.0008155570249073207,-0.004328241106122732,-0.002922910498455167,0.0,0.0,0.0,-0.004298225976526737,0.0022549740970134735,-0.0,0.0,0.0,0.0,0.00037631732993759215,0.036532431840896606,0.0010495377937331796,16284.0,10145.0,11249.0,15648.0,0.6040515303611755,0.22008387744426727,0.2751826047897339,0.5554410219192505,0.0,0.0,0.0,0.0,16138.0,10219.0,11295.0,15650.0,1.6692771911621094,0.03843769195185874,-0.031052929219879333,0.07796585734762565,-0.009070213884115219,-0.013299147598445415,-0.0
107,5,-5.082237635178899e-07,2.2803087631473318e-05,4.8913966566033196e-06,-0.0008992137736640871,-0.0012695675250142813,0.0010825234930962324,-0.005336736794561148,-0.12077084183692932,0.009810960851609707,0.001547288615256548,0.004462220706045628,0.00015768293815199286,0.0,0.0,0.0,0.0016056564636528492,-0.0008530985796824098,-0.0,0.0,0.0,0.0,0.00023581703135278076,0.03709835931658745,0.0008793734014034271,16317.0,10265.0,11181.0,15778.0,0.6066300272941589,0.22581833600997925,0.2716195285320282,0.5652093291282654,0.0,0.0,0.0,0.0,16279.0,10154.0,11227.0,15663.0,1.6418538093566895,0.03983235727130677,-0.030621482668538983,0.07812294421556804,0.0033750871662050486,0.004886471200734377,-0.0
112,5,-1.3893328286940232e-05,2.8200138331158087e-05,1.5829575204406865e-05,-0.0019658980891108513,-0.0011554730590432882,-0.000879571889527142,-0.005336736794561148,-0.12077084183692932,0.009810960851609707,0.001547288615256548,0.004462220706045628,0.00015768293815199286,0.0,0.0,0.0,0.0016056564636528492,-0.0008530985796824098,-0.0,0.0,0.0,0.0,0.00023581703135278076,0.03709835931658745,0.0008793734014034271,16317.0,10265.0,11181.0,15778.0,0.6066300272941589,0.22581833600997925,0.2716195285320282,0.5652093291282654,0.0,0.0,0.0,0.0,16279.0,10154.0,11227.0,15663.0,1.6418538093566895,0.03984138227128879,-0.03086476975129611,0.07845558796631735,0.0033750871662050486,0.004886471200734377,-0.0
117,5,-2.6934190827887505e-05,1.8082431779475883e-05,2.1804340576636605e-05,-0.002351262839511037,0.0007519355276599526,-0.0010688005713745952,-0.005336736794561148,-0.12077084183692932,0.009810960851609707,0.001547288615256548,0.004462220706045628,0.00015768293815199286,0.0,0.0,0.0,-0.0008887696894817054,-0.0022534688469022512,-0.0,0.0,0.0,0.0,0.00023581703135278076,0.03709835931658745,0.0008793734014034271,16317.0,10265.0,11181.0,15778.0,0.6066300272941589,0.22581833600997925,0.2716195285320282,0.5652093291282654,0.0,0.0,0.0,0.0,16361.0,10193.0,11261.0,15721.0,1.651131510734558,0.03933604568258791,-0.031026013373162752,0.07838045954804883,0.008965708315372467,-0.002720065414905548,0.0
122,5,-2.3122951461118646e-05,5.30510296812281e-05,2.32083402806893e-06,-0.0004831564147025347,-0.003895457601174712,0.0019105004612356424,-0.005363763310015202,-0.12075269222259521,0.009790965355932713,0.0011283811181783676,-0.003952422644942999,-0.004746379796415567,0.0,0.0,0.0,-0.0008887696894817054,-0.0022534688469022512,-0.0,0.0,0.0,0.0,0.001389626762829721,0.03602265194058418,0.000962247489951551,16129.0,10078.0,11273.0,15661.0,0.59198397397995,0.21696344017982483,0.27648481726646423,0.5564216375350952,0.0,0.0,0.0,0.0,16361.0,10193.0,11261.0,15721.0,1.651131510734558,0.04130427271151862,-0.030131614884122866,0.07857924103045086,0.008965708315372467,-0.002720065414905548,0.0
127,5,-2.6963358322973363e-05,3.2941403333097696e-05,1.7278194945902214e-06,-0.0006541113834828138,0.0008549722842872143,0.0008353619487024844,-0.005363763310015202,-0.12075269222259521,0.009790965355932713,0.0011283811181783676,-0.003952422644942999,-0.004746379796415567,0.0,0.0,0.0,-0.0008887696894817054,-0.0022534688469022512,-0.0,0.0,0.0,0.0,0.001389626762829721,0.03602265194058418,0.000962247489951551,16129.0,10078.0,11273.0,15661.0,0.59198397397995,0.21696344017982483,0.27648481726646423,0.5564216375350952,0.0,0.0,0.0,0.0,16361.0,10193.0,11261.0,15721.0,1.651131510734558,0.040188890751995485,-0.030618001719627405,0.07833167074457834,0.008965708315372467,-0.002720065414905548,0.0
132,5,-1.808850902307313e-05,2.270308141305577e-05,-8.375002835236955e-06,0.0008033373160287738,0.0015705875121057034,0.001546483370475471,-0.005400566849857569,-0.12072738260030746,0.009809430688619614,-0.0020544040016829967,-0.0028475455474108458,-0.00022488670947495848,0.0,0.0,0.0,-0.000997071387246251,-0.0006597222527489066,-0.0,0.0,0.0,0.0,0.0009783469140529633,0.03565337508916855,0.001109770848415792,16194.0,10147.0,11367.0,15608.0,0.5970122218132019,0.2201889455318451,0.2814648151397705,0.5524654984474182,0.0,0.0,0.0,0.0,16104.0,10116.0,11233.0,15691.0,1.6365724802017212,0.03967022078403964,-0.03079273202121192,0.07839396648863872,0.00260164518840611,-0.003024613717570901,-0.0
137,5,-5.405210004028049e-07,3.497178840916604e-05,2.8932045097462833e-06,0.0024270934518426657,-0.0008440096280537546,-0.0007335914997383952,-0.005400566849857569,-0.12072738260030746,0.009809430688619614,-0.0020544040016829967,-0.0028475455474108458,-0.00022488670947495848,0.0,0.0,0.0,-0.000997071387246251,-0.0006597222527489066,-0.0,0.0,0.0,0.0,0.0009783469140529633,0.03565337508916855,0.001109770848415792,16194.0,10147.0,11367.0,15608.0,0.5970122218132019,0.2201889455318451,0.2814648151397705,0.5524654984474182,0.0,0.0,0.0,0.0,16104.0,10116.0,11233.0,15691.0,1.6365724802017212,0.039348618620709215,-0.03083287073672229,0.0784446625983129,0.00260164518840611,-0.003024613717570901,-0.0
142,5,1.0597240361676086e-05,2.7540931114344858e-05,1.1279666068730876e-05,0.0023073689080774784,0.0005540988058783114,-0.0012998119927942753,-0.005409997887909412,-0.12075584381818771,0.009824263863265514,0.0008891497855074704,0.002437697956338525,0.0013998342910781503,0.0,0.0,0.0,0.0010965758701786399,0.002285539638251066,-0.0,0.0,0.0,0.0,0.0009114822023548186,0.03583446145057678,0.0010547260753810406,16200.0,10149.0,11333.0,15624.0,0.5974811911582947,0.22030705213546753,0.27967023849487305,0.5536730289459229,0.0,0.0,0.0,0.0,16181.0,10178.0,11322.0,15634.0,1.65201997756958,0.03897788865471347,-0.030969849044373974,0.0781595149516843,-0.009098196402192116,0.0033578581642359495,0.0
147,5,8.92464072421717e-07,5.836750915477751e-06,2.617560312501155e-05,-0.00024162566114682704,0.002826141193509102,-0.002307437127456069,-0.005409997887909412,-0.12075584381818771,0.009824263863265514,0.0008891497855074704,0.002437697956338525,0.0013998342910781503,0.0,0.0,0.0,0.0010965758701786399,0.002285539638251066,-0.0,0.0,0.0,0.0,0.0009114822023548186,0.03583446145057678,0.0010547260753810406,16200.0,10149.0,11333.0,15624.0,0.5974811911582947,0.22030705213546753,0.27967023849487305,0.5536730289459229,0.0,0.0,0.0,0.0,16181.0,10178.0,11322.0,15634.0,1.65201997756958,0.0378414140598776,-0.031538424098627414,0.07810357985337228,-0.009098196402192116,0.0033578581642359495,0.0
152,5,9.264357458960149e-07,1.4493689377559349e-06,3.39444050041493e-05,-9.257367491954938e-05,0.0016569423023611307,-0.0018552312394604087,-0.005429375451058149,-0.1207781434059143,0.009828830137848854,-0.0003499782760627568,-0.0018010374624282122,0.0004333775432314724,0.0,0.0,0.0,-0.003445255570113659,-0.0002261586778331548,-0.0,0.0,0.0,0.0,0.0009172643767669797,0.035810235887765884,0.0009987778030335903,16179.0,10182.0,11308.0,15643.0,0.5958493947982788,0.22186118364334106,0.2783152461051941,0.5551056861877441,0.0,0.0,0.0,0.0,16177.0,10032.0,11228.0,15600.0,1.6544694900512695,0.03774094721884902,-0.03166833482508935,0.0783019040893751,0.0009016154217533767,-0.010565429925918579,0.0
157,5,7.4136978582828306e-06,1.979730041057337e-05,1.3432714695227332e-05,0.0007414419669657946,-0.0015389748150482774,0.0017193104140460491,-0.005429375451058149,-0.1207781434059143,0.009828830137848854,-0.0003499782760627568,-0.0018010374624282122,0.0004333775432314724,0.0,0.0,0.0,-0.003445255570113659,-0.0002261586778331548,-0.0,0.0,0.0,0.0,0.0009172643767669797,0.035810235887765884,0.0009987778030335903,16179.0,10182.0,11308.0,15643.0,0.5958493947982788,0.22186118364334106,0.2783152461051941,0.5551056861877441,0.0,0.0,0.0,0.0,16177.0,10032.0,11228.0,15600.0,1.6544694900512695,0.0399184797140223,-0.030602538694734633,0.07798778068214081,0.0009016154217533767,-0.010565429925918579,0.0
162,5,-7.3789560701698065e-06,3.627189653343521e-05,7.424497653119033e-06,-0.0014785416424274445,-0.0025925415102392435,0.001408710260875523,-0.005435270257294178,-0.12076386064291,0.009834831580519676,-0.0017928528832271695,-0.0019342688610777259,-0.0022876558359712362,0.0,0.0,0.0,-0.003445255570113659,-0.0002261586778331548,-0.0,0.0,0.0,0.0,0.0009267341229133308,0.03622914105653763,0.0009706752607598901,16142.0,10085.0,11180.0,15639.0,0.5929811000823975,0.21726800501346588,0.27155783772468567,0.554765522480011,0.0,0.0,0.0,0.0,16177.0,10032.0,11228.0,15600.0,1.6544694900512695,0.039784052671052346,-0.030618482893337476,0.07839297990984528,0.005585568957030773,0.009922150522470474,-0.0
168,5,-2.452515036566183e-05,1.6755313481553458e-05,1.26967624964891e-05,-0.002648959867656231,0.0013049733825027943,-6.918763392604887e-05,-0.005435270257294178,-0.12076386064291,0.009834831580519676,-0.0017928528832271695,-0.0019342688610777259,-0.0022876558359712362,0.0,0.0,0.0,0.0032313650008291006,-0.0013992821332067251,-0.0,0.0,0.0,0.0,0.0009267341229133308,0.03622914105653763,0.0009706752607598901,16142.0,10085.0,11180.0,15639.0,0.5929811000823975,0.21726800501346588,0.27155783772468567,0.554765522480011,0.0,0.0,0.0,0.0,16177.0,10032.0,11228.0,15600.0,1.6565808057785034,0.038265262965975405,-0.03152698244954455,0.07850945472522661,0.005585568957030773,0.009922150522470474,-0.0
173,5,-3.529904643073678e-05,4.198717215331271e-05,1.599119605089072e-05,-0.00235245143994689,-0.0025058335158973932,-0.0004230071499478072,-0.005532864015549421,-0.12072170525789261,0.009927254170179367,-0.01606893725693226,-0.011153214611113071,0.03607243299484253,0.0,0.0,0.0,0.0032313650008291006,-0.0013992821332067251,-0.0,0.0,0.0,0.0,0.0015005195746198297,0.03708474710583687,0.0011890288442373276,16354.0,9788.0,11447.0,15617.0,0.6095153093338013,0.20357492566108704,0.28575289249420166,0.5531768798828125,0.0,0.0,0.0,0.0,16229.0,10032.0,11220.0,15760.0,1.6614476442337036,0.039887498206588275,-0.031385576170456224,0.07876580478968138,0.009016415104269981,0.00962857622653246,0.0
178,5,-2.0792009308934212e-05,3.812776776612736e-05,-7.589118013129337e-06,0.0007998637738637626,-0.0005392050370573997,0.002660434925928712,-0.005532864015549421,-0.12072170525789261,0.009927254170179367,-0.01606893725693226,-0.011153214611113071,0.03607243299484253,0.0,0.0,0.0,0.0031265700235962868,-0.002252152655273676,-0.0,0.0,0.0,0.0,0.0015005195746198297,0.03708474710583687,0.0011890288442373276,16354.0,9788.0,11447.0,15617.0,0.6095153093338013,0.20357492566108704,0.28575289249420166,0.5531768798828125,0.0,0.0,0.0,0.0,16229.0,10032.0,11220.0,15760.0,1.6614476442337036,0.038913290098729195,-0.031235595059247875,0.07796499335381497,0.009016415104269981,0.00962857622653246,0.0
183,5,-2.1392235794337466e-05,4.6554247091989964e-05,3.679732981254347e-05,0.00024791821488179266,-0.0012268595164641738,-0.004262199625372887,-0.005576415918767452,-0.12066195905208588,0.009839764796197414,0.0025624416302889585,0.0006232456071302295,-0.09717881679534912,0.0,0.0,0.0,0.0015988782979547977,0.00020543171558529139,-0.0,0.0,0.0,0.0,0.0004069353744853288,0.03631792217493057,-0.0005984206800349057,15536.0,11279.0,10139.0,16370.0,0.547141969203949,0.2767709493637085,0.21982456743717194,0.6107319593429565,0.0,0.0,0.0,0.0,16595.0,9555.0,11797.0,15276.0,1.6391081809997559,0.03840817161940009,-0.031710196736209846,0.07874082342042905,-0.0008113840012811124,0.004857705906033516,0.0
188,5,-5.923157914367039e-06,3.0631952540716156e-05,7.282226306415396e-06,0.0019554567988961935,0.0014199315337464213,0.0018369323806837201,-0.005576415918767452,-0.12066195905208588,0.009839764796197414,0.0025624416302889585,0.0006232456071302295,-0.09717881679534912,0.0,0.0,0.0,0.0015988782979547977,0.00020543171558529139,-0.0,0.0,0.0,0.0,0.0004069353744853288,0.03631792217493057,-0.0005984206800349057,15536.0,11279.0,10139.0,16370.0,0.547141969203949,0.2767709493637085,0.21982456743717194,0.6107319593429565,0.0,0.0,0.0,0.0,16595.0,9555.0,11797.0,15276.0,1.6391081809997559,0.03952288751275321,-0.03133525071074692,0.07871752135974633,-0.0008113840012811124,0.004857705906033516,0.0
193,5,-9.640545613365248e-06,1.675206249274197e-06,1.899496783153154e-05,0.00033609618549235165,0.0040427823550999165,-0.0006707560387440026,-0.005430322140455246,-0.12059581279754639,0.010490990243852139,0.01991037093102932,-0.011744234710931778,0.08955401927232742,0.0,0.0,0.0,-0.0016856418224051595,0.0018360331887379289,-0.0,0.0,0.0,0.0,0.0016972722951322794,0.03581025451421738,0.005115310661494732,17434.0,7629.0,13162.0,14268.0,0.696937620639801,0.11737816035747528,0.38517844676971436,0.45708656311035156,0.0,0.0,0.0,0.0,16396.0,9832.0,11736.0,15462.0,1.6499630212783813,0.038870808062451453,-0.03161479949794024,0.078155069334308,-0.007299712859094143,-0.005155225750058889,-0.0
198,5,-8.267801376860007e-07,1.6832074834383093e-05,3.2479762012371793e-05,0.0011920903343707323,-0.0002017114602494985,-0.001886477810330689,-0.005430322140455246,-0.12059581279754639,0.010490990243852139,0.01991037093102932,-0.011744234710931778,0.08955401927232742,0.0,0.0,0.0,-0.0016856418224051595,0.0018360331887379289,-0.0,0.0,0.0,0.0,0.0016972722951322794,0.03581025451421738,0.005115310661494732,17434.0,7629.0,13162.0,14268.0,0.696937620639801,0.11737816035747528,0.38517844676971436,0.45708656311035156,0.0,0.0,0.0,0.0,16396.0,9832.0,11736.0,15462.0,1.6499630212783813,0.038876961348845676,-0.03145372951364861,0.07842818283113187,-0.007299712859094143,-0.005155225750058889,-0.0
203,5,1.1509704563650303e-05,3.126318915747106e-05,2.3538595996797085e-05,0.0019572144374251366,-0.0018124182242900133,0.0003183488443028182,-0.005430322140455246,-0.12059581279754639,0.010490990243852139,0.01991037093102932,-0.011744234710931778,0.08955401927232742,0.0,0.0,0.0,-0.0016856418224051595,0.0018360331887379289,-0.0,0.0,0.0,0.0,0.0016972722951322794,0.03581025451421738,0.005115310661494732,17434.0,7629.0,13162.0,14268.0,0.696937620639801,0.11737816035747528,0.38517844676971436,0.45708656311035156,0.0,0.0,0.0,0.0,16396.0,9832.0,11736.0,15462.0,1.6499630212783813,0.04048904892002241,-0.030825200038273624,0.0790158223754789,-0.007299712859094143,-0.005155225750058889,-0.0
209,5,5.209587925492087e-06,1.455208894185489e-05,1.910214632516727e-05,2.687170126591809e-05,0.0012803648132830858,0.0006597135798074305,-0.005409328732639551,-0.12048310041427612,0.009426241740584373,-0.028467323631048203,-0.020687531679868698,0.03893094137310982,0.0,0.0,0.0,0.0022743414156138897,0.001858075032941997,-0.0,0.0,0.0,0.0,0.001628525322303176,0.035566456615924835,-0.002918749349191785,15293.0,11452.0,10178.0,16544.0,0.5292784571647644,0.2860039174556732,0.22168339788913727,0.6244819164276123,0.0,0.0,0.0,0.0,16983.0,8579.0,12706.0,14773.0,1.6532878875732422,0.03990949039410648,-0.03091036392339522,0.07808267381343632,-0.0074022249318659306,0.006969667039811611,-0.0
214,5,-1.0893384569499176e-05,1.1087397069786675e-05,4.802431067219004e-05,-0.0019216081127524376,0.0009279089863412082,-0.00320677412673831,-0.005409328732639551,-0.12048310041427612,0.009426241740584373,-0.028467323631048203,-0.020687531679868698,0.03893094137310982,0.0,0.0,0.0,0.0022743414156138897,0.001858075032941997,-0.0,0.0,0.0,0.0,0.001628525322303176,0.035566456615924835,-0.002918749349191785,15293.0,11452.0,10178.0,16544.0,0.5292784571647644,0.2860039174556732,0.22168339788913727,0.6244819164276123,0.0,0.0,0.0,0.0,16983.0,8579.0,12706.0,14773.0,1.6532878875732422,0.03885679208245422,-0.03137327215673791,0.0785239408650545,-0.0074022249318659306,0.006969667039811611,-0.0
219,5,-1.062712453858694e-05,3.0544029868906364e-05,3.30845286953263e-05,-0.0007366919307969511,-0.0019636324141174555,0.0005100641283206642,-0.005164762958884239,-0.12043007463216782,0.010196258313953876,0.04614252969622612,0.012510819360613823,-0.1515590101480484,0.0,0.0,0.0,-0.001119102817028761,-0.001830425695516169,-0.0,0.0,0.0,0.0,0.0001820302422856912,0.03719468414783478,0.0025616446509957314,16176.0,10319.0,10914.0,15816.0,0.595643162727356,0.22839513421058655,0.2578224241733551,0.5681023001670837,0.0,0.0,0.0,0.0,14790.0,12242.0,8680.0,17113.0,1.6475121974945068,0.03941355617774,-0.03134626786939791,0.07916279752983772,0.007266614586114883,-0.0034174881875514984,0.0
224,5,-1.5647376130800694e-05,2.0390987629070878e-05,4.6728473535040393e-05,-0.0008971069473773241,0.00043291220208629966,-0.001433247816748917,-0.005164762958884239,-0.12043007463216782,0.010196258313953876,0.04614252969622612,0.012510819360613823,-0.1515590101480484,0.0,0.0,0.0,-0.0004979618825018406,-0.0008754075970500708,-0.0,0.0,0.0,0.0,0.0001820302422856912,0.03719468414783478,0.0025616446509957314,16176.0,10319.0,10914.0,15816.0,0.595643162727356,0.22839513421058655,0.2578224241733551,0.5681023001670837,0.0,0.0,0.0,0.0,14790.0,12242.0,8680.0,17113.0,1.6359684467315674,0.03893537936215792,-0.03139452602015287,0.07848400325725566,0.003450936870649457,-0.0015100090531632304,0.0
229,5,-9.700453119876329e-06,2.4799115635687485e-05,4.44343349954579e-05,0.0003547879168763757,-0.00035581059637479484,-0.00029800229822285473,-0.0051773833110928535,-0.12038354575634003,0.010126383975148201,-0.026285694912075996,-0.0061626737006008625,0.1472616195678711,0.0,0.0,0.0,-0.0004979618825018406,-0.0008754075970500708,-0.0,0.0,0.0,0.0,0.000535637722350657,0.0361107736825943,-0.0017850938020274043,17475.0,7422.0,13127.0,14304.0,0.700431227684021,0.11033973097801208,0.3829914331436157,0.459525465965271,0.0,0.0,0.0,0.0,17016.0,8495.0,12415.0,14910.0,1.6359684467315674,0.04066647200280121,-0.031101376221996723,0.07909165241663038,0.003450936870649457,-0.0015100090531632304,0.0
234,5,-1.8269616703037173e-05,4.8073001380544156e-05,5.398878420237452e-05,-0.0008863845141604543,-0.002935190452262759,-0.0012657350162044168,-0.0051773833110928535,-0.12038354575634003,0.010126383975148201,-0.026285694912075996,-0.0061626737006008625,0.1472616195678711,0.0,0.0,0.0,-0.0004979618825018406,-0.0008754075970500708,-0.0,0.0,0.0,0.0,0.000535637722350657,0.0361107736825943,-0.0017850938020274043,17475.0,7422.0,13127.0,14304.0,0.700431227684021,0.11033973097801208,0.3829914331436157,0.459525465965271,0.0,0.0,0.0,0.0,17016.0,8495.0,12415.0,14910.0,1.6359684467315674,0.04217013563564032,-0.030655438827900856,0.07931669603016638,0.003450936870649457,-0.0015100090531632304,0.0
239,5,-3.391092468518764e-05,1.6800946696093888e-06,0.00012969820818398148,-0.002231510356068611,0.004393072798848152,-0.009591424837708473,-0.005078556947410107,-0.12039516866207123,0.00996091216802597,0.04360523447394371,-0.011707457713782787,0.04102243110537529,0.0,0.0,0.0,0.0036688705440610647,-0.0008575241663493216,-0.0,0.0,0.0,0.0,0.0003076249558944255,0.03488913178443909,0.00046944149653427303,15633.0,11061.0,10373.0,16191.0,0.5543520450592041,0.2654075622558594,0.23098480701446533,0.596767783164978,0.0,0.0,0.0,0.0,16942.0,8914.0,12319.0,14756.0,1.6576485633850098,0.04034502524515147,-0.032296046589154984,0.07823301038418572,0.0034252142067998648,0.011272795498371124,0.0
244,5,-4.1942050302168354e-05,2.881594809878152e-05,0.00019123879610560834,-0.001856339513324201,-0.0014990733470767736,-0.011221440508961678,-0.005078556947410107,-0.12039516866207123,0.00996091216802597,0.04360523447394371,-0.011707457713782787,0.04102243110537529,0.0,0.0,0.0,0.0036688705440610647,-0.0008575241663493216,-0.0,0.0,0.0,0.0,0.0003076249558944255,0.03488913178443909,0.00046944149653427303,15633.0,11061.0,10373.0,16191.0,0.5543520450592041,0.2654075622558594,0.23098480701446533,0.596767783164978,0.0,0.0,0.0,0.0,16942.0,8914.0,12319.0,14756.0,1.6576485633850098,0.04073055496378619,-0.03353467127293751,0.0787447444666389,0.0034252142067998648,0.011272795498371124,0.0
249,5,-6.174832378746942e-05,2.7224579753237776e-05,0.0003103126073256135,-0.003119288245216012,-0.0004086651897523552,-0.018777431920170784,-0.004654544871300459,-0.1199992373585701,0.01043801661580801,0.05189469829201698,-0.1070336401462555,-0.17538221180438995,0.0,0.0,0.0,0.0018895302200689912,-0.001808301080018282,-0.0,0.0,0.0,0.0,0.0016165924025699496,0.029704926535487175,0.003844133811071515,15388.0,11326.0,10201.0,16203.0,0.5362149477005005,0.2792920470237732,0.22275935113430023,0.5977020859718323,0.0,0.0,0.0,0.0,14503.0,12470.0,9049.0,16840.0,1.6507519483566284,0.0401748396307773,-0.0356139125474383,0.07912019768455915,0.007192890625447035,0.0057815429754555225,0.0
255,5,-0.00010990120063070208,6.18712135747046e-07,0.00042190164094790816,-0.007026060484349728,0.0030292379669845104,-0.02090165764093399,-0.004654544871300459,-0.1199992373585701,0.01043801661580801,0.05189469829201698,-0.1070336401462555,-0.17538221180438995,0.0,0.0,0.0,0.0018895302200689912,-0.001808301080018282,-0.0,0.0,0.0,0.0,0.0016165924025699496,0.029704926535487175,0.003844133811071515,15388.0,11326.0,10201.0,16203.0,0.5362149477005005,0.2792920470237732,0.22275935113430023,0.5977020859718323,0.0,0.0,0.0,0.0,14503.0,12470.0,9049.0,16840.0,1.6507519483566284,0.04047828473650327,-0.038177742399027347,0.07808598185800511,0.007192890625447035,0.0057815429754555225,0.0
260,5,-0.00015935374540276825,6.128841050667688e-05,0.0004987663705833256,-0.008744730614125729,-0.006068668328225613,-0.017584431916475296,-0.004348818212747574,-0.11717778444290161,0.010364744812250137,-0.009832062758505344,-0.39504215121269226,0.11124661564826965,0.0,0.0,0.0,-0.003593944711610675,-0.00656253332272172,-0.0,0.0,0.0,0.0,0.002212365623563528,0.019615106284618378,-0.0032051922753453255,13972.0,12910.0,11412.0,15709.0,0.4372674226760864,0.36960577964782715,0.2838802933692932,0.5599984526634216,0.0,0.0,0.0,0.0,16240.0,10027.0,12906.0,14501.0,1.7045027017593384,0.04565877565344203,-0.04052779626227741,0.07901803445160943,0.026953503489494324,-0.011354707181453705,0.0
265,5,-0.0002689917746465653,0.00011892166367033496,0.0007100798538886011,-0.01665445603430271,-0.009343458339571953,-0.03239138796925545,-0.004348818212747574,-0.11717778444290161,0.010364744812250137,-0.009832062758505344,-0.39504215121269226,0.11124661564826965,0.0,0.0,0.0,-0.003593944711610675,-0.00656253332272172,-0.0,0.0,0.0,0.0,0.002212365623563528,0.019615106284618378,-0.0032051922753453255,13972.0,12910.0,11412.0,15709.0,0.4372674226760864,0.36960577964782715,0.2838802933692932,0.5599984526634216,0.0,0.0,0.0,0.0,16240.0,10027.0,12906.0,14501.0,1.7045027017593384,0.04537479999152294,-0.047023205187453024,0.0805768109221576,0.026953503489494324,-0.011354707181453705,0.0
270,5,-0.00042036862578243017,0.00014849030412733555,0.0009605331579223275,-0.024827005341649055,-0.007285620551556349,-0.043010953813791275,-0.004579490050673485,-0.11252321302890778,0.009465454146265984,-0.044916730374097824,-0.8314229249954224,-0.036126166582107544,0.0,0.0,0.0,0.010579997673630714,-0.014578642323613167,-0.0,0.0,0.0,0.0,0.001659919274970889,0.007091300096362829,0.0033106040209531784,13972.0,12910.0,11412.0,15709.0,0.4372674226760864,0.36960577964782715,0.2838802933692932,0.5599984526634216,0.0,0.0,0.0,0.0,14819.0,11943.0,12996.0,14423.0,1.820185661315918,0.044635482406014705,-0.05391569295907439,0.08065797112336365,0.06393592804670334,0.03569398820400238,0.0
275,5,-0.0005902627599425614,0.00018437390099279583,0.0011944478610530496,-0.03031809814274311,-0.007220278959721327,-0.045274149626493454,-0.004579490050673485,-0.11252321302890778,0.009465454146265984,-0.044916730374097824,-0.8314229249954224,-0.036126166582107544,0.0,0.0,0.0,0.010579997673630714,-0.014578642323613167,-0.0,0.0,0.0,0.0,0.001659919274970889,0.007091300096362829,0.0033106040209531784,13972.0,12910.0,11412.0,15709.0,0.4372674226760864,0.36960577964782715,0.2838802933692932,0.5599984526634216,0.0,0.0,0.0,0.0,14819.0,11943.0,12996.0,14423.0,1.820185661315918,0.045141242099487916,-0.062347898652426674,0.0811411161355437,0.06393592804670334,0.03569398820400238,0.0
280,5,-0.0007538252393715084,0.00023403762315865606,0.0014607872581109405,-0.03175473213195801,-0.008847758173942566,-0.0500703863799572,-0.005436774343252182,-0.10035669058561325,0.010013749822974205,-0.11999473720788956,-1.2960902452468872,-0.03824997693300247,0.0,0.0,0.0,0.007811845745891333,-0.025017505511641502,-0.0,0.0,0.0,0.0,0.0027953465469181538,-0.007845643907785416,-0.0015431088395416737,12637.0,14980.0,15005.0,14191.0,0.35316959023475647,0.5066235661506653,0.5084728598594666,0.45191964507102966,0.0,0.0,0.0,0.0,13435.0,13855.0,13513.0,14389.0,1.9401675462722778,0.04474768101506295,-0.07151175844066446,0.0818223053254679,0.11694364249706268,0.028092697262763977,0.0
285,5,-0.0009483080357313156,0.00032503061811439693,0.0017188870115205646,-0.03603983297944069,-0.01445826143026352,-0.05100012198090553,-0.005436774343252182,-0.10035669058561325,0.010013749822974205,-0.11999473720788956,-1.2960902452468872,-0.03824997693300247,0.0,0.0,0.0,0.007811845745891333,-0.025017505511641502,-0.0,0.0,0.0,0.0,0.0027953465469181538,-0.007845643907785416,-0.0015431088395416737,12637.0,14980.0,15005.0,14191.0,0.35316959023475647,0.5066235661506653,0.5084728598594666,0.45191964507102966,0.0,0.0,0.0,0.0,13435.0,13855.0,13513.0,14389.0,1.9401675462722778,0.04538440327931625,-0.081853530147635,0.08288543783124895,0.11694364249706268,0.028092697262763977,0.0
290,5,-0.0011342972284182906,0.0003554518334567547,0.001924315351061523,-0.03673463314771652,-0.009433852508664131,-0.0450514480471611,-0.008408935740590096,-0.06458552926778793,0.009472754783928394,-0.17771543562412262,-2.162856340408325,-0.09433457255363464,0.0,0.0,0.0,0.01498338207602501,-0.028891107067465782,-0.0,0.0,0.0,0.0,0.005435250699520111,-0.026056600734591484,0.0006973887211643159,12352.0,16040.0,16605.0,13229.0,0.336344838142395,0.585184633731842,0.6293034553527832,0.38933467864990234,0.0,0.0,0.0,0.0,13498.0,14228.0,16338.0,12604.0,2.016860008239746,0.04553934203020141,-0.09198483731658319,0.08261958666082514,0.14037270843982697,0.05600988119840622,0.0
295,5,-0.0013466704403981566,0.00040899659506976604,0.002137820702046156,-0.04017864540219307,-0.01019891258329153,-0.04364122822880745,-0.008408935740590096,-0.06458552926778793,0.009472754783928394,-0.17771543562412262,-2.162856340408325,-0.09433457255363464,0.0,0.0,0.0,0.01498338207602501,-0.028891107067465782,-0.0,0.0,0.0,0.0,0.005435250699520111,-0.026056600734591484,0.0006973887211643159,12352.0,16040.0,16605.0,13229.0,0.336344838142395,0.585184633731842,0.6293034553527832,0.38933467864990234,0.0,0.0,0.0,0.0,13498.0,14228.0,16338.0,12604.0,2.016860008239746,0.046375506534928355,-0.10269800905654455,0.0830616025298548,0.14037270843982697,0.05600988119840622,0.0
300,5,-0.001560404198244214,0.00047945219557732344,0.002338138408958912,-0.041719499975442886,-0.01253423746675253,-0.04149460420012474,-0.008408935740590096,-0.06458552926778793,0.009472754783928394,-0.17771543562412262,-2.162856340408325,-0.09433457255363464,0.0,0.0,0.0,0.010678191669285297,-0.03206852823495865,-0.0,0.0,0.0,0.0,0.005435250699520111,-0.026056600734591484,0.0006973887211643159,12352.0,16040.0,16605.0,13229.0,0.336344838142395,0.585184633731842,0.6293034553527832,0.38933467864990234,0.0,0.0,0.0,0.0,13498.0,14228.0,16338.0,12604.0,2.046302556991577,0.046532584999922556,-0.11410631706633022,0.08416083086077002,0.15808896720409393,0.040500566363334656,0.0
305,5,-0.0017911189934238791,0.0005651894607581198,0.0025804040487855673,-0.04437358304858208,-0.015302163548767567,-0.04566970840096474,-0.009723958559334278,-0.047086454927921295,0.009094609878957272,-0.16741953790187836,-2.2462515830993652,-0.014066641218960285,0.0,0.0,0.0,0.010678191669285297,-0.03206852823495865,-0.0,0.0,0.0,0.0,0.005990416742861271,-0.037162620574235916,-9.4700648332946e-05,11698.0,16479.0,17339.0,12285.0,0.2993561327457428,0.6192994117736816,0.6890645623207092,0.33244743943214417,0.0,0.0,0.0,0.0,11335.0,16707.0,16383.0,13574.0,2.046302556991577,0.04596296723398062,-0.12506851336858313,0.08440737348666187,0.15808896720409393,0.040500566363334656,0.0
310,5,-0.00200555264018476,0.0006550875259563327,0.0027873676735907793,-0.04348147660493851,-0.016908632591366768,-0.04310354217886925,-0.009723958559334278,-0.047086454927921295,0.009094609878957272,-0.16741953790187836,-2.2462515830993652,-0.014066641218960285,0.0,0.0,0.0,0.015526620671153069,-0.034807708114385605,-0.0,0.0,0.0,0.0,0.005990416742861271,-0.037162620574235916,-9.4700648332946e-05,11698.0,16479.0,17339.0,12285.0,0.2993561327457428,0.6192994117736816,0.6890645623207092,0.33244743943214417,0.0,0.0,0.0,0.0,11335.0,16707.0,16383.0,13574.0,2.1022915840148926,0.04611605497642917,-0.13609238260277226,0.08490783134426345,0.1762707233428955,0.06049879640340805,0.0
315,5,-0.002218394074589014,0.0007454539299942553,0.0029769735410809517,-0.04293355345726013,-0.017607426270842552,-0.039994120597839355,-0.011481741443276405,-0.021371418610215187,0.008888762444257736,-0.11539080739021301,-2.0194973945617676,-0.06381965428590775,0.0,0.0,0.0,0.015526620671153069,-0.034807708114385605,-0.0,0.0,0.0,0.0,0.00748624000698328,-0.041537001729011536,-0.0007106859120540321,11124.0,17185.0,17502.0,12904.0,0.2686772346496582,0.6762608885765076,0.7026416063308716,0.36928024888038635,0.0,0.0,0.0,0.0,11706.0,16809.0,17895.0,12334.0,2.1022915840148926,0.045191297703984896,-0.1451704083814564,0.08545360852158386,0.1762707233428955,0.06049879640340805,0.0
321,5,-0.002515362109988928,0.0008913916535675526,0.0032641871366649866,-0.02969343587756157,-0.01492659654468298,-0.02859668806195259,-0.011481741443276405,-0.021371418610215187,0.008888762444257736,-0.11539080739021301,-2.0194973945617676,-0.06381965428590775,0.0,0.0,0.0,0.017989754676818848,-0.034187108278274536,-0.0,0.0,0.0,0.0,0.00748624000698328,-0.041537001729011536,-0.0007106859120540321,11124.0,17185.0,17502.0,12904.0,0.2686772346496582,0.6762608885765076,0.7026416063308716,0.36928024888038635,0.0,0.0,0.0,0.0,11706.0,16809.0,17895.0,12334.0,2.1035828590393066,0.04576452311464395,-0.1580895648271663,0.08447433404301564,0.17322838306427002,0.07013759762048721,0.0
326,5,-0.002515362109988928,0.0008913916535675526,0.0032641871366649866,-0.02969343587756157,-0.01492659654468298,-0.02859668806195259,-0.012379948981106281,-0.006336244288831949,0.008836906403303146,-0.04694535210728645,-1.6033070087432861,-0.022497251629829407,0.0,0.0,0.0,0.017989754676818848,-0.034187108278274536,-0.0,0.0,0.0,0.0,0.005826158449053764,-0.042315077036619186,0.0005096551030874252,11922.0,17007.0,17900.0,12352.0,0.31177636981010437,0.6616628766059875,0.7365174889564514,0.3363458216190338,0.0,0.0,0.0,0.0,11282.0,17377.0,17658.0,12773.0,2.1035828590393066,0.04576452311464395,-0.1580895648271663,0.08447433404301564,0.17322838306427002,0.07013759762048721,0.0
331,5,-0.002628984395414591,0.0009520764579065144,0.0033802848774939775,-0.025512060150504112,-0.013252812437713146,-0.025370394811034203,-0.012379948981106281,-0.006336244288831949,0.008836906403303146,-0.04694535210728645,-1.6033070087432861,-0.022497251629829407,0.0,0.0,0.0,0.016529439017176628,-0.026152534410357475,-0.0,0.0,0.0,0.0,0.005826158449053764,-0.042315077036619186,0.0005096551030874252,11922.0,17007.0,17900.0,12352.0,0.31177636981010437,0.6616628766059875,0.7365174889564514,0.3363458216190338,0.0,0.0,0.0,0.0,11282.0,17377.0,17658.0,12773.0,1.9875456094741821,0.04574097032238999,-0.16205416609968804,0.08475718357098735,0.12522007524967194,0.060890261083841324,0.0
336,5,-0.002699536271393299,0.0010573158506304026,0.0034753212239593267,-0.008219446986913681,-0.010962245985865593,-0.009725978597998619,-0.012202893383800983,0.009692564606666565,0.008681907318532467,0.06822913140058517,-0.9596039652824402,-0.02501215599477291,0.0,0.0,0.0,0.016529439017176628,-0.026152534410357475,-0.0,0.0,0.0,0.0,0.005162900313735008,-0.03490660712122917,0.00011643515608739108,12759.0,16831.0,17548.0,13206.0,0.3604402542114258,0.6474122405052185,0.706558883190155,0.3878801465034485,0.0,0.0,0.0,0.0,12075.0,17199.0,18006.0,12731.0,1.9875456094741821,0.04685584132797982,-0.16550762881946687,0.08495443700643489,0.12522007524967194,0.060890261083841324,0.0
341,5,-0.002657681703567505,0.0011345153907313943,0.0034759475383907557,0.0017347844550386071,-0.013648838736116886,-0.003965538460761309,-0.012202893383800983,0.009692564606666565,0.008681907318532467,0.06822913140058517,-0.9596039652824402,-0.02501215599477291,0.0,0.0,0.0,0.014068271033465862,-0.010539890266954899,-0.0,0.0,0.0,0.0,0.005162900313735008,-0.03490660712122917,0.00011643515608739108,12759.0,16831.0,17548.0,13206.0,0.3604402542114258,0.6474122405052185,0.706558883190155,0.3878801465034485,0.0,0.0,0.0,0.0,12075.0,17199.0,18006.0,12731.0,1.8002049922943115,0.047874409103379936,-0.16462912445963274,0.08467035817845982,0.04571502283215523,0.04694022983312607,0.0
346,5,-0.002657681703567505,0.0011345153907313943,0.0034759475383907557,0.0017347844550386071,-0.013648838736116886,-0.003965538460761309,-0.011590035632252693,0.015139342285692692,0.008590691722929478,0.11676625162363052,-0.3117791414260864,-0.004352562129497528,0.0,0.0,0.0,0.014068271033465862,-0.010539890266954899,-0.0,0.0,0.0,0.0,0.004856254905462265,-0.02466205693781376,0.00025933163124136627,13568.0,16246.0,16992.0,13881.0,0.4108259677886963,0.6010850667953491,0.6604523658752441,0.4312194585800171,0.0,0.0,0.0,0.0,12948.0,16669.0,17400.0,13447.0,1.8002049922943115,0.047874409103379936,-0.16462912445963274,0.08467035817845982,0.04571502283215523,0.04694022983312607,0.0
351,5,-0.002486997516825795,0.001220150850713253,0.0033268036786466837,0.014459716156125069,-0.009261869825422764,0.012979761697351933,-0.011590035632252693,0.015139342285692692,0.008590691722929478,0.11676625162363052,-0.3117791414260864,-0.004352562129497528,0.0,0.0,0.0,0.017405778169631958,-0.0019034066936001182,-0.0,0.0,0.0,0.0,0.004856254905462265,-0.02466205693781376,0.00025933163124136627,13568.0,16246.0,16992.0,13881.0,0.4108259677886963,0.6010850667953491,0.6604523658752441,0.4312194585800171,0.0,0.0,0.0,0.0,12948.0,16669.0,17400.0,13447.0,1.7806514501571655,0.05018982291338349,-0.15910856200144752,0.08426323710258923,0.008165755309164524,0.0574435219168663,0.0
356,5,-0.0024061929434537888,0.0012785395374521613,0.003280789591372013,0.01548043079674244,-0.010711382143199444,0.010713604278862476,-0.009879459626972675,0.014933302067220211,0.008561821654438972,0.19748777151107788,0.4190868139266968,-0.007988689467310905,0.0,0.0,0.0,0.017405778169631958,-0.0019034066936001182,-0.0,0.0,0.0,0.0,0.003280262928456068,-0.0076657505705952644,0.0010426410008221865,14520.0,14775.0,15707.0,14330.0,0.4743158221244812,0.4920928478240967,0.5598567128181458,0.46128013730049133,0.0,0.0,0.0,0.0,14030.0,15873.0,16911.0,13957.0,1.7806514501571655,0.0511545152971795,-0.15533562051010263,0.08437991606387783,0.008165755309164524,0.0574435219168663,0.0
361,5,-0.0022854299750179052,0.0013356778072193265,0.003176820231601596,0.020683715119957924,-0.011141153983771801,0.016761740669608116,-0.009879459626972675,0.014933302067220211,0.008561821654438972,0.19748777151107788,0.4190868139266968,-0.007988689467310905,0.0,0.0,0.0,0.014162948355078697,0.01032546628266573,-0.0,0.0,0.0,0.0,0.003280262928456068,-0.0076657505705952644,0.0010426410008221865,14520.0,14775.0,15707.0,14330.0,0.4743158221244812,0.4920928478240967,0.5598567128181458,0.46128013730049133,0.0,0.0,0.0,0.0,14030.0,15873.0,16911.0,13957.0,1.799007773399353,0.051598008877474545,-0.1508143486195557,0.08381517995686359,-0.04475518316030502,0.04722466692328453,-0.0
366,5,-0.002182942582294345,0.0013800739543512464,0.003072181483730674,0.020571988075971603,-0.009783999063074589,0.019261369481682777,-0.008218717761337757,0.010087956674396992,0.00849959161132574,0.2278466522693634,0.8671489357948303,-0.011030813679099083,0.0,0.0,0.0,0.014162948355078697,0.01032546628266573,-0.0,0.0,0.0,0.0,0.0015277505153790116,0.009035744704306126,0.0010970273287966847,15042.0,12990.0,13973.0,14562.0,0.5111067295074463,0.37450140714645386,0.4373144507408142,0.47728240489959717,0.0,0.0,0.0,0.0,15177.0,12907.0,13574.0,14868.0,1.799007773399353,0.05233205784847688,-0.14595644688584145,0.0837316629349168,-0.04475518316030502,0.04722466692328453,-0.0
371,5,-0.002089922782033682,0.0014206208288669586,0.0029944938141852617,0.019391151145100594,-0.008779222145676613,0.017027059569954872,-0.008218717761337757,0.010087956674396992,0.00849959161132574,0.2278466522693634,0.8671489357948303,-0.011030813679099083,0.0,0.0,0.0,0.013032163493335247,0.014722166582942009,-0.0,0.0,0.0,0.0,0.0015277505153790116,0.009035744704306126,0.0010970273287966847,15042.0,12990.0,13973.0,14562.0,0.5111067295074463,0.37450140714645386,0.4373144507408142,0.47728240489959717,0.0,0.0,0.0,0.0,15177.0,12907.0,13574.0,14868.0,1.8344312906265259,0.05232404737721788,-0.1403175720376363,0.08291339809931646,-0.06506875902414322,0.044310249388217926,-0.0
376,5,-0.001984782749786973,0.0014624837785959244,0.002856623847037554,0.020373279228806496,-0.008535238914191723,0.02335520274937153,-0.005218323320150375,-0.0015832955250516534,0.008155900053679943,0.28891366720199585,1.098436951637268,-0.021876756101846695,0.0,0.0,0.0,0.013032163493335247,0.014722166582942009,-0.0,0.0,0.0,0.0,0.0012462834129109979,0.020043130964040756,0.00029549485770985484,15433.0,12420.0,12855.0,15365.0,0.5395426750183105,0.34034574031829834,0.3662840723991394,0.5344789028167725,0.0,0.0,0.0,0.0,15177.0,12907.0,13574.0,14868.0,1.8344312906265259,0.05391270260128503,-0.13508743017364952,0.08236401699403607,-0.06506875902414322,0.044310249388217926,-0.0
381,5,-0.0018690575379878283,0.0015111867105588317,0.0027339865919202566,0.02203633449971676,-0.009258446283638477,0.024058571085333824,-0.005218323320150375,-0.0015832955250516534,0.008155900053679943,0.28891366720199585,1.098436951637268,-0.021876756101846695,0.0,0.0,0.0,0.01182313822209835,0.014840489253401756,-0.0,0.0,0.0,0.0,0.0012462834129109979,0.020043130964040756,0.00029549485770985484,15433.0,12420.0,12855.0,15365.0,0.5395426750183105,0.34034574031829834,0.3662840723991394,0.5344789028167725,0.0,0.0,0.0,0.0,15177.0,12907.0,13574.0,14868.0,1.8292258977890015,0.05410786220935681,-0.13132974473186937,0.08243721841645217,-0.06540653854608536,0.040085773915052414,-0.0
386,5,-0.001798473298549652,0.0015671993605792522,0.002652612281963229,0.017284641042351723,-0.010424895212054253,0.01938834972679615,-0.003059624694287777,-0.009821835905313492,0.008079098537564278,0.2340671271085739,1.0134811401367188,-0.006925974506884813,0.0,0.0,0.0,0.01182313822209835,0.014840489253401756,-0.0,0.0,0.0,0.0,0.00016339031571988016,0.026223765686154366,0.0005590537912212312,16127.0,11804.0,12613.0,15578.0,0.591822624206543,0.3052109181880951,0.3517139256000519,0.5502602458000183,0.0,0.0,0.0,0.0,16101.0,11842.0,12469.0,15691.0,1.8292258977890015,0.054088585492298134,-0.12772622018654903,0.08169433195929593,-0.06540653854608536,0.040085773915052414,-0.0
392,5,-0.0017442459939047694,0.0015893630916252732,0.002579817548394203,0.013421128503978252,-0.00682960357517004,0.016490686684846878,-0.003059624694287777,-0.009821835905313492,0.008079098537564278,0.2340671271085739,1.0134811401367188,-0.006925974506884813,0.0,0.0,0.0,0.01416482962667942,0.012514393776655197,-0.0,0.0,0.0,0.0,0.00016339031571988016,0.026223765686154366,0.0005590537912212312,16127.0,11804.0,12613.0,15578.0,0.591822624206543,0.3052109181880951,0.3517139256000519,0.5502602458000183,0.0,0.0,0.0,0.0,16101.0,11842.0,12469.0,15691.0,1.8189083337783813,0.05496530190836436,-0.12578100464996644,0.0814397676799769,-0.05484255030751228,0.04775340482592583,-0.0
397,5,-0.00171843939460814,0.0016087627736851573,0.0025385157205164433,0.008465246297419071,-0.0050598084926605225,0.011552518233656883,-0.003059624694287777,-0.009821835905313492,0.008079098537564278,0.2340671271085739,1.0134811401367188,-0.006925974506884813,0.0,0.0,0.0,0.01416482962667942,0.012514393776655197,-0.0,0.0,0.0,0.0,0.00016339031571988016,0.026223765686154366,0.0005590537912212312,16127.0,11804.0,12613.0,15578.0,0.591822624206543,0.3052109181880951,0.3517139256000519,0.5502602458000183,0.0,0.0,0.0,0.0,16101.0,11842.0,12469.0,15691.0,1.8189083337783813,0.055457828177256856,-0.1248224345681902,0.08124875731228631,-0.05484255030751228,0.04775340482592583,-0.0
402,5,-0.0017271435353904963,0.0016325698234140873,0.0025649836752563715,0.0023416008334606886,-0.0048807645216584206,0.0014448469737544656,-0.0005467517185024917,-0.020594606176018715,0.007858149707317352,0.19213342666625977,0.7088219523429871,-0.031230006366968155,0.0,0.0,0.0,0.008733800612390041,0.005352850072085857,-0.0,0.0,0.0,0.0,0.00024948426289483905,0.01937633752822876,0.0003087462391704321,16034.0,12253.0,12688.0,15747.0,0.5846705436706543,0.330638587474823,0.35621291399002075,0.5629092454910278,0.0,0.0,0.0,0.0,15848.0,12486.0,12611.0,15816.0,1.7215224504470825,0.0561128218195978,-0.12483164125391727,0.08104832084474412,-0.022203991189599037,0.02786855772137642,-0.0
407,5,-0.0017618483398109674,0.0016462954226881266,0.0026233121752738953,-0.003227928187698126,-0.003599387127906084,-0.0064215026795864105,-0.0005467517185024917,-0.020594606176018715,0.007858149707317352,0.19213342666625977,0.7088219523429871,-0.031230006366968155,0.0,0.0,0.0,0.008733800612390041,0.005352850072085857,-0.0,0.0,0.0,0.0,0.00024948426289483905,0.01937633752822876,0.0003087462391704321,16034.0,12253.0,12688.0,15747.0,0.5846705436706543,0.330638587474823,0.35621291399002075,0.5629092454910278,0.0,0.0,0.0,0.0,15848.0,12486.0,12611.0,15816.0,1.7215224504470825,0.05700613007900883,-0.12617266156442983,0.08092016502635879,-0.022203991189599037,0.02786855772137642,-0.0
412,5,-0.0018355167703703046,0.0016662485431879759,0.0027214763686060905,-0.010131388902664185,-0.003834123956039548,-0.014348278753459454,0.0007744434988126159,-0.024458609521389008,0.0076813302002847195,0.14969418942928314,0.24763953685760498,-0.03271021693944931,0.0,0.0,0.0,0.007129862904548645,-0.005311387125402689,-0.0,0.0,0.0,0.0,0.00197953125461936,0.009788705967366695,-0.0005123919690959156,14507.0,13641.0,13658.0,15073.0,0.47341933846473694,0.41556718945503235,0.4166325032711029,0.5132893323898315,0.0,0.0,0.0,0.0,15286.0,13133.0,13057.0,15419.0,1.7104307413101196,0.0563706067863924,-0.12936352112212784,0.08118428255318313,0.02189032919704914,0.022604169324040413,0.0
417,5,-0.0019349505892023444,0.0016670920886099339,0.0028114584274590015,-0.015984609723091125,-0.0016348820645362139,-0.01653718203306198,0.0007744434988126159,-0.024458609521389008,0.0076813302002847195,0.14969418942928314,0.24763953685760498,-0.03271021693944931,0.0,0.0,0.0,0.007129862904548645,-0.005311387125402689,-0.0,0.0,0.0,0.0,0.00197953125461936,0.009788705967366695,-0.0005123919690959156,14507.0,13641.0,13658.0,15073.0,0.47341933846473694,0.41556718945503235,0.4166325032711029,0.5132893323898315,0.0,0.0,0.0,0.0,15286.0,13133.0,13057.0,15419.0,1.7104307413101196,0.05653632405228914,-0.1327239998341547,0.08116364013439456,0.02189032919704914,0.022604169324040413,0.0
422,5,-0.0020535390358418226,0.0016856271540746093,0.002950141439214349,-0.020624469965696335,-0.0028781495057046413,-0.023256825283169746,0.0012317984364926815,-0.021083131432533264,0.006846964824944735,-0.1031130999326706,-0.7366512417793274,-0.046202048659324646,0.0,0.0,0.0,0.0045578195713460445,-0.01613808237016201,-0.0,0.0,0.0,0.0,0.002298456383869052,-0.004320336971431971,-0.0002058341633528471,13178.0,14188.0,14233.0,13846.0,0.3861550986766815,0.45171400904655457,0.4547392427921295,0.4289140999317169,0.0,0.0,0.0,0.0,14348.0,13789.0,13933.0,14838.0,1.8178472518920898,0.05620463645027161,-0.13800976350576058,0.08145954944866558,0.0706867203116417,0.015357492491602898,0.0
427,5,-0.002174125984311104,0.0016850348329171538,0.0030296416953206062,-0.022720200940966606,-0.0010801890166476369,-0.018842771649360657,0.0012317984364926815,-0.021083131432533264,0.006846964824944735,-0.1031130999326706,-0.7366512417793274,-0.046202048659324646,0.0,0.0,0.0,0.0045578195713460445,-0.01613808237016201,-0.0,0.0,0.0,0.0,0.002298456383869052,-0.004320336971431971,-0.0002058341633528471,13178.0,14188.0,14233.0,13846.0,0.3861550986766815,0.45171400904655457,0.4547392427921295,0.4289140999317169,0.0,0.0,0.0,0.0,14348.0,13789.0,13933.0,14838.0,1.8178472518920898,0.05613326999728948,-0.14375683223862773,0.08212527634735692,0.0706867203116417,0.015357492491602898,0.0
432,5,-0.002319434890523553,0.0016590459272265434,0.0031254736240953207,-0.026525147259235382,0.0026865911204367876,-0.01903691329061985,0.0012317984364926815,-0.021083131432533264,0.006846964824944735,-0.1031130999326706,-0.7366512417793274,-0.046202048659324646,0.0,0.0,0.0,0.0038314650300890207,-0.0214243121445179,-0.0,0.0,0.0,0.0,0.002675179159268737,-0.015777310356497765,-0.0002880799293052405,12338.0,14826.0,14944.0,12999.0,0.3355594277381897,0.49572545289993286,0.5040556192398071,0.37509024143218994,0.0,0.0,0.0,0.0,12923.0,14383.0,14414.0,13696.0,1.8842945098876953,0.056597688473984935,-0.14829237213562718,0.08204150450134023,0.09726826101541519,0.013381976634263992,0.0
437,5,-0.0024614192079752684,0.0016384011832997203,0.0032159388065338135,-0.0276481993496418,0.003552011912688613,-0.01847059652209282,0.0012317984364926815,-0.021083131432533264,0.006846964824944735,-0.1031130999326706,-0.7366512417793274,-0.046202048659324646,0.0,0.0,0.0,0.0038314650300890207,-0.0214243121445179,-0.0,0.0,0.0,0.0,0.002675179159268737,-0.015777310356497765,-0.0002880799293052405,12338.0,14826.0,14944.0,12999.0,0.3355594277381897,0.49572545289993286,0.5040556192398071,0.37509024143218994,0.0,0.0,0.0,0.0,12923.0,14383.0,14414.0,13696.0,1.8842945098876953,0.05636509604343727,-0.1534686970996046,0.08217855152055413,0.09726826101541519,0.013381976634263992,0.0
442,5,-0.0025907717645168304,0.0016076480969786644,0.0032639915589243174,-0.026581572368741035,0.005111164879053831,-0.013154564425349236,-0.00014412692689802498,-0.01094853412359953,0.006288949400186539,-0.10382844507694244,-1.0120259523391724,-0.027791177853941917,0.0,0.0,0.0,-0.001183272572234273,-0.025194451212882996,-0.0,0.0,0.0,0.0,0.0021259209606796503,-0.026233486831188202,0.0004599551029969007,12275.0,15683.0,16089.0,12397.0,0.3318900763988495,0.5581105351448059,0.5888820290565491,0.33896467089653015,0.0,0.0,0.0,0.0,12368.0,14803.0,15310.0,12560.0,1.9329665899276733,0.05619203826189495,-0.15854089065379817,0.08212122437484579,0.11733698099851608,-0.004239527974277735,0.0
448,5,-0.0026975960936397314,0.0015778359957039356,0.00330299767665565,-0.0234515480697155,0.005621923133730888,-0.0099425558000803,-0.00014412692689802498,-0.01094853412359953,0.006288949400186539,-0.10382844507694244,-1.0120259523391724,-0.027791177853941917,0.0,0.0,0.0,-0.001183272572234273,-0.025194451212882996,-0.0,0.0,0.0,0.0,0.0021259209606796503,-0.026233486831188202,0.0004599551029969007,12275.0,15683.0,16089.0,12397.0,0.3318900763988495,0.5581105351448059,0.5888820290565491,0.33896467089653015,0.0,0.0,0.0,0.0,12368.0,14803.0,15310.0,12560.0,1.9329665899276733,0.05707974080577777,-0.16237754404896196,0.08209710930874461,0.11733698099851608,-0.004239527974277735,0.0
453,5,-0.0028126281686127186,0.0015422300202772021,0.0033596865832805634,-0.023184482008218765,0.006521487608551979,-0.01077970489859581,-0.0013135129120200872,0.0110159395262599,0.005894854199141264,-0.0164472833275795,-1.0373334884643555,-0.030792223289608955,0.0,0.0,0.0,-0.0035042378585785627,-0.022500859573483467,-0.0,0.0,0.0,0.0,0.0013312569353729486,-0.02984624169766903,0.00019901953055523336,12327.0,16180.0,16407.0,12411.0,0.33488237857818604,0.5959727764129639,0.613645613193512,0.33979368209838867,0.0,0.0,0.0,0.0,12153.0,15780.0,16223.0,12213.0,1.8981794118881226,0.056896211081851965,-0.16725556581148043,0.08237112184798416,0.10290795564651489,-0.0123292813077569,0.0
458,5,-0.0029160536359995604,0.0015164840733632445,0.0033825424034148455,-0.021684827283024788,0.005698102992027998,-0.007054591551423073,-0.0013135129120200872,0.0110159395262599,0.005894854199141264,-0.0164472833275795,-1.0373334884643555,-0.030792223289608955,0.0,0.0,0.0,-0.0035042378585785627,-0.022500859573483467,-0.0,0.0,0.0,0.0,0.0013312569353729486,-0.02984624169766903,0.00019901953055523336,12327.0,16180.0,16407.0,12411.0,0.33488237857818604,0.5959727764129639,0.613645613193512,0.33979368209838867,0.0,0.0,0.0,0.0,12153.0,15780.0,16223.0,12213.0,1.8981794118881226,0.05714762755109348,-0.17036686565795917,0.0828331866705002,0.10290795564651489,-0.0123292813077569,0.0
463,5,-0.0029802387580275536,0.0014919008826836944,0.0034060082398355007,-0.016376156359910965,0.005229232367128134,-0.005637725815176964,-0.0012033358216285706,0.018289875239133835,0.005844996310770512,0.022225365042686462,-0.7157948017120361,-0.007891842164099216,0.0,0.0,0.0,-0.003706116694957018,-0.021469322964549065,-0.0,0.0,0.0,0.0,0.0008334073354490101,-0.027680305764079094,0.0005852282047271729,12779.0,15909.0,16398.0,12321.0,0.36169618368148804,0.5751291513442993,0.6129220128059387,0.33454716205596924,0.0,0.0,0.0,0.0,12290.0,16206.0,16394.0,12431.0,1.8847168684005737,0.057572106312835464,-0.17279346736932424,0.08278539347143543,0.09749447554349899,-0.012947083450853825,0.0
468,5,-0.003035424742847681,0.0014574730303138494,0.0034266167785972357,-0.013172793202102184,0.006223034579306841,-0.004728126805275679,-0.0012033358216285706,0.018289875239133835,0.005844996310770512,0.022225365042686462,-0.7157948017120361,-0.007891842164099216,0.0,0.0,0.0,-0.003706116694957018,-0.021469322964549065,-0.0,0.0,0.0,0.0,0.0008334073354490101,-0.027680305764079094,0.0005852282047271729,12779.0,15909.0,16398.0,12321.0,0.36169618368148804,0.5751291513442993,0.6129220128059387,0.33454716205596924,0.0,0.0,0.0,0.0,12290.0,16206.0,16394.0,12431.0,1.8847168684005737,0.05755263774996581,-0.17402786150627247,0.08251741857108345,0.09749447554349899,-0.012947083450853825,0.0
473,5,-0.0030756916385143995,0.0014230257365852594,0.0034505752846598625,-0.010101146064698696,0.006622883025556803,-0.00476627005264163,-0.0013941647484898567,0.024931147694587708,0.005551544483751059,-0.03148770332336426,-0.3315570652484894,-0.027286376804113388,0.0,0.0,0.0,-0.004549847915768623,-0.015218041837215424,-0.0,0.0,0.0,0.0,0.0006670005968771875,-0.023097887635231018,-0.0003979868197347969,12865.0,16002.0,15736.0,13192.0,0.36688244342803955,0.5822107791900635,0.5620740056037903,0.38701218366622925,0.0,0.0,0.0,0.0,12920.0,16183.0,16414.0,12625.0,1.8065117597579956,0.05745195708319647,-0.1748618584431522,0.0826251842849818,0.06624151021242142,-0.015235036611557007,0.0
478,5,-0.003104137722402811,0.0013734635431319475,0.0034572419244796038,-0.00745396688580513,0.008596615865826607,-0.0027065060567110777,-0.0013941647484898567,0.024931147694587708,0.005551544483751059,-0.03148770332336426,-0.3315570652484894,-0.027286376804113388,0.0,0.0,0.0,-0.004549847915768623,-0.015218041837215424,-0.0,0.0,0.0,0.0,0.0006670005968771875,-0.023097887635231018,-0.0003979868197347969,12865.0,16002.0,15736.0,13192.0,0.36688244342803955,0.5822107791900635,0.5620740056037903,0.38701218366622925,0.0,0.0,0.0,0.0,12920.0,16183.0,16414.0,12625.0,1.8065117597579956,0.05775830090984125,-0.17365947755219013,0.08215589944866707,0.06624151021242142,-0.015235036611557007,0.0
