timestamp,dt,pos_x,pos_y,pos_z,vel_x,vel_y,vel_z,roll,pitch,yaw,agv_x,agv_y,agv_z,x_ref,y_ref,z_ref,roll_ref,pitch_ref,yaw_ref,x_vel_ref,y_vel_ref,z_vel_ref,x_torque,y_torque,z_torque,w0,w1,w2,w3,u0,u1,u2,u3,m0req,m1req,m2req,m3req,thrust0,thrust1,thrust2,thrust3,thrust_ref,roll_vicon,pitch_vicon,yaw_vicon,acc_x,acc_y,acc_z
5,5,0.0,0.0,0.0,0.004730445332825184,0.0013131375890225172,0.003394821658730507,-0.004168144427239895,-0.0968610942363739,0.008304301649332047,0.001043248106725514,-0.002346077235415578,-0.001831958070397377,0.0,0.0,0.0,-0.0015855943784117699,0.004393818322569132,-0.0,0.0,0.0,0.0,0.0012570794206112623,0.029060503467917442,0.0006549113895744085,1495.0,1495.0,1495.0,1495.0,0.0,0.0,0.0,0.0,0.0,0.0,0.0,0.0,1495.0,1495.0,1495.0,1495.0,1.6754876375198364,0.01997730030580553,0.12247721350944829,-0.09847813181507752,-0.01773916929960251,-0.004924266133457422,0.0
29,24,0.0,0.0,0.0,-0.0024911556392908096,-0.0021238941699266434,-0.0005364114767871797,-0.004168144427239895,-0.0968610942363739,0.008304301649332047,0.001043248106725514,-0.002346077235415578,-0.001831958070397377,0.0,0.0,0.0,-0.0015855943784117699,0.004393818322569132,-0.0,0.0,0.0,0.0,0.0012570794206112623,0.029060503467917442,0.0006549113895744085,1495.0,1495.0,1495.0,1495.0,0.0,0.0,0.0,0.0,0.0,0.0,0.0,0.0,1495.0,1495.0,1495.0,1495.0,1.6754876375198364,0.01783203920612027,0.1206635748884237,-0.09763087709202029,-0.01773916929960251,-0.004924266133457422,0.0
34,5,0.0,0.0,0.0,-0.002623574109748006,0.0015018474077805877,0.0016212628688663244,-0.004168887622654438,-0.09684498608112335,0.008307765237987041,-1.4369948985404335e-05,-0.0002758751797955483,0.0017332861898466945,0.0,0.0,0.0,0.0025900928303599358,-0.0023369044065475464,-0.0,0.0,0.0,0.0,0.0007314454996958375,0.030391912907361984,0.0008788760169409215,1495.0,1495.0,1495.0,1495.0,0.0,0.0,0.0,0.0,0.0,0.0,0.0,0.0,1495.0,1495.0,1495.0,1495.0,1.6589800119400024,0.017390070300185516,0.12087071738003648,-0.0974317182118836,0.009341834113001823,0.0079646036028862,0.0
39,5,0.0,0.0,0.0,0.002275163773447275,0.0022366291377693415,0.004583363886922598,-0.004168887622654438,-0.09684498608112335,0.008307765237987041,-1.4369948985404335e-05,-0.0002758751797955483,0.0017332861898466945,0.0,0.0,0.0,0.0025900928303599358,-0.0023369044065475464,-0.0,0.0,0.0,0.0,0.0007314454996958375,0.030391912907361984,0.0008788760169409215,1495.0,1495.0,1495.0,1495.0,0.0,0.0,0.0,0.0,0.0,0.0,0.0,0.0,1495.0,1495.0,1495.0,1495.0,1.6589800119400024,0.017981490134990036,0.12105625303054665,-0.09814873172033735,0.009341834113001823,0.0079646036028862,0.0
44,5,-1.4599771930079442e-05,5.418291493697325e-06,6.75386399962008e-05,-0.0008419071091338992,0.00024445660528726876,-0.006271291524171829,-0.004168887622654438,-0.09684498608112335,0.008307765237987041,-1.4369948985404335e-05,-0.0002758751797955483,0.0017332861898466945,0.0,0.0,0.0,-0.0027289576828479767,0.0021353699266910553,-0.0,0.0,0.0,0.0,0.0007314454996958375,0.030391912907361984,0.0008788760169409215,1495.0,1495.0,1495.0,1495.0,0.0,0.0,0.0,0.0,0.0,0.0,0.0,0.0,1495.0,1495.0,1495.0,1495.0,1.658138632774353,0.01801737603921808,0.12109625475626681,-0.09756247781497293,-0.008531863801181316,-0.008387358859181404,0.0
49,5,3.858335912809707e-05,1.8372524209553376e-05,9.337915798823815e-06,0.0060452125035226345,-0.0014567251782864332,0.004475570749491453,-0.004168887622654438,-0.09684498608112335,0.008307765237987041,-1.4369948985404335e-05,-0.0002758751797955483,0.0017332861898466945,0.0,0.0,0.0,-0.0027289576828479767,0.0021353699266910553,-0.0,0.0,0.0,0.0,0.0007314454996958375,0.030391912907361984,0.0008788760169409215,1495.0,1495.0,1495.0,1495.0,0.0,0.0,0.0,0.0,0.0,0.0,0.0,0.0,1495.0,1495.0,1495.0,1495.0,1.658138632774353,0.018353488093232825,0.12190009541094272,-0.09795465650215092,-0.008531863801181316,-0.008387358859181404,0.0
54,5,3.2710275263525546e-05,3.358026879141107e-05,6.468006176874042e-05,0.0017133151413872838,-0.002407619496807456,-0.0048508294858038425,-0.0041489871218800545,-0.09681358933448792,0.008315886370837688,0.0017540062544867396,-0.002384314313530922,0.0008981901337392628,0.0,0.0,0.0,0.0017769171390682459,0.005621396470814943,-0.0,0.0,0.0,0.0,0.0020717300940304995,0.028369115665555,0.0008432033355347812,15649.0,10881.0,11991.0,15325.0,0.5555665493011475,0.2561681866645813,0.3156662583351135,0.5315790176391602,0.0,0.0,0.0,0.0,15648.0,10897.0,11979.0,15325.0,1.6892688274383545,0.018660569108958774,0.12119558839192253,-0.09759199606310162,-0.02288188971579075,0.0055638328194618225,-0.0
59,5,5.384726591728395e-06,2.230580685136374e-05,0.00013410543033387512,-0.0025937396567314863,0.00038988771848380566,-0.010271375998854637,-0.0041489871218800545,-0.09681358933448792,0.008315886370837688,0.0017540062544867396,-0.002384314313530922,0.0008981901337392628,0.0,0.0,0.0,0.0017769171390682459,0.005621396470814943,-0.0,0.0,0.0,0.0,0.0020717300940304995,0.028369115665555,0.0008432033355347812,15649.0,10881.0,11991.0,15325.0,0.5555665493011475,0.2561681866645813,0.3156662583351135,0.5315790176391602,0.0,0.0,0.0,0.0,15648.0,10897.0,11979.0,15325.0,1.6892688274383545,0.01878656852114038,0.12084210178703617,-0.09690515099815245,-0.02288188971579075,0.0055638328194618225,-0.0
64,5,4.225489101372659e-05,1.8420842025079764e-05,2.8115904569858685e-05,0.003386923810467124,0.0006221507210284472,0.008610192686319351,-0.00414169579744339,-0.09680038690567017,0.008300180546939373,-0.0016895390581339598,0.0027468581683933735,-0.0007938071503303945,0.0,0.0,0.0,-0.00043729550088755786,-0.0024355403147637844,-0.0,0.0,0.0,0.0,0.002050099428743124,0.028353141620755196,0.0007533191237598658,15798.0,10923.0,11716.0,15341.0,0.5667386054992676,0.25827550888061523,0.30036550760269165,0.5327590107917786,0.0,0.0,0.0,0.0,15656.0,10895.0,11992.0,15308.0,1.6522647142410278,0.01811429219033731,0.12136852598960754,-0.09770856856019598,0.009696753695607185,-0.001339254667982459,0.0
70,5,3.4967000829055905e-05,2.045846258624806e-06,1.9990637156297453e-05,0.0004802229523193091,0.0022138599306344986,0.00441910931840539,-0.00414169579744339,-0.09680038690567017,0.008300180546939373,-0.0016895390581339598,0.0027468581683933735,-0.0007938071503303945,0.0,0.0,0.0,-0.00043729550088755786,-0.0024355403147637844,-0.0,0.0,0.0,0.0,0.002050099428743124,0.028353141620755196,0.0007533191237598658,15798.0,10923.0,11716.0,15341.0,0.5667386054992676,0.25827550888061523,0.30036550760269165,0.5327590107917786,0.0,0.0,0.0,0.0,15656.0,10895.0,11992.0,15308.0,1.6522647142410278,0.017766680388018624,0.121689236228502,-0.09795921698339151,0.009696753695607185,-0.001339254667982459,0.0
75,5,2.129567747033434e-06,1.5843006622162648e-05,1.1662760698527563e-05,-0.0037484029307961464,-0.0007701154099777341,0.0027669889386743307,-0.004147501662373543,-0.0968492180109024,0.00829748809337616,-0.0005803816602565348,0.006920428480952978,-0.0014975634403526783,0.0,0.0,0.0,-0.0027126509230583906,0.0005017273942939937,-0.0,0.0,0.0,0.0,0.0004140152013860643,0.029856396839022636,0.0008212885004468262,15911.0,10840.0,11879.0,15581.0,0.575317919254303,0.25407636165618896,0.3093723654747009,0.5505021810531616,0.0,0.0,0.0,0.0,15833.0,10872.0,11751.0,15314.0,1.6488572359085083,0.018151197384454316,0.12088909793774417,-0.09737853326414359,-0.0019934307783842087,-0.00829057302325964,-0.0
80,5,-8.29792861622991e-06,2.7231802960159257e-05,-1.0597066648188047e-05,-0.0027506607584655285,-0.0016747016925364733,0.003777974983677268,-0.004147501662373543,-0.0968492180109024,0.00829748809337616,-0.0005803816602565348,0.006920428480952978,-0.0014975634403526783,0.0,0.0,0.0,-0.0027126509230583906,0.0005017273942939937,-0.0,0.0,0.0,0.0,0.0004140152013860643,0.029856396839022636,0.0008212885004468262,15911.0,10840.0,11879.0,15581.0,0.575317919254303,0.25407636165618896,0.3093723654747009,0.5505021810531616,0.0,0.0,0.0,0.0,15833.0,10872.0,11751.0,15314.0,1.6488572359085083,0.01815054034083848,0.12121313169424637,-0.09759970580296554,-0.0019934307783842087,-0.00829057302325964,-0.0
85,5,8.843700925353914e-06,2.8748219847329892e-05,7.276581072801491e-06,0.0009567312081344426,-0.0008518507238477468,-0.0006336478400044143,-0.004147976171225309,-0.09684321284294128,0.008292493410408497,-0.0033609748352319,0.004513561259955168,-0.0026893059257417917,0.0,0.0,0.0,0.0020913684275001287,-0.0025920425541698933,-0.0,0.0,0.0,0.0,0.0017859091749414802,0.030710836872458458,0.0008043383131735027,15650.0,10967.0,11849.0,15282.0,0.5555933713912964,0.2605441212654114,0.30770671367645264,0.5284205675125122,0.0,0.0,0.0,0.0,15709.0,10880.0,11892.0,15248.0,1.6587564945220947,0.017961293903067464,0.12149524995195736,-0.09751853081257285,0.010360369458794594,0.00643015094101429,0.0
90,5,1.0406340152258053e-05,1.6480940757901408e-05,3.9143647882156074e-05,0.0005702091730199754,0.001131333177909255,-0.004077507182955742,-0.004147976171225309,-0.09684321284294128,0.008292493410408497,-0.0033609748352319,0.004513561259955168,-0.0026893059257417917,0.0,0.0,0.0,0.0020913684275001287,-0.0025920425541698933,-0.0,0.0,0.0,0.0,0.0017859091749414802,0.030710836872458458,0.0008043383131735027,15650.0,10967.0,11849.0,15282.0,0.5555933713912964,0.2605441212654114,0.30770671367645264,0.5284205675125122,0.0,0.0,0.0,0.0,15709.0,10880.0,11892.0,15248.0,1.6587564945220947,0.018451316258906853,0.12062038123034534,-0.09750178456786539,0.010360369458794594,0.00643015094101429,0.0
95,5,5.449219770525815e-06,3.339014438097365e-05,6.7281631345395e-05,-0.00036677074967883527,-0.0015765710268169641,-0.005007560830563307,-0.004147976171225309,-0.09684321284294128,0.008292493410408497,-0.0033609748352319,0.004513561259955168,-0.0026893059257417917,0.0,0.0,0.0,-0.0013669689651578665,0.0005561583093367517,-0.0,0.0,0.0,0.0,0.0017859091749414802,0.030710836872458458,0.0008043383131735027,15650.0,10967.0,11849.0,15282.0,0.5555933713912964,0.2605441212654114,0.30770671367645264,0.5284205675125122,0.0,0.0,0.0,0.0,15709.0,10880.0,11892.0,15248.0,1.63848876953125,0.01922050641385652,0.12107281348272758,-0.09718204673838869,-0.0021958029828965664,-0.004151551518589258,0.0
100,5,2.2844309569336474e-05,4.964615072822198e-06,4.465373058337718e-05,0.0019407024374231696,0.0027804351411759853,0.0007123238174244761,-0.004174995701760054,-0.09688333421945572,0.008308101445436478,-0.00034557009348645806,0.004278290085494518,-0.0003475762205198407,0.0,0.0,0.0,-0.0013669689651578665,0.0005561583093367517,-0.0,0.0,0.0,0.0,0.00047097771312110126,0.02939259074628353,0.0009415522217750549,15688.0,10908.0,11882.0,15259.0,0.5584242939949036,0.2575254738330841,0.30953434109687805,0.5267806649208069,0.0,0.0,0.0,0.0,15770.0,10883.0,11720.0,15268.0,1.63848876953125,0.018340124381857947,0.12203964949197517,-0.09840925116276182,-0.0021958029828965664,-0.004151551518589258,0.0
105,5,3.428685886319727e-05,2.0713794583571143e-05,2.9077396902721375e-05,0.0021493867971003056,-0.0007777274586260319,0.0021540895104408264,-0.004177872557193041,-0.09689529985189438,0.008327369578182697,-0.004274550825357437,0.0033341359812766314,9.347862942377105e-05,0.0,0.0,0.0,-0.003379077184945345,0.0018505870830267668,-0.0,0.0,0.0,0.0,0.0008722926140762866,0.02943580411374569,0.0008705349173396826,15735.0,10752.0,11745.0,15234.0,0.5619925856590271,0.24964040517807007,0.30193692445755005,0.5249188542366028,0.0,0.0,0.0,0.0,15754.0,10890.0,11708.0,15288.0,1.6603004932403564,0.017864809146607125,0.1211252907735543,-0.09795741325501084,-0.007403641473501921,-0.010399006307125092,-0.0
110,5,3.471783202257939e-05,1.32414552354021e-05,2.6249805159750395e-05,0.0009114716667681932,0.0005855896160937846,0.0012009467463940382,-0.004177872557193041,-0.09689529985189438,0.008327369578182697,-0.004274550825357437,0.0033341359812766314,9.347862942377105e-05,0.0,0.0,0.0,-0.003379077184945345,0.0018505870830267668,-0.0,0.0,0.0,0.0,0.0008722926140762866,0.02943580411374569,0.0008705349173396826,15735.0,10752.0,11745.0,15234.0,0.5619925856590271,0.24964040517807007,0.30193692445755005,0.5249188542366028,0.0,0.0,0.0,0.0,15754.0,10890.0,11708.0,15288.0,1.6603004932403564,0.01818241530557816,0.12098044364856379,-0.0975385138645702,-0.007403641473501921,-0.010399006307125092,-0.0
115,5,4.484369492274709e-05,6.829685844422784e-06,7.784468834870495e-06,0.0015796921215951443,0.0010036482708528638,0.0026962191332131624,-0.004177872557193041,-0.09689529985189438,0.008327369578182697,-0.004274550825357437,0.0033341359812766314,9.347862942377105e-05,0.0,0.0,0.0,-0.0006995460717007518,0.0009149809484370053,-0.0,0.0,0.0,0.0,0.0008722926140762866,0.02943580411374569,0.0008705349173396826,15735.0,10752.0,11745.0,15234.0,0.5619925856590271,0.24964040517807007,0.30193692445755005,0.5249188542366028,0.0,0.0,0.0,0.0,15754.0,10890.0,11708.0,15288.0,1.637108564376831,0.01845321394061985,0.1213509183828971,-0.09796180247604655,-0.0036094519309699535,-0.0021227668039500713,-0.0
120,5,5.061556657892652e-05,3.371162847543019e-06,-3.234721953049302e-05,0.001324501703493297,0.0008164820610545576,0.005894290283322334,-0.004182804375886917,-0.09701324254274368,0.008331837132573128,0.003995630424469709,0.0033524436876177788,-3.407422991585918e-05,0.0,0.0,0.0,-0.0006995460717007518,0.0009149809484370053,-0.0,0.0,0.0,0.0,0.00023782510834280401,0.030061988160014153,0.0008481922559440136,15870.0,10881.0,11725.0,15319.0,0.5721728205680847,0.2561754882335663,0.3008318841457367,0.5311203002929688,0.0,0.0,0.0,0.0,15744.0,10743.0,11717.0,15251.0,1.637108564376831,0.017975408294893802,0.1217834622579075,-0.09829258765012096,-0.0036094519309699535,-0.0021227668039500713,-0.0
126,5,6.789061444578692e-05,1.891248939500656e-05,-7.562104292446747e-05,0.0026028063148260117,-0.001538366312161088,0.007550574839115143,-0.004182804375886917,-0.09701324254274368,0.008331837132573128,0.003995630424469709,0.0033524436876177788,-3.407422991585918e-05,0.0,0.0,0.0,-0.0009996619774028659,0.0013257035752758384,-0.0,0.0,0.0,0.0,0.00023782510834280401,0.030061988160014153,0.0008481922559440136,15870.0,10881.0,11725.0,15319.0,0.5721728205680847,0.2561754882335663,0.3008318841457367,0.5311203002929688,0.0,0.0,0.0,0.0,15744.0,10743.0,11717.0,15251.0,1.6421939134597778,0.01837170589232721,0.12173997781483613,-0.0981566141998375,-0.00524592911824584,-0.0030428883619606495,0.0
131,5,-2.0935212887707166e-05,3.440848377067596e-05,7.358264701906592e-05,-0.00961797684431076,-0.002474866108968854,-0.014884212985634804,-0.004182804375886917,-0.09701324254274368,0.008331837132573128,0.003995630424469709,0.0033524436876177788,-3.407422991585918e-05,0.0,0.0,0.0,-0.0009996619774028659,0.0013257035752758384,-0.0,0.0,0.0,0.0,0.00025402705068700016,0.02976333722472191,0.0008752042194828391,15870.0,10881.0,11725.0,15319.0,0.5721728205680847,0.2561754882335663,0.3008318841457367,0.5311203002929688,0.0,0.0,0.0,0.0,15843.0,10922.0,11729.0,15315.0,1.6421939134597778,0.018103779688841463,0.12104735013508539,-0.09713003484364852,-0.00524592911824584,-0.0030428883619606495,0.0
136,5,2.5493857265246334e-06,2.3014516045805067e-05,2.2213147531147115e-05,-0.0010290389182046056,0.0003773299395106733,0.00021065480541437864,-0.004166911821812391,-0.09699462354183197,0.008340150117874146,0.0015695813344791532,0.00047007770626805723,0.001359378220513463,0.0,0.0,0.0,-0.0004245300078764558,-0.0009747042786329985,-0.0,0.0,0.0,0.0,0.0009594461880624294,0.02962184138596058,0.0007745008915662766,15704.0,10825.0,11685.0,15311.0,0.5596314072608948,0.25332871079444885,0.29866334795951843,0.530570387840271,0.0,0.0,0.0,0.0,15738.0,10708.0,11763.0,15227.0,1.6367474794387817,0.01959441862977055,0.12149002434435706,-0.09776509524768924,0.003844203194603324,-0.0012879488058388233,-0.0
143,7,1.8051936422125436e-05,-1.0907876202281841e-07,4.152535439061467e-06,0.0014486905420199037,0.002925763139501214,0.0022515354212373495,-0.004166911821812391,-0.09699462354183197,0.008340150117874146,0.0015695813344791532,0.00047007770626805723,0.001359378220513463,0.0,0.0,0.0,-0.0004245300078764558,-0.0009747042786329985,-0.0,0.0,0.0,0.0,0.0009594461880624294,0.02962184138596058,0.0007745008915662766,15704.0,10825.0,11685.0,15311.0,0.5596314072608948,0.25332871079444885,0.29866334795951843,0.530570387840271,0.0,0.0,0.0,0.0,15738.0,10708.0,11763.0,15227.0,1.6367474794387817,0.018020818983483133,0.12079395596090335,-0.09796390701912572,0.003844203194603324,-0.0012879488058388233,-0.0
148,5,-1.163128672487801e-05,2.9441762308124453e-05,3.43656211043708e-05,-0.002982510719448328,-0.002375795738771558,-0.0027249562554061413,-0.004166911821812391,-0.09699462354183197,0.008340150117874146,0.0015695813344791532,0.00047007770626805723,0.001359378220513463,0.0,0.0,0.0,-0.0035679545253515244,0.001383984345011413,-0.0,0.0,0.0,0.0,0.0009594461880624294,0.02962184138596058,0.0007745008915662766,15704.0,10825.0,11685.0,15311.0,0.5596314072608948,0.25332871079444885,0.29866334795951843,0.530570387840271,0.0,0.0,0.0,0.0,15738.0,10708.0,11763.0,15227.0,1.659013271331787,0.01742138999997696,0.12092938876369093,-0.0976753033924587,-0.005532609764486551,-0.010971753858029842,-0.0
153,5,-1.0599796240740034e-07,2.9440310754580423e-05,3.068174919462763e-05,0.00019003044872079045,-0.0009501441963948309,-0.0006479176809079945,-0.004129037726670504,-0.09694481641054153,0.00835998635739088,0.004801656119525433,0.00011929005268029869,0.0015148409875109792,0.0,0.0,0.0,-0.0035679545253515244,0.001383984345011413,-0.0,0.0,0.0,0.0,0.0010939050698652864,0.028961248695850372,0.0009277021163143218,15698.0,10758.0,11799.0,15203.0,0.559187114238739,0.2499462366104126,0.3049408197402954,0.5226733088493347,0.0,0.0,0.0,0.0,15752.0,10748.0,11749.0,15266.0,1.659013271331787,0.018193606320659098,0.12141895127620243,-0.09774980277597752,-0.005532609764486551,-0.010971753858029842,-0.0
158,5,5.058264287072234e-05,2.7795700589194894e-05,-4.348144284449518e-05,0.006158649455755949,-0.00018270437431056052,0.008640415966510773,-0.004129037726670504,-0.09694481641054153,0.00835998635739088,0.004801656119525433,0.00011929005268029869,0.0015148409875109792,0.0,0.0,0.0,0.0012285279808565974,0.0001808010711101815,-0.0,0.0,0.0,0.0,0.0010939050698652864,0.028961248695850372,0.0009277021163143218,15698.0,10758.0,11799.0,15203.0,0.559187114238739,0.2499462366104126,0.3049408197402954,0.5226733088493347,0.0,0.0,0.0,0.0,15752.0,10748.0,11749.0,15266.0,1.6360399723052979,0.018831446751518495,0.12181214478678634,-0.09818283211454494,-0.000712765206117183,0.0037255235947668552,0.0
163,5,-9.048949868883938e-05,-1.0472092981217429e-05,0.00018326124700251967,-0.01446519698947668,0.0045190537348389626,-0.023752957582473755,-0.004153384827077389,-0.09691629558801651,0.008266218937933445,-0.003357110545039177,-0.005195422098040581,-0.019493326544761658,0.0,0.0,0.0,0.0012285279808565974,0.0001808010711101815,-0.0,0.0,0.0,0.0,0.0012097894214093685,0.028947489336133003,0.00041212051291950047,15657.0,11169.0,11516.0,15473.0,0.55614173412323,0.2709852159023285,0.2894229590892792,0.5424633026123047,0.0,0.0,0.0,0.0,15682.0,10787.0,11769.0,15221.0,1.6360399723052979,0.01767552172718321,0.1221113783907247,-0.097642904040409,-0.000712765206117183,0.0037255235947668552,0.0
168,5,0.00016226286243181676,2.7665513698593713e-05,-7.806978828739375e-05,0.008877175860106945,-0.00043203600216656923,0.007980632595717907,-0.004153384827077389,-0.09691629558801651,0.008266218937933445,-0.003357110545039177,-0.005195422098040581,-0.019493326544761658,0.0,0.0,0.0,-0.005157346371561289,-0.012772529385983944,-0.0,0.0,0.0,0.0,0.0012097894214093685,0.028947489336133003,0.00041212051291950047,15657.0,11169.0,11516.0,15473.0,0.55614173412323,0.2709852159023285,0.2894229590892792,0.5424633026123047,0.0,0.0,0.0,0.0,15682.0,10787.0,11769.0,15221.0,1.7787199020385742,0.01985469260459718,0.11817472705808044,-0.09805254141192002,0.054741762578487396,-0.01700352318584919,0.0
173,5,-0.0001674808154348284,-1.8689612261368893e-05,0.0003329783212393522,-0.03601837158203125,0.005389800760895014,-0.04613351821899414,-0.004097396973520517,-0.09687433391809464,0.008249289356172085,0.0039009994361549616,0.0071125272661447525,-0.10640154778957367,0.0,0.0,0.0,-0.005157346371561289,-0.012772529385983944,-0.0,0.0,0.0,0.0,0.0014838333008810878,0.029037710279226303,0.0016538735944777727,15493.0,10976.0,11560.0,15429.0,0.5439619421958923,0.26103413105010986,0.29181987047195435,0.5392240285873413,0.0,0.0,0.0,0.0,16115.0,10519.0,12101.0,15000.0,1.7787199020385742,0.015762202575596213,0.1216071240021358,-0.09816059346399046,0.054741762578487396,-0.01700352318584919,0.0
178,5,-5.7331206335220486e-05,-2.774889253487345e-05,0.00025617252686060965,-0.001189395901747048,0.0032430340070277452,-0.009236713871359825,-0.004097396973520517,-0.09687433391809464,0.008249289356172085,0.0039009994361549616,0.0071125272661447525,-0.10640154778957367,0.0,0.0,0.0,-0.005526379682123661,-0.028462231159210205,-0.0,0.0,0.0,0.0,0.0014838333008810878,0.029037710279226303,0.0016538735944777727,15493.0,10976.0,11560.0,15429.0,0.5439619421958923,0.26103413105010986,0.29181987047195435,0.5392240285873413,0.0,0.0,0.0,0.0,16115.0,10519.0,12101.0,15000.0,1.9831339120864868,0.013579121062006597,0.1170829261574895,-0.09787091041439584,0.1359902024269104,-0.020314086228609085,0.0
183,5,0.00013792644313070923,5.986612450215034e-05,-0.00010373332042945549,0.022955160588026047,-0.009216587990522385,0.03949401527643204,-0.0041435481980443,-0.0968255028128624,0.008416387252509594,-0.007644810248166323,-0.02458343468606472,0.1483517438173294,0.0,0.0,0.0,-0.005526379682123661,-0.028462231159210205,-0.0,0.0,0.0,0.0,0.001907833619043231,0.02881886437535286,0.0024872368667274714,16527.0,9229.0,13050.0,14248.0,0.623066782951355,0.1790304332971573,0.3782261610031128,0.455716609954834,0.0,0.0,0.0,0.0,14623.0,12118.0,10243.0,16321.0,1.9831339120864868,0.0169762146094224,0.11710322434733149,-0.0973768873250059,0.1359902024269104,-0.020314086228609085,0.0
189,5,-0.0002162377641070634,-4.95382773806341e-05,0.00037591945147141814,-0.03331764042377472,0.009441892616450787,-0.041760727763175964,-0.0041435481980443,-0.0968255028128624,0.008416387252509594,-0.007644810248166323,-0.02458343468606472,0.1483517438173294,0.0,0.0,0.0,0.010052821598947048,0.01924758031964302,-0.0,0.0,0.0,0.0,0.001907833619043231,0.02881886437535286,0.0024872368667274714,16527.0,9229.0,13050.0,14248.0,0.623066782951355,0.1790304332971573,0.3782261610031128,0.455716609954834,0.0,0.0,0.0,0.0,14623.0,12118.0,10243.0,16321.0,1.8725972175598145,0.014247921995155509,0.12026168023621642,-0.09892079728401289,-0.08684076368808746,0.034892138093709946,0.0
194,5,0.0001320989103987813,2.3800868802936748e-05,-7.969114085426554e-05,0.028473343700170517,-0.0050239404663443565,0.03796898201107979,-0.004203618969768286,-0.09682001918554306,0.00792559515684843,-0.003768485737964511,0.004543375223875046,-0.1692228764295578,0.0,0.0,0.0,0.010052821598947048,0.01924758031964302,-0.0,0.0,0.0,0.0,-0.0003155971353407949,0.02597355656325817,-0.002685787621885538,15019.0,14680.0,11943.0,17173.0,0.5094521045684814,0.485471248626709,0.3129449486732483,0.6752656102180481,0.0,0.0,0.0,0.0,17111.0,10172.0,14024.0,14110.0,1.8725972175598145,0.015595688633074941,0.11573423362671045,-0.09766669987112538,-0.08684076368808746,0.034892138093709946,0.0
199,5,0.00013091009168419987,3.6846140574198216e-05,-0.00010590985039016232,0.011246679350733757,-0.003575009061023593,0.018333837389945984,-0.004203618969768286,-0.09682001918554306,0.00792559515684843,-0.003768485737964511,0.004543375223875046,-0.1692228764295578,0.0,0.0,0.0,0.005352645181119442,0.02333376370370388,-0.0,0.0,0.0,0.0,-0.0003155971353407949,0.02597355656325817,-0.002685787621885538,15019.0,14680.0,11943.0,17173.0,0.5094521045684814,0.485471248626709,0.3129449486732483,0.6752656102180481,0.0,0.0,0.0,0.0,17111.0,10172.0,14024.0,14110.0,1.9121718406677246,0.0167945331013093,0.11727260529780192,-0.09710055139569024,-0.10750235617160797,0.018971433863043785,0.0
204,5,0.0012189046246930957,-0.00023452274035662413,-0.0019387378124520183,0.13505801558494568,0.031134262681007385,0.2272728979587555,-0.004234422463923693,-0.09664860367774963,0.008722917176783085,-0.016634710133075714,-0.015076404437422752,0.12621507048606873,0.0,0.0,0.0,0.005352645181119442,0.02333376370370388,-0.0,0.0,0.0,0.0,-5.207253707339987e-05,0.019791655242443085,0.0050508915446698666,17774.0,9035.0,14223.0,15193.0,0.7257402539253235,0.17087312042713165,0.45403701066970825,0.5219468474388123,0.0,0.0,0.0,0.0,15613.0,14030.0,12818.0,16553.0,1.9121718406677246,-0.002510097692171,0.11850695400563317,-0.10617549389829949,-0.10750235617160797,0.018971433863043785,0.0
209,5,0.0012433973606675863,-0.00020156062964815646,-0.001958071021363139,0.05696233734488487,0.008498252369463444,0.09322913736104965,-0.004234422463923693,-0.09664860367774963,0.008722917176783085,-0.016634710133075714,-0.015076404437422752,0.12621507048606873,0.0,0.0,0.0,-0.02263130247592926,0.07576185464859009,-0.0,0.0,0.0,0.0,-5.207253707339987e-05,0.019791655242443085,0.0050508915446698666,17774.0,9035.0,14223.0,15193.0,0.7257402539253235,0.17087312042713165,0.45403701066970825,0.5219468474388123,0.0,0.0,0.0,0.0,15613.0,14030.0,12818.0,16553.0,2.814434051513672,-0.0021933019490842495,0.11841929813100446,-0.10571946446110793,-0.5131765604019165,-0.1180434301495552,0.0
214,5,0.0012579491594806314,-0.00020390150893945247,-0.001982396002858877,0.02453114464879036,0.0036802063696086407,0.04021066427230835,-0.00440992834046483,-0.09703594446182251,0.008436542004346848,-0.012802813202142715,0.015051926486194134,0.08060304820537567,0.0,0.0,0.0,-0.02263130247592926,0.07576185464859009,-0.0,0.0,0.0,0.0,0.004610382951796055,0.03662916645407677,-0.000710505002643913,16867.0,11299.0,12363.0,16827.0,0.6502655148506165,0.2778477966785431,0.33700522780418396,0.6470533609390259,0.0,0.0,0.0,0.0,16267.0,11564.0,12001.0,17006.0,2.814434051513672,-0.0012953926194262675,0.11932183618994391,-0.10638782202595314,-0.5131765604019165,-0.1180434301495552,0.0
219,5,0.001296475762501359,-0.00022257212549448013,-0.0019893303979188204,0.014435657300055027,0.0037125556264072657,0.016916373744606972,-0.00440992834046483,-0.09703594446182251,0.008436542004346848,-0.012802813202142715,0.015051926486194134,0.08060304820537567,0.0,0.0,0.0,-0.004262005910277367,0.021733704954385757,-0.0,0.0,0.0,0.0,0.004610382951796055,0.03662916645407677,-0.000710505002643913,16867.0,11299.0,12363.0,16827.0,0.6502655148506165,0.2778477966785431,0.33700522780418396,0.6470533609390259,0.0,0.0,0.0,0.0,16267.0,11564.0,12001.0,17006.0,1.889019250869751,-0.0017949492907222055,0.11958416610862906,-0.10667342388795266,-0.09891995787620544,-0.014923014678061008,0.0
224,5,0.0013033261056989431,-0.00020279467571526766,-0.0019642701372504234,0.006596303079277277,-0.0008882716647349298,0.003759332001209259,-0.004500012844800949,-0.09737470000982285,0.008038436993956566,-0.0379248782992363,0.10549292713403702,-0.12954051792621613,0.0,0.0,0.0,-0.004262005910277367,0.021733704954385757,-0.0,0.0,0.0,0.0,0.0032125150319188833,0.038561902940273285,-0.0018184236250817776,15994.0,12496.0,10837.0,17846.0,0.5816025137901306,0.3448224663734436,0.25391441583633423,0.7318325042724609,0.0,0.0,0.0,0.0,17617.0,10108.0,13485.0,15918.0,1.889019250869751,-0.0022204160076601297,0.11991150205981621,-0.10564797306255627,-0.09891995787620544,-0.014923014678061008,0.0
229,5,0.0013012364506721497,-0.0001980513916350901,-0.00190091656986624,0.002387760439887643,-0.0009245019755326211,-0.006098696030676365,-0.004500012844800949,-0.09737470000982285,0.008038436993956566,-0.0379248782992363,0.10549292713403702,-0.12954051792621613,0.0,0.0,0.0,0.0006978165474720299,0.007738124113529921,-0.0,0.0,0.0,0.0,0.0032125150319188833,0.038561902940273285,-0.0018184236250817776,15994.0,12496.0,10837.0,17846.0,0.5816025137901306,0.3448224663734436,0.25391441583633423,0.7318325042724609,0.0,0.0,0.0,0.0,17617.0,10108.0,13485.0,15918.0,1.711821436882019,-0.00300227545792323,0.11982915071105596,-0.10623177463879743,-0.03191843628883362,0.0022141558583825827,0.0
234,5,0.0013129770522937179,-0.00017734708671923727,-0.0017891114111989737,0.002363980282098055,-0.0028543174266815186,-0.015856090933084488,-0.005171211436390877,-0.09822350740432739,0.008322855457663536,-0.05997638404369354,0.09042559564113617,-0.0437525175511837,0.0,0.0,0.0,0.0006978165474720299,0.007738124113529921,-0.0,0.0,0.0,0.0,-0.00439712917432189,0.05456790700554848,0.0032813793513923883,20966.0,13743.0,14691.0,19517.0,1.0238544940948486,0.4221515655517578,0.4862527847290039,0.8821752071380615,0.0,0.0,0.0,0.0,20568.0,14263.0,14194.0,19932.0,1.711821436882019,-0.004416176032890749,0.11969214277654791,-0.10588009027744376,-0.03191843628883362,0.0022141558583825827,0.0
239,5,0.001285615493543446,-0.00014030348393134773,-0.0016179470112547278,-0.002337800106033683,-0.005586959421634674,-0.026882171630859375,-0.005171211436390877,-0.09822350740432739,0.008322855457663536,-0.05997638404369354,0.09042559564113617,-0.0437525175511837,0.0,0.0,0.0,0.0031297632958739996,0.003986450377851725,-0.0,0.0,0.0,0.0,-0.00439712917432189,0.05456790700554848,0.0032813793513923883,20966.0,13743.0,14691.0,19517.0,1.0238544940948486,0.4221515655517578,0.4862527847290039,0.8821752071380615,0.0,0.0,0.0,0.0,20568.0,14263.0,14194.0,19932.0,1.6765753030776978,-0.005367579941379943,0.1181998966249944,-0.10546262237326207,-0.01610490120947361,0.00972616858780384,0.0
244,5,0.0008706513326615095,-0.00015060156874824315,-0.0008257277077063918,-0.05073081701993942,-0.0009990131948143244,-0.10581918805837631,-0.0061137196607887745,-0.09780203551054001,0.008123544044792652,-0.1788291186094284,-0.1935071349143982,0.03626107797026634,0.0,0.0,0.0,0.0031297632958739996,0.003986450377851725,-0.0,0.0,0.0,0.0,0.0029709478840231895,0.03352143615484238,8.077159873209894e-05,16539.0,11532.0,12791.0,16390.0,0.6240156888961792,0.2903328239917755,0.3623714745044708,0.6122993230819702,0.0,0.0,0.0,0.0,16450.0,11878.0,11450.0,17192.0,1.6765753030776978,-0.0066617361854959,0.11887136912666203,-0.10521731230740057,-0.01610490120947361,0.00972616858780384,0.0
249,5,0.0012534074485301971,-4.290755532565527e-05,-0.0012502373429015279,0.025638408958911896,-0.013322887942194939,0.008613478392362595,-0.0061137196607887745,-0.09780203551054001,0.008123544044792652,-0.1788291186094284,-0.1935071349143982,0.03626107797026634,0.0,0.0,0.0,0.000748964783269912,-0.036652643233537674,-0.0,0.0,0.0,0.0,0.0029709478840231895,0.03352143615484238,8.077159873209894e-05,16539.0,11532.0,12791.0,16390.0,0.6240156888961792,0.2903328239917755,0.3623714745044708,0.6122993230819702,0.0,0.0,0.0,0.0,16450.0,11878.0,11450.0,17192.0,2.1000077724456787,-0.008834750371471032,0.112078684351749,-0.10597555116630715,0.18543033301830292,0.0029153507202863693,0.0
254,5,0.001134534482844174,-9.90570606518304e-06,-0.0009371339110657573,-0.004009392578154802,-0.009289377368986607,-0.03412701562047005,-0.0061137196607887745,-0.09780203551054001,0.008123544044792652,-0.1788291186094284,-0.1935071349143982,0.03626107797026634,0.0,0.0,0.0,0.000748964783269912,-0.036652643233537674,-0.0,0.0,0.0,0.0,0.0029709478840231895,0.03352143615484238,8.077159873209894e-05,16539.0,11532.0,12791.0,16390.0,0.6240156888961792,0.2903328239917755,0.3623714745044708,0.6122993230819702,0.0,0.0,0.0,0.0,16450.0,11878.0,11450.0,17192.0,2.1000077724456787,-0.011542722766953258,0.10670792311124053,-0.10550115787337265,0.18543033301830292,0.0029153507202863693,0.0
259,5,0.0010498844785615802,6.264718103921041e-05,-0.0007230429910123348,-0.011761754751205444,-0.01242209691554308,-0.03934171795845032,-0.008783070370554924,-0.09200853854417801,0.008073307573795319,-0.24366982281208038,-0.694059431552887,-0.0820474773645401,0.0,0.0,0.0,0.014165226370096207,-0.008895588107407093,-0.0,0.0,0.0,0.0,0.00739742536097765,0.014957386068999767,0.00017673427646514028,14143.0,12466.0,13227.0,15316.0,0.4486677050590515,0.3430391550064087,0.38921433687210083,0.530900239944458,0.0,0.0,0.0,0.0,13279.0,13013.0,13538.0,14876.0,1.7872951030731201,-0.013080210049875082,0.10080551806076014,-0.10522356210571772,0.038306593894958496,0.04692474752664566,0.0
265,5,0.0009470689110457897,9.512888209428638e-05,-0.0005307644605636597,-0.017042571678757668,-0.008866642601788044,-0.038810111582279205,-0.008783070370554924,-0.09200853854417801,0.008073307573795319,-0.24366982281208038,-0.694059431552887,-0.0820474773645401,0.0,0.0,0.0,0.014165226370096207,-0.008895588107407093,-0.0,0.0,0.0,0.0,0.00739742536097765,0.014957386068999767,0.00017673427646514028,14143.0,12466.0,13227.0,15316.0,0.4486677050590515,0.3430391550064087,0.38921433687210083,0.530900239944458,0.0,0.0,0.0,0.0,13279.0,13013.0,13538.0,14876.0,1.7872951030731201,-0.011955211619236954,0.0950369938914344,-0.10575959444667393,0.038306593894958496,0.04692474752664566,0.0
270,5,0.0007894464652054012,0.00014824092795606703,-0.0003065674100071192,-0.02573172189295292,-0.00992010347545147,-0.04242769256234169,-0.010108769871294498,-0.08458682894706726,0.008172768168151379,-0.1343345046043396,-1.0978435277938843,0.042588841170072556,0.0,0.0,0.0,0.010089493356645107,-0.013484549708664417,-0.0,0.0,0.0,0.0,0.007105724420398474,-0.0023618426639586687,0.0011660100426524878,13501.0,12924.0,14735.0,13558.0,0.40658465027809143,0.3704467713832855,0.48931220173835754,0.41023167967796326,0.0,0.0,0.0,0.0,12940.0,13691.0,15148.0,12877.0,1.80582857131958,-0.012631291261467028,0.08826295909966136,-0.10555038294706326,0.05867182835936546,0.03377077728509903,0.0
275,5,0.0006628099363297224,0.00016247306484729052,-0.0001682794390944764,-0.025489071384072304,-0.0056758965365588665,-0.03356563299894333,-0.010108769871294498,-0.08458682894706726,0.008172768168151379,-0.1343345046043396,-1.0978435277938843,0.042588841170072556,0.0,0.0,0.0,0.010089493356645107,-0.013484549708664417,-0.0,0.0,0.0,0.0,0.007105724420398474,-0.0023618426639586687,0.0011660100426524878,13501.0,12924.0,14735.0,13558.0,0.40658465027809143,0.3704467713832855,0.48931220173835754,0.41023167967796326,0.0,0.0,0.0,0.0,12940.0,13691.0,15148.0,12877.0,1.80582857131958,-0.012938277354174129,0.08086560643854802,-0.10577529725244464,0.05867182835936546,0.03377077728509903,0.0
280,5,0.0004498706548474729,0.00017952208872884512,0.00012808818428311497,-0.03574834391474724,-0.004316241946071386,-0.04899036884307861,-0.010776056908071041,-0.07448679953813553,0.008083461783826351,-0.005903494078665972,-1.4357362985610962,-0.07660482078790665,0.0,0.0,0.0,0.006380916573107243,-0.02034376561641693,-0.0,0.0,0.0,0.0,0.005832172464579344,-0.028072016313672066,0.0010791770182549953,12546.0,17039.0,16951.0,13875.0,0.34772932529449463,0.6643111705780029,0.6529050469398499,0.43259939551353455,0.0,0.0,0.0,0.0,12450.0,17215.0,17247.0,13364.0,1.87501859664917,-0.014630593274247846,0.07157297951772879,-0.10501883779050758,0.0919073075056076,0.022176440805196762,0.0
285,5,6.072180258342996e-05,0.00016161167877726257,0.0005988355842418969,-0.06099719926714897,0.0004227524914313108,-0.07608583569526672,-0.010776056908071041,-0.07448679953813553,0.008083461783826351,-0.005903494078665972,-1.4357362985610962,-0.07660482078790665,0.0,0.0,0.0,0.006380916573107243,-0.02034376561641693,-0.0,0.0,0.0,0.0,0.005832172464579344,-0.028072016313672066,0.0010791770182549953,12546.0,17039.0,16951.0,13875.0,0.34772932529449463,0.6643111705780029,0.6529050469398499,0.43259939551353455,0.0,0.0,0.0,0.0,12450.0,17215.0,17247.0,13364.0,1.87501859664917,-0.013332408542113056,0.06824153913327076,-0.1044029710037741,0.0919073075056076,0.022176440805196762,0.0
290,5,0.00038657733239233494,0.00014470942551270127,4.105848347535357e-05,0.0147037822753191,0.002197371097281575,0.036498915404081345,-0.010227995924651623,-0.056958574801683426,0.007952517829835415,0.15557196736335754,-1.4753063917160034,0.0064031570218503475,0.0,0.0,0.0,0.006380916573107243,-0.02034376561641693,-0.0,0.0,0.0,0.0,0.0014259034069254994,-0.027780115604400635,-0.00034035660792142153,11983.0,15929.0,15846.0,12475.0,0.3152223229408264,0.5766620635986328,0.5703771114349365,0.3435671329498291,0.0,0.0,0.0,0.0,12040.0,15433.0,16333.0,12093.0,1.87501859664917,-0.014447969471064031,0.06066983473273153,-0.10582486388382958,0.0919073075056076,0.022176440805196762,0.0
295,5,0.00033617409644648433,0.0001203285573865287,5.1552757213357836e-05,-0.00016687314200680703,0.0038046524859964848,0.013340254314243793,-0.010227995924651623,-0.056958574801683426,0.007952517829835415,0.15557196736335754,-1.4753063917160034,0.0064031570218503475,0.0,0.0,0.0,-0.0022567736450582743,0.013359892182052135,-0.0,0.0,0.0,0.0,0.0014259034069254994,-0.027780115604400635,-0.00034035660792142153,11983.0,15929.0,15846.0,12475.0,0.3152223229408264,0.5766620635986328,0.5703771114349365,0.3435671329498291,0.0,0.0,0.0,0.0,12040.0,15433.0,16333.0,12093.0,1.7799113988876343,-0.013850233358012795,0.05620425052855267,-0.10571232702975221,-0.0572979673743248,-0.007445506285876036,0.0
300,5,0.0003045155026484281,9.239723294740543e-05,5.052450796938501e-05,-0.0038657807745039463,0.004873620346188545,0.00545949162915349,-0.008745965547859669,-0.046084269881248474,0.0077749257907271385,0.23938927054405212,-1.181449055671692,-0.03155732899904251,0.0,0.0,0.0,-0.0022567736450582743,0.013359892182052135,-0.0,0.0,0.0,0.0,-0.002306960988789797,-0.019038023427128792,0.0008570275385864079,11983.0,15929.0,15846.0,12475.0,0.3152223229408264,0.5766620635986328,0.5703771114349365,0.3435671329498291,0.0,0.0,0.0,0.0,12766.0,15401.0,15960.0,12220.0,1.7799113988876343,-0.013229181995839962,0.05285001440730834,-0.106026681363668,-0.0572979673743248,-0.007445506285876036,0.0
305,5,0.00027106376364827156,6.443566962843761e-05,8.9252589532407e-06,-0.00556052103638649,0.005304835736751556,0.007175706326961517,-0.008745965547859669,-0.046084269881248474,0.0077749257907271385,0.23938927054405212,-1.181449055671692,-0.03155732899904251,0.0,0.0,0.0,-0.005689781624823809,-0.003149960655719042,-0.0,0.0,0.0,0.0,-0.002306960988789797,-0.019038023427128792,0.0008570275385864079,11983.0,15929.0,15846.0,12475.0,0.3152223229408264,0.5766620635986328,0.5703771114349365,0.3435671329498291,0.0,0.0,0.0,0.0,12766.0,15401.0,15960.0,12220.0,1.6848416328430176,-0.01105553294024521,0.052036556422530994,-0.10659676263405728,0.012788169085979462,-0.01776883564889431,0.0
310,5,0.00032548903254792094,4.438276300788857e-05,-9.071370004676282e-05,0.0043068234808743,0.004528283141553402,0.014826957136392593,-0.002722836332395673,-0.031046567484736443,0.007320222910493612,0.3424798250198364,-0.10211194306612015,-0.015606044791638851,0.0,0.0,0.0,-0.005689781624823809,-0.003149960655719042,-0.0,0.0,0.0,0.0,-0.006546164397150278,0.006467116065323353,-0.00042600309825502336,14945.0,14037.0,13000.0,14296.0,0.5041969418525696,0.4415747821331024,0.3751591145992279,0.458980530500412,0.0,0.0,0.0,0.0,13692.0,15505.0,14821.0,13647.0,1.6848416328430176,-0.00859216413328705,0.05159350976419086,-0.10725967877357105,0.012788169085979462,-0.01776883564889431,0.0
315,5,0.0003629986895248294,4.7328529035439715e-05,-0.00019856721337419003,0.006223888602107763,0.0014578213449567556,0.01887320540845394,-0.002722836332395673,-0.031046567484736443,0.007320222910493612,0.3424798250198364,-0.10211194306612015,-0.015606044791638851,0.0,0.0,0.0,-0.00533696822822094,0.004409012850373983,-0.0,0.0,0.0,0.0,-0.006546164397150278,0.006467116065323353,-0.00042600309825502336,14945.0,14037.0,13000.0,14296.0,0.5041969418525696,0.4415747821331024,0.3751591145992279,0.458980530500412,0.0,0.0,0.0,0.0,13692.0,15505.0,14821.0,13647.0,1.6919889450073242,-0.00799056340463522,0.051837182659725874,-0.10704982499431294,-0.017975591123104095,-0.016737744212150574,0.0
320,5,0.00043719957466237247,2.2879743482917547e-05,-0.00025115328026004136,0.011393659748136997,0.003516982775181532,0.013859610073268414,-0.002722836332395673,-0.031046567484736443,0.007320222910493612,0.3424798250198364,-0.10211194306612015,-0.015606044791638851,0.0,0.0,0.0,-0.00533696822822094,0.004409012850373983,-0.0,0.0,0.0,0.0,-0.007179485633969307,0.016414852812886238,7.415613799821585e-05,15276.0,12985.0,11919.0,14473.0,0.527981698513031,0.37418287992477417,0.3116007447242737,0.4710763096809387,0.0,0.0,0.0,0.0,15635.0,13339.0,12821.0,14383.0,1.6919889450073242,-0.009088583411182582,0.051331435893016766,-0.10724802941090195,-0.017975591123104095,-0.016737744212150574,0.0
325,5,0.0003090949612669647,2.8031943656969815e-05,-6.804325676057488e-05,-0.010815088637173176,0.0007885291124694049,-0.01642935909330845,-0.002722836332395673,-0.031046567484736443,0.007320222910493612,0.3424798250198364,-0.10211194306612015,-0.015606044791638851,0.0,0.0,0.0,-0.004023561254143715,0.010701346211135387,-0.0,0.0,0.0,0.0,-0.007179485633969307,0.016414852812886238,7.415613799821585e-05,15276.0,12985.0,11919.0,14473.0,0.527981698513031,0.37418287992477417,0.3116007447242737,0.4710763096809387,0.0,0.0,0.0,0.0,15635.0,13339.0,12821.0,14383.0,1.7516379356384277,-0.00933295757263311,0.05652561715411689,-0.10759165583542384,-0.045167166739702225,-0.013063554652035236,0.0
331,5,0.0006024431786499918,0.00011653941328404471,-0.0004709087370429188,0.03087574988603592,-0.010305484756827354,0.04177211597561836,0.002077879849821329,-0.03494817018508911,0.007243793923407793,-0.035100191831588745,0.28886929154396057,0.044559963047504425,0.0,0.0,0.0,-0.004023561254143715,0.010701346211135387,-0.0,0.0,0.0,0.0,-0.003156322054564953,0.020017698407173157,0.0017399827484041452,16013.0,11425.0,12804.0,14328.0,0.58304363489151,0.2845679819583893,0.3631869852542877,0.46119028329849243,0.0,0.0,0.0,0.0,15373.0,12649.0,11894.0,14683.0,1.7516379356384277,-0.00866150333308543,0.054848315335778317,-0.10683421381469897,-0.045167166739702225,-0.013063554652035236,0.0
336,5,0.0006024431786499918,0.00011653941328404471,-0.0004709087370429188,0.03087574988603592,-0.010305484756827354,0.04177211597561836,0.002077879849821329,-0.03494817018508911,0.007243793923407793,-0.035100191831588745,0.28886929154396057,0.044559963047504425,0.0,0.0,0.0,0.01085201371461153,0.02531779557466507,-0.0,0.0,0.0,0.0,-0.003156322054564953,0.020017698407173157,0.0017399827484041452,16013.0,11425.0,12804.0,14328.0,0.58304363489151,0.2845679819583893,0.3631869852542877,0.46119028329849243,0.0,0.0,0.0,0.0,15373.0,12649.0,11894.0,14683.0,1.9531563520431519,-0.00866150333308543,0.054848315335778317,-0.10683421381469897,-0.11913595348596573,0.039286233484745026,0.0
341,5,0.0006558406166732311,0.0003408034972380847,-0.000578206148929894,0.01125393994152546,-0.021047517657279968,0.021683357656002045,0.0007066496764309704,-0.03695109114050865,0.007213596720248461,-0.22578047215938568,-0.03922340273857117,-0.021612318232655525,0.0,0.0,0.0,0.01085201371461153,0.02531779557466507,-0.0,0.0,0.0,0.0,0.0014399741776287556,0.015338042750954628,-7.54275024519302e-05,14904.0,12680.0,12998.0,15161.0,0.5012556314468384,0.3557259142398834,0.37500515580177307,0.5196512937545776,0.0,0.0,0.0,0.0,15507.0,11796.0,12808.0,14585.0,1.9531563520431519,-0.005324483590331462,0.05506111390087163,-0.10605991764299759,-0.11913595348596573,0.039286233484745026,0.0
346,5,0.0006361939013004303,0.00043391113285906613,-0.0006297437357716262,0.0021439697593450546,-0.0195919219404459,0.014857852831482887,0.0007066496764309704,-0.03695109114050865,0.007213596720248461,-0.22578047215938568,-0.03922340273857117,-0.021612318232655525,0.0,0.0,0.0,0.02330314740538597,0.010172689333558083,-0.0,0.0,0.0,0.0,0.0014399741776287556,0.015338042750954628,-7.54275024519302e-05,14904.0,12680.0,12998.0,15161.0,0.5012556314468384,0.3557259142398834,0.37500515580177307,0.5196512937545776,0.0,0.0,0.0,0.0,15507.0,11796.0,12808.0,14585.0,1.8710201978683472,-0.0056700131136500674,0.05332199095100121,-0.10553037277607222,-0.04585014656186104,0.08080350607633591,0.0
351,5,0.0005838947836309671,0.0005190200172364712,-0.0006488049402832985,-0.00541830575093627,-0.018049834296107292,0.008230486884713173,0.0007066496764309704,-0.03695109114050865,0.007213596720248461,-0.22578047215938568,-0.03922340273857117,-0.021612318232655525,0.0,0.0,0.0,0.02330314740538597,0.010172689333558083,-0.0,0.0,0.0,0.0,0.0014399741776287556,0.015338042750954628,-7.54275024519302e-05,14904.0,12680.0,12998.0,15161.0,0.5012556314468384,0.3557259142398834,0.37500515580177307,0.5196512937545776,0.0,0.0,0.0,0.0,15507.0,11796.0,12808.0,14585.0,1.8710201978683472,-0.005425895622840127,0.05097208922588941,-0.1053586455014473,-0.04585014656186104,0.08080350607633591,0.0
356,5,0.0004881870117969811,0.0006040799198672175,-0.0006067648064345121,-0.01365225575864315,-0.017427120357751846,-0.0017526246374472976,-0.0014175995020195842,-0.03523334115743637,0.007261888589709997,-0.3001466989517212,-0.4945639967918396,-0.022273097187280655,0.0,0.0,0.0,0.020929818972945213,-0.0038948552682995796,-0.0,0.0,0.0,0.0,0.004862908273935318,0.0037460350431501865,0.0009463923634029925,14117.0,13186.0,14422.0,14170.0,0.4469160735607147,0.3866214454174042,0.46761229634284973,0.4504881203174591,0.0,0.0,0.0,0.0,14716.0,12729.0,13648.0,14731.0,1.8186322450637817,-0.008339825359557624,0.04668775688094985,-0.1047814732366917,0.01706443354487419,0.07054419815540314,0.0
361,5,0.0003412314399611205,0.000678833806887269,-0.0005078080575913191,-0.023095572367310524,-0.01594131998717785,-0.012575854547321796,-0.0014175995020195842,-0.03523334115743637,0.007261888589709997,-0.3001466989517212,-0.4945639967918396,-0.022273097187280655,0.0,0.0,0.0,0.020929818972945213,-0.0038948552682995796,-0.0,0.0,0.0,0.0,0.004862908273935318,0.0037460350431501865,0.0009463923634029925,14117.0,13186.0,14422.0,14170.0,0.4469160735607147,0.3866214454174042,0.46761229634284973,0.4504881203174591,0.0,0.0,0.0,0.0,14716.0,12729.0,13648.0,14731.0,1.8186322450637817,-0.007877979695645524,0.042892595261798554,-0.1048375286472859,0.01706443354487419,0.07054419815540314,0.0
366,5,0.00021627682144753635,0.0006982487975619733,-0.00037349420017562807,-0.024232782423496246,-0.00870632566511631,-0.02114800736308098,-0.004767516162246466,-0.027959255501627922,0.006591398734599352,-0.22567808628082275,-0.7598860263824463,-0.02630685642361641,0.0,0.0,0.0,0.0180005244910717,-0.018463464453816414,-0.0,0.0,0.0,0.0,0.009565702639520168,-0.0030150199308991432,-0.0013639637036249042,13505.0,14746.0,15120.0,15433.0,0.40681958198547363,0.4901214838027954,0.5166959166526794,0.5395193696022034,0.0,0.0,0.0,0.0,14012.0,14208.0,14967.0,15635.0,1.9039255380630493,-0.012667462857201855,0.03598790582789993,-0.10555658493777376,0.08468763530254364,0.06351862102746964,0.0
371,5,0.00017606942856218666,0.000704128120560199,-0.0004497118934523314,-0.01451799925416708,-0.004188047721982002,0.0006869225762784481,-0.004767516162246466,-0.027959255501627922,0.006591398734599352,-0.22567808628082275,-0.7598860263824463,-0.02630685642361641,0.0,0.0,0.0,0.0180005244910717,-0.018463464453816414,-0.0,0.0,0.0,0.0,0.009565702639520168,-0.0030150199308991432,-0.0013639637036249042,13505.0,14746.0,15120.0,15433.0,0.40681958198547363,0.4901214838027954,0.5166959166526794,0.5395193696022034,0.0,0.0,0.0,0.0,14012.0,14208.0,14967.0,15635.0,1.9039255380630493,-0.016105987635750205,0.029337509302611933,-0.10656268498599998,0.08468763530254364,0.06351862102746964,0.0
376,5,7.104401447577402e-05,0.0007171437609940767,-0.00040145718958228827,-0.018410250544548035,-0.003237095195800066,-0.005515798460692167,-0.005982693750411272,-0.021800467744469643,0.006870654411613941,-0.07395821064710617,-0.819773256778717,-0.036437589675188065,0.0,0.0,0.0,0.005944110918790102,-0.012474003247916698,-0.0,0.0,0.0,0.0,0.011132553219795227,-0.014176573604345322,0.0014205240877345204,13070.0,14379.0,16179.0,13879.0,0.37945419549942017,0.4646480083465576,0.5958274006843567,0.43109068274497986,0.0,0.0,0.0,0.0,11902.0,15850.0,16111.0,13892.0,1.7776342630386353,-0.01620697889097729,0.02479127853508364,-0.10651117398261749,0.05342951416969299,0.01958543434739113,0.0
381,5,-7.291648216778412e-05,0.0007457743631675839,-0.00031484884675592184,-0.02463935874402523,-0.00473051005974412,-0.012599320150911808,-0.005982693750411272,-0.021800467744469643,0.006870654411613941,-0.07395821064710617,-0.819773256778717,-0.036437589675188065,0.0,0.0,0.0,0.005944110918790102,-0.012474003247916698,-0.0,0.0,0.0,0.0,0.011132553219795227,-0.014176573604345322,0.0014205240877345204,13070.0,14379.0,16179.0,13879.0,0.37945419549942017,0.4646480083465576,0.5958274006843567,0.43109068274497986,0.0,0.0,0.0,0.0,11902.0,15850.0,16111.0,13892.0,1.7776342630386353,-0.014421891271254452,0.02176302253459944,-0.10605677875086379,0.05342951416969299,0.01958543434739113,0.0
386,5,-0.00026101828552782536,0.0008324129157699645,-0.00020005434635095298,-0.03242795914411545,-0.01228883396834135,-0.018815066665410995,-0.005910453852266073,-0.012767911888659,0.006511264014989138,0.11383441835641861,-0.6976539492607117,0.03350792080163956,0.0,0.0,0.0,0.006280967034399509,-0.020510351285338402,-0.0,0.0,0.0,0.0,0.005940121598541737,-0.022757399827241898,-6.162373756524175e-05,12795.0,15485.0,16334.0,13240.0,0.36266788840293884,0.5433588027954102,0.6078844666481018,0.39001432061195374,0.0,0.0,0.0,0.0,13634.0,14917.0,16631.0,12673.0,1.8769296407699585,-0.006716587336034982,0.02369808492359361,-0.10528436520097707,0.0927542895078659,0.021851330995559692,0.0
391,5,-0.00017226548516191542,0.0007935279863886535,-0.000453893473604694,-0.0023208484053611755,-0.00024933621170930564,0.022934669628739357,-0.005910453852266073,-0.012767911888659,0.006511264014989138,0.11383441835641861,-0.6976539492607117,0.03350792080163956,0.0,0.0,0.0,0.006280967034399509,-0.020510351285338402,-0.0,0.0,0.0,0.0,0.005940121598541737,-0.022757399827241898,-6.162373756524175e-05,12795.0,15485.0,16334.0,13240.0,0.36266788840293884,0.5433588027954102,0.6078844666481018,0.39001432061195374,0.0,0.0,0.0,0.0,13634.0,14917.0,16631.0,12673.0,1.8769296407699585,-0.0035849047501306038,0.022830927919410684,-0.10506213129425035,0.0927542895078659,0.021851330995559692,0.0
397,5,-0.0002106203610310331,0.0007712887017987669,-0.00045819245860911906,-0.005530925001949072,0.0025689788162708282,0.009689743630588055,-0.0042295255698263645,-0.00827831868082285,0.00660918140783906,0.2945311963558197,-0.355390340089798,-0.0773511454463005,0.0,0.0,0.0,0.0017312340205535293,-0.0024082937743514776,-0.0,0.0,0.0,0.0,-0.0019105024402961135,-0.014987476170063019,0.00011774196900660172,13042.0,15307.0,14619.0,13214.0,0.3777274489402771,0.5302682518959045,0.48121315240859985,0.38842546939849854,0.0,0.0,0.0,0.0,13030.0,15527.0,13862.0,13774.0,1.6554760932922363,-0.0011330960823832963,0.02219205250788009,-0.10569030845127453,0.00960689876228571,0.005312351975589991,0.0
402,5,-0.00022820739832241088,0.0007599134696647525,-0.00048562901793047786,-0.0043228138238191605,0.002392614260315895,0.007168285083025694,-0.0042295255698263645,-0.00827831868082285,0.00660918140783906,0.2945311963558197,-0.355390340089798,-0.0773511454463005,0.0,0.0,0.0,0.0017312340205535293,-0.0024082937743514776,-0.0,0.0,0.0,0.0,-0.0019105024402961135,-0.014987476170063019,0.00011774196900660172,13042.0,15307.0,14619.0,13214.0,0.3777274489402771,0.5302682518959045,0.48121315240859985,0.38842546939849854,0.0,0.0,0.0,0.0,13030.0,15527.0,13862.0,13774.0,1.6554760932922363,0.001050756270989952,0.022137451401456437,-0.10549426942659414,0.00960689876228571,0.005312351975589991,0.0
407,5,-0.0002604017499834299,0.0007131725433282554,-0.00044994783820584416,-0.00559245003387332,0.006565961055457592,-0.0014144270680844784,0.00017642434977460653,-0.006094730459153652,0.006446119863539934,0.4315454363822937,0.07144951820373535,0.07529299706220627,0.0,0.0,0.0,-0.0015390831977128983,-0.004317826125770807,-0.0,0.0,0.0,0.0,-0.005425089970231056,-0.006077334750443697,0.0011331825517117977,15082.0,14496.0,14974.0,13144.0,0.5139830708503723,0.4726606011390686,0.5062236785888672,0.3840622901916504,0.0,0.0,0.0,0.0,15357.0,14332.0,14499.0,13533.0,1.674562931060791,0.0024027994513143294,0.02185427298991932,-0.10611377868465027,0.0174227487295866,-0.0047771823592484,0.0
412,5,-0.00021026302420068532,0.0005869047599844635,-0.0005778011400252581,0.0037796692922711372,0.017778519541025162,0.014776628464460373,0.00017642434977460653,-0.006094730459153652,0.006446119863539934,0.4315454363822937,0.07144951820373535,0.07529299706220627,0.0,0.0,0.0,-0.0015390831977128983,-0.004317826125770807,-0.0,0.0,0.0,0.0,-0.005425089970231056,-0.006077334750443697,0.0011331825517117977,15082.0,14496.0,14974.0,13144.0,0.5139830708503723,0.4726606011390686,0.5062236785888672,0.3840622901916504,0.0,0.0,0.0,0.0,15357.0,14332.0,14499.0,13533.0,1.674562931060791,-0.0018874843234694511,0.02228502757794049,-0.10780888968182742,0.0174227487295866,-0.0047771823592484,0.0
417,5,-0.0004229216428939253,0.000743186566978693,-0.0002441170217934996,-0.024007167667150497,-0.01164240948855877,-0.03413144499063492,0.003580816788598895,-0.007874470204114914,0.006129162386059761,0.3783913850784302,0.3684321939945221,-0.06770140677690506,0.0,0.0,0.0,-0.019029978662729263,0.0030144043266773224,-0.0,0.0,0.0,0.0,-0.008523006923496723,0.011298038996756077,-0.0012914257822558284,14375.0,13935.0,11411.0,14493.0,0.4643496572971344,0.4348090589046478,0.2838280498981476,0.4724893271923065,0.0,0.0,0.0,0.0,14805.0,13365.0,11880.0,14220.0,1.7982628345489502,0.006180730539676978,0.026949670907248844,-0.10631634645963643,-0.013059522025287151,-0.06342381983995438,0.0
422,5,-0.000251301855314523,0.0007218703394755721,-0.0005736818420700729,0.010991509072482586,-0.002099021803587675,0.025895196944475174,0.003580816788598895,-0.007874470204114914,0.006129162386059761,0.3783913850784302,0.3684321939945221,-0.06770140677690506,0.0,0.0,0.0,-0.019029978662729263,0.0030144043266773224,-0.0,0.0,0.0,0.0,-0.008523006923496723,0.011298038996756077,-0.0012914257822558284,14375.0,13935.0,11411.0,14493.0,0.4643496572971344,0.4348090589046478,0.2838280498981476,0.4724893271923065,0.0,0.0,0.0,0.0,14805.0,13365.0,11880.0,14220.0,1.7982628345489502,0.006920780719372928,0.028793356697927305,-0.1059586903142286,-0.013059522025287151,-0.06342381983995438,0.0
427,5,-0.00027243149816058576,0.0007235194789245725,-0.0006270744488574564,0.001861044904217124,-0.0010375009151175618,0.01676519773900509,0.003580816788598895,-0.007874470204114914,0.006129162386059761,0.3783913850784302,0.3684321939945221,-0.06770140677690506,0.0,0.0,0.0,0.003683496965095401,0.009525774046778679,-0.0,0.0,0.0,0.0,-0.008523006923496723,0.011298038996756077,-0.0012914257822558284,14375.0,13935.0,11411.0,14493.0,0.4643496572971344,0.4348090589046478,0.2838280498981476,0.4724893271923065,0.0,0.0,0.0,0.0,15119.0,12736.0,12893.0,13867.0,1.7373342514038086,0.00705578252740125,0.029783587011391822,-0.10580403871672987,-0.039877329021692276,0.011861796490848064,0.0
432,5,-0.000327672139974311,0.00073550472734496,-0.0006366175948642194,-0.005884459242224693,-0.001853233901783824,0.0078512541949749,0.0070638395845890045,-0.01225246861577034,0.006188667379319668,0.15982650220394135,0.3565191626548767,0.03951077535748482,0.0,0.0,0.0,0.003683496965095401,0.009525774046778679,-0.0,0.0,0.0,0.0,-0.007115460000932217,0.010852731764316559,-0.00040548850665800273,15522.0,12497.0,12944.0,13585.0,0.5461027026176453,0.3448578715324402,0.37168675661087036,0.4119156002998352,0.0,0.0,0.0,0.0,15119.0,12736.0,12893.0,13867.0,1.7373342514038086,0.005971905434055968,0.02966644941780365,-0.10610093674023269,-0.039877329021692276,0.011861796490848064,0.0
437,5,-0.0004033055156469345,0.0008029202581383288,-0.0006406380562111735,-0.01142978947609663,-0.008831157349050045,0.003622953314334154,0.0070638395845890045,-0.01225246861577034,0.006188667379319668,0.15982650220394135,0.3565191626548767,0.03951077535748482,0.0,0.0,0.0,0.003503700951114297,-0.0058290669694542885,-0.0,0.0,0.0,0.0,-0.007115460000932217,0.010852731764316559,-0.00040548850665800273,15522.0,12497.0,12944.0,13585.0,0.5461027026176453,0.3448578715324402,0.37168675661087036,0.4119156002998352,0.0,0.0,0.0,0.0,15119.0,12736.0,12893.0,13867.0,1.6965053081512451,0.004834964061352403,0.02878283840529271,-0.10591435809915808,0.023828737437725067,0.01101765502244234,0.0
442,5,-0.0005031887558288872,0.0008282524649985135,-0.0005700869951397181,-0.016557905822992325,-0.006572323851287365,-0.0070169405080378056,0.007206440437585115,-0.014146477915346622,0.006041683256626129,-0.1154462993144989,0.0945899561047554,-0.029005106538534164,0.0,0.0,0.0,0.003503700951114297,-0.0058290669694542885,-0.0,0.0,0.0,0.0,0.005785943940281868,0.0025992016308009624,0.0007763097528368235,13943.0,13040.0,14524.0,14159.0,0.4352952539920807,0.3776256740093231,0.4746551215648651,0.4497582018375397,0.0,0.0,0.0,0.0,14806.0,14032.0,13426.0,14323.0,1.6965053081512451,0.0006379162564739564,0.026533876186606874,-0.10620245608433859,0.023828737437725067,0.01101765502244234,0.0
447,5,-0.0006466006161645055,0.0008676347206346691,-0.0005516204982995987,-0.02383258007466793,-0.007354799658060074,-0.005022761411964893,0.007206440437585115,-0.014146477915346622,0.006041683256626129,-0.1154462993144989,0.0945899561047554,-0.029005106538534164,0.0,0.0,0.0,0.008689407259225845,-0.01482513640075922,-0.0,0.0,0.0,0.0,0.005785943940281868,0.0025992016308009624,0.0007763097528368235,13943.0,13040.0,14524.0,14159.0,0.4352952539920807,0.3776256740093231,0.4746551215648651,0.4497582018375397,0.0,0.0,0.0,0.0,14806.0,14032.0,13426.0,14323.0,1.8146765232086182,-0.003661524948624342,0.02596111121729428,-0.1071397927347557,0.0648212656378746,0.029227253049612045,0.0
452,5,-0.0006790909101255238,0.0008898419910110533,-0.0005620457231998444,-0.013431869447231293,-0.005606794264167547,-0.0007580728852190077,0.004346491768956184,-0.013614248484373093,0.0060041616670787334,-0.400319904088974,-0.24436144530773163,0.01374071929603815,0.0,0.0,0.0,0.008689407259225845,-0.01482513640075922,-0.0,0.0,0.0,0.0,0.01270566787570715,-0.012147372588515282,1.8885129975387827e-05,11943.0,13769.0,15437.0,13706.0,0.31299683451652527,0.4238995611667633,0.5398283004760742,0.4197806417942047,0.0,0.0,0.0,0.0,13400.0,13280.0,14808.0,14166.0,1.8146765232086182,-0.010769144508370609,0.020277582300946832,-0.10737303572296836,0.0648212656378746,0.029227253049612045,0.0
457,5,-0.000934671494178474,0.0010133686009794474,-0.00019357725977897644,-0.03604241833090782,-0.017065905034542084,-0.04451944679021835,0.004346491768956184,-0.013614248484373093,0.0060041616670787334,-0.400319904088974,-0.24436144530773163,0.01374071929603815,0.0,0.0,0.0,0.007839865051209927,-0.012566541321575642,-0.0,0.0,0.0,0.0,0.01270566787570715,-0.012147372588515282,1.8885129975387827e-05,11943.0,13769.0,15437.0,13706.0,0.31299683451652527,0.4238995611667633,0.5398283004760742,0.4197806417942047,0.0,0.0,0.0,0.0,13400.0,13280.0,14808.0,14166.0,1.7856696844100952,-0.012685635043200845,0.017041884672943527,-0.10680608237168464,0.054068464785814285,0.025948375463485718,0.0
462,5,-0.0009835436940193176,0.001133815967477858,-0.0003537778393365443,-0.020281629636883736,-0.02128005214035511,0.0014162909938022494,5.654529741150327e-05,-0.010669278912246227,0.005853460170328617,-0.6032553911209106,-0.5399786233901978,0.0005388251156546175,0.0,0.0,0.0,0.007839865051209927,-0.012566541321575642,-0.0,0.0,0.0,0.0,0.014948821626603603,-0.019900070503354073,0.0009486849885433912,12029.0,14353.0,16527.0,13568.0,0.31783175468444824,0.462887704372406,0.6231210827827454,0.4108359217643738,0.0,0.0,0.0,0.0,12009.0,13639.0,15946.0,13182.0,1.7856696844100952,-0.008284917480250727,0.0190653007014166,-0.10519984009588655,0.054068464785814285,0.025948375463485718,0.0
