timestamp,dt,pos_x,pos_y,pos_z,vel_x,vel_y,vel_z,roll,pitch,yaw,agv_x,agv_y,agv_z,x_ref,y_ref,z_ref,roll_ref,pitch_ref,yaw_ref,x_vel_ref,y_vel_ref,z_vel_ref,x_torque,y_torque,z_torque,w0,w1,w2,w3,u0,u1,u2,u3,m0req,m1req,m2req,m3req,thrust0,thrust1,thrust2,thrust3,thrust_ref,roll_vicon,pitch_vicon,yaw_vicon,acc_x,acc_y,acc_z,roll_received,pitch_received,yaw_received
5,5,0.0,0.0,0.0,-9.559318277752027e-05,-0.0002225929929409176,0.005015791859477758,0.017198652029037476,-0.19479599595069885,0.009819450788199902,0.0,0.0,0.0,0.0,0.0,0.0,0.0002127226471202448,-9.135434083873406e-05,-0.0,0.0,0.0,0.0,-0.003434057580307126,0.058403633534908295,0.0010116720804944634,1495.0,1495.0,1495.0,1495.0,0.0,0.0,0.0,0.0,0.0,0.0,0.0,0.0,0.0,0.0,0.0,0.0,1.6284600496292114,0.052859221212225846,0.43418109703999436,0.08389950669329985,0.0003584744408726692,0.0008347237017005682,0.0,-0.0,-0.0,0.0
29,24,0.0,0.0,0.0,0.0016358719440177083,-0.0006484674522653222,-0.0019459733739495277,0.017198652029037476,-0.19479599595069885,0.009819450788199902,0.0,0.0,0.0,0.0,0.0,0.0,0.0002127226471202448,-9.135434083873406e-05,-0.0,0.0,0.0,0.0,-0.003434057580307126,0.058403633534908295,0.0010116720804944634,1495.0,1495.0,1495.0,1495.0,0.0,0.0,0.0,0.0,0.0,0.0,0.0,0.0,0.0,0.0,0.0,0.0,1.6284600496292114,0.053120325258572645,0.43464920614737557,0.08410924832389215,0.0003584744408726692,0.0008347237017005682,0.0,-0.0,-0.0,0.0
34,5,0.0,0.0,0.0,0.0016358719440177083,-0.0006484674522653222,-0.0019459733739495277,0.017198652029037476,-0.19479599595069885,0.009819450788199902,0.0,0.0,0.0,0.0,0.0,0.0,0.0007981861708685756,0.0015488958451896906,-0.0,0.0,0.0,0.0,-0.0034114348236471415,0.058473892509937286,0.0009055244154296815,1495.0,1495.0,1495.0,1495.0,0.0,0.0,0.0,0.0,0.0,0.0,0.0,0.0,0.0,0.0,0.0,0.0,1.6436402797698975,0.05197879052867147,0.4333267360328041,0.08442521886089466,-0.006134519819170237,0.002431752858683467,0.0,0.0002127226471202448,-9.135434083873406e-05,0.0
39,5,0.0,0.0,0.0,0.0016358719440177083,-0.0006484674522653222,-0.0019459733739495277,0.017198652029037476,-0.19479599595069885,0.009819450788199902,0.0,0.0,0.0,0.0,0.0,0.0,0.0007981861708685756,0.0015488958451896906,-0.0,0.0,0.0,0.0,-0.0034114348236471415,0.058473892509937286,0.0009055244154296815,1495.0,1495.0,1495.0,1495.0,0.0,0.0,0.0,0.0,0.0,0.0,0.0,0.0,0.0,0.0,0.0,0.0,1.6436402797698975,0.05197879052867147,0.4333267360328041,0.08442521886089466,-0.006134519819170237,0.002431752858683467,0.0,0.0002127226471202448,-9.135434083873406e-05,0.0
44,5,0.0,0.0,0.0,0.003739219391718507,-0.0014049900928512216,-0.005793028511106968,0.017204999923706055,-0.19478224217891693,0.009812919422984123,0.0,0.0,0.0,0.0,0.0,0.0,0.001705898204818368,0.003492356278002262,-0.0,0.0,0.0,0.0,-0.0034177168272435665,0.058511845767498016,0.0011146352626383305,17654.0,7939.0,8624.0,16620.0,0.7154952883720398,0.1283181607723236,0.15419280529022217,0.6304538249969482,0.0,0.0,0.0,0.0,0.0,0.0,0.0,0.0,1.666261911392212,0.05332082964031943,0.4348384532790797,0.08395487051892479,-0.014022072777152061,0.005268712993711233,0.0,0.0002127226471202448,-9.135434083873406e-05,0.0
60,16,8.162741323758382e-06,9.903574209602084e-07,-1.816546318877954e-05,0.003739219391718507,-0.0014049900928512216,-0.005793028511106968,0.017204999923706055,-0.19478224217891693,0.009812919422984123,0.0,0.0,0.0,0.0,0.0,0.0,0.001705898204818368,0.003492356278002262,-0.0,0.0,0.0,0.0,-0.0034177168272435665,0.058511845767498016,0.0011146352626383305,17654.0,7939.0,8624.0,16620.0,0.7154952883720398,0.1283181607723236,0.15419280529022217,0.6304538249969482,0.0,0.0,0.0,0.0,0.0,0.0,0.0,0.0,1.666261911392212,0.053267837490320366,0.4353969516832611,0.08385569893876323,-0.014022072777152061,0.005268712993711233,0.0,0.0002127226471202448,-9.135434083873406e-05,0.0
65,5,-3.844952516374178e-06,1.4090512195252813e-05,-2.197384492319543e-05,5.476445585372858e-05,-0.002134014619514346,-0.0018602055497467518,0.017184246331453323,-0.19478777050971985,0.009824798442423344,0.0,0.0,0.0,0.0,0.0,0.0,0.002645714208483696,4.6396708057727665e-05,-0.0,0.0,0.0,0.0,-0.0032435436733067036,0.05891266092658043,0.0009213337325491011,17647.0,8120.0,8552.0,16770.0,0.714915931224823,0.13491415977478027,0.1513572335243225,0.6424528956413269,0.0,0.0,0.0,0.0,0.0,0.0,0.0,0.0,1.6476550102233887,0.05270894663194543,0.43419939713373773,0.08401174055138914,-0.00018420601554680616,0.008080101571977139,0.0,0.0007981861708685756,0.0015488958451896906,0.0
72,7,-1.0381540960224811e-05,1.341135202892474e-06,-3.1475148716708645e-05,-0.0007624848512932658,0.0006763193523511291,0.00039607437793165445,0.017184246331453323,-0.19478777050971985,0.009824798442423344,0.0,0.0,0.0,0.0,0.0,0.0,0.002645714208483696,4.6396708057727665e-05,-0.0,0.0,0.0,0.0,-0.0032435436733067036,0.05891266092658043,0.0009213337325491011,17647.0,8120.0,8552.0,16770.0,0.714915931224823,0.13491415977478027,0.1513572335243225,0.6424528956413269,0.0,0.0,0.0,0.0,0.0,0.0,0.0,0.0,1.6476550102233887,0.05258785494295134,0.4339572758845947,0.08420592438216824,-0.00018420601554680616,0.008080101571977139,0.0,0.0007981861708685756,0.0015488958451896906,0.0
77,5,-1.0381540960224811e-05,1.341135202892474e-06,-3.1475148716708645e-05,-0.0007624848512932658,0.0006763193523511291,0.00039607437793165445,0.017191043123602867,-0.1947641670703888,0.00981587078422308,0.0,0.0,0.0,0.0,0.0,0.0,0.002645714208483696,4.6396708057727665e-05,-0.0,0.0,0.0,0.0,-0.0031073789577931166,0.059508852660655975,0.0009556544828228652,17757.0,8140.0,8679.0,16863.0,0.7242419719696045,0.13566631078720093,0.15638282895088196,0.6499708294868469,0.0,0.0,0.0,0.0,0.0,0.0,0.0,0.0,1.6476550102233887,0.05258785494295134,0.4339572758845947,0.08420592438216824,-0.00018420601554680616,0.008080101571977139,0.0,0.001705898204818368,0.003492356278002262,0.0
83,5,-5.876197974430397e-06,-3.267263537054532e-06,-2.3545890144305304e-06,-0.0007624848512932658,0.0006763193523511291,0.00039607437793165445,0.017191043123602867,-0.1947641670703888,0.00981587078422308,0.0,0.0,0.0,0.0,0.0,0.0,-0.0008337931940332055,-0.00073971290839836,-0.0,0.0,0.0,0.0,-0.0031073789577931166,0.059508852660655975,0.0009556544828228652,17757.0,8140.0,8679.0,16863.0,0.7242419719696045,0.13566631078720093,0.15638282895088196,0.6499708294868469,0.0,0.0,0.0,0.0,0.0,0.0,0.0,0.0,1.6362214088439941,0.05342839156827829,0.43559092708272373,0.08397388848094633,0.0029164664447307587,-0.0025287673342972994,0.0,0.001705898204818368,0.003492356278002262,0.0
88,5,-5.876197974430397e-06,-3.267263537054532e-06,-2.3545890144305304e-06,-0.0007624848512932658,0.0006763193523511291,0.00039607437793165445,0.017191043123602867,-0.1947641670703888,0.00981587078422308,0.0,0.0,0.0,0.0,0.0,0.0,-0.0008337931940332055,-0.00073971290839836,-0.0,0.0,0.0,0.0,-0.0031073789577931166,0.059508852660655975,0.0009556544828228652,17757.0,8140.0,8679.0,16863.0,0.7242419719696045,0.13566631078720093,0.15638282895088196,0.6499708294868469,0.0,0.0,0.0,0.0,0.0,0.0,0.0,0.0,1.6362214088439941,0.05342839156827829,0.43559092708272373,0.08397388848094633,0.0029164664447307587,-0.0025287673342972994,0.0,0.001705898204818368,0.003492356278002262,0.0
93,5,2.7427478244135273e-07,-8.226939826272428e-06,-1.1037811418646015e-05,0.00043306281440891325,0.0008656888967379928,0.0012004163581877947,0.017204273492097855,-0.19470743834972382,0.009808072820305824,0.0,0.0,0.0,0.0,0.0,0.0,-0.00108564633410424,0.0004123910330235958,-0.0,0.0,0.0,0.0,-0.002894334029406309,0.058483343571424484,0.000937854521907866,17631.0,8126.0,8688.0,16766.0,0.7135829329490662,0.135163813829422,0.15675824880599976,0.6421500444412231,0.0,0.0,0.0,0.0,0.0,0.0,0.0,0.0,1.6357089281082153,0.05326439352493829,0.4348731160098954,0.0839025608370428,-0.0016254247166216373,-0.003291567787528038,0.0,0.002645714208483696,4.6396708057727665e-05,0.0
102,10,8.47004139359342e-06,7.909095529612387e-07,-2.0222561943228357e-05,0.0011567171895876527,-0.0007358663715422153,0.001582336612045765,0.017204273492097855,-0.19470743834972382,0.009808072820305824,0.0,0.0,0.0,0.0,0.0,0.0,-0.00108564633410424,0.0004123910330235958,-0.0,0.0,0.0,0.0,-0.002894334029406309,0.058483343571424484,0.000937854521907866,17631.0,8126.0,8688.0,16766.0,0.7135829329490662,0.135163813829422,0.15675824880599976,0.6421500444412231,0.0,0.0,0.0,0.0,0.0,0.0,0.0,0.0,1.6357089281082153,0.05282557513799182,0.4346515936835839,0.0841125341414876,-0.0016254247166216373,-0.003291567787528038,0.0,0.002645714208483696,4.6396708057727665e-05,0.0
108,5,8.47004139359342e-06,7.909095529612387e-07,-2.0222561943228357e-05,0.0011567171895876527,-0.0007358663715422153,0.001582336612045765,0.01722276210784912,-0.1947103589773178,0.009832837618887424,0.0,0.0,0.0,0.0,0.0,0.0,-0.00108564633410424,0.0004123910330235958,-0.0,0.0,0.0,0.0,-0.0036303820088505745,0.05837545916438103,0.0010859026806429029,17654.0,8087.0,8610.0,16656.0,0.7155125141143799,0.1337292343378067,0.15366290509700775,0.6333167552947998,0.0,0.0,0.0,0.0,0.0,0.0,0.0,0.0,1.6357089281082153,0.05282557513799182,0.4346515936835839,0.0841125341414876,-0.0016254247166216373,-0.003291567787528038,0.0,-0.0008337931940332055,-0.00073971290839836,0.0
113,5,1.1980247109022457e-05,3.7705126487708185e-06,-1.8409185940981843e-05,0.0011567171895876527,-0.0007358663715422153,0.001582336612045765,0.01722276210784912,-0.1947103589773178,0.009832837618887424,0.0,0.0,0.0,0.0,0.0,0.0,0.000909318623598665,0.0011095574591308832,-0.0,0.0,0.0,0.0,-0.0036303820088505745,0.05837545916438103,0.0010859026806429029,17654.0,8087.0,8610.0,16656.0,0.7155125141143799,0.1337292343378067,0.15366290509700775,0.6333167552947998,0.0,0.0,0.0,0.0,0.0,0.0,0.0,0.0,1.6398056745529175,0.05318378648988003,0.4346030918931744,0.08385981295155324,-0.004384235013276339,0.002763865515589714,0.0,-0.0008337931940332055,-0.00073971290839836,0.0
118,5,1.1980247109022457e-05,3.7705126487708185e-06,-1.8409185940981843e-05,0.0011567171895876527,-0.0007358663715422153,0.001582336612045765,0.01722276210784912,-0.1947103589773178,0.009832837618887424,0.0,0.0,0.0,0.0,0.0,0.0,0.000909318623598665,0.0011095574591308832,-0.0,0.0,0.0,0.0,-0.0036303820088505745,0.05837545916438103,0.0010859026806429029,17654.0,8087.0,8610.0,16656.0,0.7155125141143799,0.1337292343378067,0.15366290509700775,0.6333167552947998,0.0,0.0,0.0,0.0,0.0,0.0,0.0,0.0,1.6398056745529175,0.05318378648988003,0.4346030918931744,0.08385981295155324,-0.004384235013276339,0.002763865515589714,0.0,-0.0008337931940332055,-0.00073971290839836,0.0
123,5,8.874161721905693e-06,6.249975285754772e-06,1.525883089925628e-05,0.0011567171895876527,-0.0007358663715422153,0.001582336612045765,0.017223458737134933,-0.19471807777881622,0.00983759667724371,0.0,0.0,0.0,0.0,0.0,0.0,0.0009146766387857497,0.0011144077870994806,-0.0,0.0,0.0,0.0,-0.0036259605549275875,0.05835670977830887,0.0010616270592436194,17645.0,8113.0,8593.0,16662.0,0.7147335410118103,0.134677454829216,0.15300209820270538,0.6338030695915222,0.0,0.0,0.0,0.0,0.0,0.0,0.0,0.0,1.6398545503616333,0.05410710278659109,0.43659351108198335,0.08359529327344811,-0.004386530723422766,0.0027939253486692905,0.0,-0.0008421568782068789,-0.000733435619622469,0.0
132,9,8.874161721905693e-06,6.249975285754772e-06,1.525883089925628e-05,0.0011567171895876527,-0.0007358663715422153,0.001582336612045765,0.017223458737134933,-0.19471807777881622,0.00983759667724371,0.0,0.0,0.0,0.0,0.0,0.0,0.0009191809804178774,0.0011101054260507226,-0.0,0.0,0.0,0.0,-0.00365290604531765,0.0587557815015316,0.0010291319340467453,17645.0,8113.0,8593.0,16662.0,0.7147335410118103,0.134677454829216,0.15300209820270538,0.6338030695915222,0.0,0.0,0.0,0.0,0.0,0.0,0.0,0.0,1.6398545503616333,0.05410710278659109,0.43659351108198335,0.08359529327344811,-0.004386530723422766,0.0027939253486692905,0.0,-0.00108564633410424,0.0004123910330235958,0.0
137,5,-2.556573463152745e-06,-6.09307608101517e-06,-7.841023943910841e-06,0.0011567171895876527,-0.0007358663715422153,0.001582336612045765,0.017223458737134933,-0.19471807777881622,0.00983759667724371,0.0,0.0,0.0,0.0,0.0,0.0,0.0009191809804178774,0.0011101054260507226,-0.0,0.0,0.0,0.0,-0.00365290604531765,0.0587557815015316,0.0010291319340467453,17645.0,8113.0,8593.0,16662.0,0.7147335410118103,0.134677454829216,0.15300209820270538,0.6338030695915222,0.0,0.0,0.0,0.0,0.0,0.0,0.0,0.0,1.6398545503616333,0.05327632910299345,0.4348641713283188,0.08394888074325597,-0.004386530723422766,0.0027939253486692905,0.0,-0.00108564633410424,0.0004123910330235958,0.0
142,5,-7.138804448914016e-06,-9.130463695328217e-06,-1.7260908862226643e-05,-8.718086610315368e-05,7.013994763838127e-05,0.0017633208772167563,0.017211340367794037,-0.194712296128273,0.009821492247283459,0.0,0.0,0.0,0.0,0.0,0.0,0.0008969722548499703,0.0010943544330075383,-0.0,0.0,0.0,0.0,-0.0036451329942792654,0.05884740874171257,0.0009416656685061753,17653.0,8089.0,8494.0,16707.0,0.7153796553611755,0.1337982565164566,0.14912785589694977,0.6374031901359558,0.0,0.0,0.0,0.0,0.0,0.0,0.0,0.0,1.6396121978759766,0.053051928841929746,0.43497117584911255,0.08398659373514865,-0.004323652479797602,0.002726017264649272,0.0,-0.00108564633410424,0.0004123910330235958,0.0
147,5,-7.138804448914016e-06,-9.130463695328217e-06,-1.7260908862226643e-05,-8.718086610315368e-05,7.013994763838127e-05,0.0017633208772167563,0.017211340367794037,-0.194712296128273,0.009821492247283459,0.0,0.0,0.0,0.0,0.0,0.0,0.0008969722548499703,0.0010943544330075383,-0.0,0.0,0.0,0.0,-0.0036451329942792654,0.05884740874171257,0.0009416656685061753,17653.0,8089.0,8494.0,16707.0,0.7153796553611755,0.1337982565164566,0.14912785589694977,0.6374031901359558,0.0,0.0,0.0,0.0,0.0,0.0,0.0,0.0,1.6396121978759766,0.053051928841929746,0.43497117584911255,0.08398659373514865,-0.004323652479797602,0.002726017264649272,0.0,-0.00108564633410424,0.0004123910330235958,0.0
152,5,-8.956362762546632e-06,-1.5860943676671013e-05,-2.5678684323793277e-05,-8.718086610315368e-05,7.013994763838127e-05,0.0017633208772167563,0.017211340367794037,-0.194712296128273,0.009821492247283459,0.0,0.0,0.0,0.0,0.0,0.0,0.0008969722548499703,0.0010943544330075383,-0.0,0.0,0.0,0.0,-0.0036451329942792654,0.05884740874171257,0.0009416656685061753,17653.0,8089.0,8494.0,16707.0,0.7153796553611755,0.1337982565164566,0.14912785589694977,0.6374031901359558,0.0,0.0,0.0,0.0,0.0,0.0,0.0,0.0,1.6396121978759766,0.053062300291980655,0.434819784099914,0.08392319790708552,-0.004323652479797602,0.002726017264649272,0.0,-0.00108564633410424,0.0004123910330235958,0.0
157,5,-8.956362762546632e-06,-1.5860943676671013e-05,-2.5678684323793277e-05,-8.718086610315368e-05,7.013994763838127e-05,0.0017633208772167563,0.017189454287290573,-0.19469639658927917,0.009818005375564098,0.0,0.0,0.0,0.0,0.0,0.0,-0.00011604759492911398,-9.587036038283259e-05,-0.0,0.0,0.0,0.0,-0.0033339615911245346,0.059038467705249786,0.0005680144531652331,17541.0,8329.0,8267.0,16872.0,0.7059746384620667,0.1427602618932724,0.14040635526180267,0.6507132649421692,0.0,0.0,0.0,0.0,0.0,0.0,0.0,0.0,1.6284600496292114,0.053062300291980655,0.434819784099914,0.08392319790708552,0.00037619529757648706,-0.0003502852050587535,0.0,0.0009191809804178774,0.0011101054260507226,0.0
163,5,-3.1726354791317135e-05,-1.673219412623439e-05,-5.924525248701684e-05,-8.718086610315368e-05,7.013994763838127e-05,0.0017633208772167563,0.017189454287290573,-0.19469639658927917,0.009818005375564098,0.0,0.0,0.0,0.0,0.0,0.0,-0.00011604759492911398,-9.587036038283259e-05,-0.0,0.0,0.0,0.0,-0.0033339615911245346,0.059038467705249786,0.0005680144531652331,17541.0,8329.0,8267.0,16872.0,0.7059746384620667,0.1427602618932724,0.14040635526180267,0.6507132649421692,0.0,0.0,0.0,0.0,0.0,0.0,0.0,0.0,1.6284600496292114,0.051908668901976596,0.4324786457826212,0.08482018192098788,0.00037619529757648706,-0.0003502852050587535,0.0,0.0009191809804178774,0.0011101054260507226,0.0
168,5,-3.1726354791317135e-05,-1.673219412623439e-05,-5.924525248701684e-05,-8.718086610315368e-05,7.013994763838127e-05,0.0017633208772167563,0.017300987616181374,-0.19476062059402466,0.010009566321969032,0.0,0.0,0.0,0.0,0.0,0.0,-0.00011765451927203685,-0.00012781379336956888,-0.0,0.0,0.0,0.0,-0.003351978026330471,0.05886874720454216,0.0019776178523898125,17908.0,7283.0,9113.0,16379.0,0.7371776700019836,0.10575099289417267,0.1741098016500473,0.611421525478363,0.0,0.0,0.0,0.0,0.0,0.0,0.0,0.0,1.6284600496292114,0.051908668901976596,0.4324786457826212,0.08482018192098788,0.0005015413044020534,-0.00035513564944267273,0.0,0.0008969722548499703,0.0010943544330075383,0.0
173,5,-0.0011965414742007852,-0.000246690382482484,-0.001832163892686367,-8.718086610315368e-05,7.013994763838127e-05,0.0017633208772167563,0.017300987616181374,-0.19476062059402466,0.010009566321969032,0.0,0.0,0.0,0.0,0.0,0.0,-0.00011765451927203685,-0.00012781379336956888,-0.0,0.0,0.0,0.0,-0.003351978026330471,0.05886874720454216,0.0019776178523898125,17908.0,7283.0,9113.0,16379.0,0.7371776700019836,0.10575099289417267,0.1741098016500473,0.611421525478363,0.0,0.0,0.0,0.0,0.0,0.0,0.0,0.0,1.6284600496292114,0.0491434662723543,0.3443668326659866,0.07290830703145947,0.0005015413044020534,-0.00035513564944267273,0.0,0.0008969722548499703,0.0010943544330075383,0.0
178,5,-0.0011965414742007852,-0.000246690382482484,-0.001832163892686367,-8.718086610315368e-05,7.013994763838127e-05,0.0017633208772167563,0.017170878127217293,-0.1946256458759308,0.00968756154179573,0.0,0.0,0.0,0.0,0.0,0.0,-0.0005315547459758818,-0.0017438165377825499,-0.0,0.0,0.0,0.0,-0.0033396920189261436,0.05833455175161362,-0.00019042431085836142,17319.0,8665.0,7903.0,16965.0,0.6873944401741028,0.1558169275522232,0.12703178822994232,0.6582168340682983,0.0,0.0,0.0,0.0,0.0,0.0,0.0,0.0,1.6449952125549316,0.0491434662723543,0.3443668326659866,0.07290830703145947,0.00691221235319972,-0.0016207691514864564,0.0,-0.00011604759492911398,-9.587036038283259e-05,0.0
183,5,-0.0012094974517822266,-0.0002585839538369328,-0.001828350592404604,-0.001589589286595583,0.0014552853535860777,0.00024774091434665024,0.017170878127217293,-0.1946256458759308,0.00968756154179573,0.0,0.0,0.0,0.0,0.0,0.0,-0.0005315547459758818,-0.0017438165377825499,-0.0,0.0,0.0,0.0,-0.0033396920189261436,0.05833455175161362,-0.00019042431085836142,17319.0,8665.0,7903.0,16965.0,0.6873944401741028,0.1558169275522232,0.12703178822994232,0.6582168340682983,0.0,0.0,0.0,0.0,0.0,0.0,0.0,0.0,1.6449952125549316,0.05004894936165057,0.3452824419196803,0.07305783069020012,0.00691221235319972,-0.0016207691514864564,0.0,-0.00011604759492911398,-9.587036038283259e-05,0.0
188,5,-0.0012094974517822266,-0.0002585839538369328,-0.001828350592404604,-0.001589589286595583,0.0014552853535860777,0.00024774091434665024,0.017481986433267593,-0.19479499757289886,0.010093366727232933,0.0,0.0,0.0,0.0,0.0,0.0,-0.0022302225697785616,-0.003146655857563019,-0.0,0.0,0.0,0.0,-0.0038903546519577503,0.05838623270392418,0.0029043136164546013,17987.0,7189.0,9281.0,16239.0,0.7439825534820557,0.10268892347812653,0.18125896155834198,0.6005295515060425,0.0,0.0,0.0,0.0,0.0,0.0,0.0,0.0,1.664637565612793,0.05004894936165057,0.3452824419196803,0.07305783069020012,0.012621735222637653,-0.006881384178996086,0.0,-0.00011765451927203685,-0.00012781379336956888,0.0
193,5,-0.0012741887476295233,-0.0003394867235329002,-0.0019735172390937805,-0.001589589286595583,0.0014552853535860777,0.00024774091434665024,0.017481986433267593,-0.19479499757289886,0.010093366727232933,0.0,0.0,0.0,0.0,0.0,0.0,-0.0022302225697785616,-0.003146655857563019,-0.0,0.0,0.0,0.0,-0.0038903546519577503,0.05838623270392418,0.0029043136164546013,17987.0,7189.0,9281.0,16239.0,0.7439825534820557,0.10268892347812653,0.18125896155834198,0.6005295515060425,0.0,0.0,0.0,0.0,0.0,0.0,0.0,0.0,1.664637565612793,0.05058940958908405,0.33905120616580836,0.07301778335618156,0.012621735222637653,-0.006881384178996086,0.0,-0.00011765451927203685,-0.00012781379336956888,0.0
198,5,-0.0012741887476295233,-0.0003394867235329002,-0.0019735172390937805,-0.001589589286595583,0.0014552853535860777,0.00024774091434665024,0.017057228833436966,-0.1949646919965744,0.0090980539098382,0.0,0.0,0.0,0.0,0.0,0.0,-0.0023727789521217346,-0.0032336916774511337,-0.0,0.0,0.0,0.0,-0.0033768778666853905,0.05886898562312126,-0.0013573885662481189,17392.0,8761.0,7960.0,17021.0,0.6934373378753662,0.15967991948127747,0.12907597422599792,0.6628019213676453,0.0,0.0,0.0,0.0,0.0,0.0,0.0,0.0,1.6660689115524292,0.05058940958908405,0.33905120616580836,0.07301778335618156,0.01298199687153101,-0.007327537517994642,0.0,-0.0005315547459758818,-0.0017438165377825499,0.0
203,5,-0.0014083312125876546,6.743463745806366e-05,-0.0020443673711270094,-0.001589589286595583,0.0014552853535860777,0.00024774091434665024,0.017057228833436966,-0.1949646919965744,0.0090980539098382,0.0,0.0,0.0,0.0,0.0,0.0,-0.0023727789521217346,-0.0032336916774511337,-0.0,0.0,0.0,0.0,-0.0033768778666853905,0.05886898562312126,-0.0013573885662481189,17392.0,8761.0,7960.0,17021.0,0.6934373378753662,0.15967991948127747,0.12907597422599792,0.6628019213676453,0.0,0.0,0.0,0.0,0.0,0.0,0.0,0.0,1.6660689115524292,0.04558751181566979,0.33139076421360425,0.05768394383042391,0.01298199687153101,-0.007327537517994642,0.0,-0.0005315547459758818,-0.0017438165377825499,0.0
209,5,-0.0014083312125876546,6.743463745806366e-05,-0.0020443673711270094,-0.001589589286595583,0.0014552853535860777,0.00024774091434665024,0.017057228833436966,-0.1949646919965744,0.0090980539098382,0.0,0.0,0.0,0.0,0.0,0.0,-0.0016486960230395198,-0.0034201806411147118,-0.0,0.0,0.0,0.0,-0.004265570547431707,0.05774330720305443,-9.36240321607329e-05,17364.0,9135.0,8015.0,17078.0,0.691082775592804,0.17504289746284485,0.13107138872146606,0.6674405336380005,0.0,0.0,0.0,0.0,0.0,0.0,0.0,0.0,1.6653428077697754,0.04558751181566979,0.33139076421360425,0.05768394383042391,0.01372470986098051,-0.005089234095066786,0.0,-0.0022302225697785616,-0.003146655857563019,0.0
214,5,-0.0012357516679912806,-0.0003724484413396567,-0.0018105277558788657,0.020073706284165382,0.053368084132671356,-0.02796165831387043,0.017057228833436966,-0.1949646919965744,0.0090980539098382,0.0,0.0,0.0,0.0,0.0,0.0,-0.0016486960230395198,-0.0034201806411147118,-0.0,0.0,0.0,0.0,-0.004265570547431707,0.05774330720305443,-9.36240321607329e-05,17364.0,9135.0,8015.0,17078.0,0.691082775592804,0.17504289746284485,0.13107138872146606,0.6674405336380005,0.0,0.0,0.0,0.0,0.0,0.0,0.0,0.0,1.6653428077697754,0.05133433841033243,0.34436791040384,0.0738815157966007,0.01372470986098051,-0.005089234095066786,0.0,-0.0022302225697785616,-0.003146655857563019,0.0
219,5,-0.0012357516679912806,-0.0003724484413396567,-0.0018105277558788657,0.020073706284165382,0.053368084132671356,-0.02796165831387043,0.017251798883080482,-0.19505777955055237,0.00954941101372242,0.0,0.0,0.0,0.0,0.0,0.0,-0.05036238208413124,0.01312409806996584,-0.0,0.0,0.0,0.0,-0.004194978158921003,0.05714666098356247,0.001030648942105472,17530.0,8924.0,8495.0,16809.0,0.7049752473831177,0.16628603637218475,0.1491599828004837,0.6456476449966431,0.0,0.0,0.0,0.0,0.0,0.0,0.0,0.0,2.167520523071289,0.05133433841033243,0.34436791040384,0.0738815157966007,-0.06845751404762268,-0.20218288898468018,0.0,-0.0023727789521217346,-0.0032336916774511337,0.0
224,5,-0.0012369515607133508,-0.00028046005172654986,-0.0016079623019322753,0.020073706284165382,0.053368084132671356,-0.02796165831387043,0.017251798883080482,-0.19505777955055237,0.00954941101372242,0.0,0.0,0.0,0.0,0.0,0.0,-0.05036238208413124,0.01312409806996584,-0.0,0.0,0.0,0.0,-0.004194978158921003,0.05714666098356247,0.001030648942105472,17530.0,8924.0,8495.0,16809.0,0.7049752473831177,0.16628603637218475,0.1491599828004837,0.6456476449966431,0.0,0.0,0.0,0.0,0.0,0.0,0.0,0.0,2.167520523071289,0.04861107506627063,0.34972157098558293,0.06958381915011363,-0.06845751404762268,-0.20218288898468018,0.0,-0.0023727789521217346,-0.0032336916774511337,0.0
229,5,-0.0012369515607133508,-0.00028046005172654986,-0.0016079623019322753,0.020073706284165382,0.053368084132671356,-0.02796165831387043,0.017906026914715767,-0.19465699791908264,0.009346234612166882,0.0,0.0,0.0,0.0,0.0,0.0,-0.050262778997421265,0.013128814287483692,-0.0,0.0,0.0,0.0,-0.014341835863888264,0.06201297417283058,0.0016075916355475783,19981.0,11355.0,10536.0,17724.0,0.9263849854469299,0.2808308005332947,0.238902747631073,0.7214019298553467,0.0,0.0,0.0,0.0,0.0,0.0,0.0,0.0,2.1663851737976074,0.04861107506627063,0.34972157098558293,0.06958381915011363,-0.068446584045887,-0.20167793333530426,0.0,-0.05036238208413124,0.01312409806996584,0.0
234,5,-0.0011011657770723104,-0.00035033596213907003,-0.0018507738132029772,0.024323774501681328,0.029732344672083855,0.01795271225273609,0.017906026914715767,-0.19465699791908264,0.009346234612166882,0.0,0.0,0.0,0.0,0.0,0.0,-0.050262778997421265,0.013128814287483692,-0.0,0.0,0.0,0.0,-0.014341835863888264,0.06201297417283058,0.0016075916355475783,19981.0,11355.0,10536.0,17724.0,0.9263849854469299,0.2808308005332947,0.238902747631073,0.7214019298553467,0.0,0.0,0.0,0.0,0.0,0.0,0.0,0.0,2.1663851737976074,0.05057137856878799,0.34005044758318165,0.06999285276811944,-0.068446584045887,-0.20167793333530426,0.0,-0.05036238208413124,0.01312409806996584,0.0
239,5,-0.0011011657770723104,-0.00035033596213907003,-0.0018507738132029772,0.024323774501681328,0.029732344672083855,0.01795271225273609,0.01806761510670185,-0.19391976296901703,0.00928502157330513,0.0,0.0,0.0,0.0,0.0,0.0,-0.03069530427455902,0.017724545672535896,-0.0,0.0,0.0,0.0,-0.014315644279122353,0.05895904451608658,0.0010771133238449693,19684.0,11873.0,10604.0,17686.0,0.8979697823524475,0.3090478479862213,0.24225549399852753,0.7182474136352539,0.0,0.0,0.0,0.0,0.0,0.0,0.0,0.0,1.9942024946212769,0.05057137856878799,0.34005044758318165,0.06999285276811944,-0.08512730896472931,-0.11342945694923401,0.0,-0.05036238208413124,0.01312409806996584,0.0
244,5,-0.0012278241338208318,-0.0003294639755040407,-0.0013824535999447107,-0.0054694972932338715,0.009388298727571964,-0.04901733994483948,0.01806761510670185,-0.19391976296901703,0.00928502157330513,0.0,0.0,0.0,0.0,0.0,0.0,-0.03069530427455902,0.017724545672535896,-0.0,0.0,0.0,0.0,-0.014315644279122353,0.05895904451608658,0.0010771133238449693,19684.0,11873.0,10604.0,17686.0,0.8979697823524475,0.3090478479862213,0.24225549399852753,0.7182474136352539,0.0,0.0,0.0,0.0,0.0,0.0,0.0,0.0,1.9942024946212769,0.05347113600393302,0.3391991878964304,0.07117204101299038,-0.08512730896472931,-0.11342945694923401,0.0,-0.05036238208413124,0.01312409806996584,0.0
249,5,-0.0012278241338208318,-0.0003294639755040407,-0.0013824535999447107,-0.0054694972932338715,0.009388298727571964,-0.04901733994483948,0.018406936898827553,-0.18975409865379333,0.009423557668924332,0.0,0.0,0.0,0.0,0.0,0.0,-0.011421485804021358,-0.006477803457528353,-0.0,0.0,0.0,0.0,-0.014103226363658905,0.052238579839468,0.002719749929383397,19750.0,11714.0,12057.0,16770.0,0.9042645692825317,0.3002302646636963,0.31938594579696655,0.6425044536590576,0.0,0.0,0.0,0.0,0.0,0.0,0.0,0.0,1.7489951848983765,0.05347113600393302,0.3391991878964304,0.07117204101299038,0.02729838155210018,-0.03702564164996147,0.0,-0.050262778997421265,0.013128814287483692,0.0
254,5,-0.0010177316144108772,-0.0003913204127456993,-0.0009929889347404242,0.02302330732345581,0.011178093031048775,-0.06634269654750824,0.018406936898827553,-0.18975409865379333,0.009423557668924332,0.0,0.0,0.0,0.0,0.0,0.0,-0.011421485804021358,-0.006477803457528353,-0.0,0.0,0.0,0.0,-0.014103226363658905,0.052238579839468,0.002719749929383397,19750.0,11714.0,12057.0,16770.0,0.9042645692825317,0.3002302646636963,0.31938594579696655,0.6425044536590576,0.0,0.0,0.0,0.0,0.0,0.0,0.0,0.0,1.7489951848983765,0.05511231001638685,0.34050802260152563,0.07008193938320409,0.02729838155210018,-0.03702564164996147,0.0,-0.050262778997421265,0.013128814287483692,0.0
259,5,-0.0010177316144108772,-0.0003913204127456993,-0.0009929889347404242,0.02302330732345581,0.011178093031048775,-0.06634269654750824,0.018253890797495842,-0.1839226335287094,0.009459479711949825,0.0,0.0,0.0,0.0,0.0,0.0,-0.01272812020033598,0.017927050590515137,-0.0,0.0,0.0,0.0,-0.009363336488604546,0.04235292971134186,0.001513584633357823,18134.0,12091.0,11704.0,16443.0,0.7567489147186279,0.3213118016719818,0.2996878921985626,0.6164538264274597,0.0,0.0,0.0,0.0,0.0,0.0,0.0,0.0,1.8684425354003906,0.05511231001638685,0.34050802260152563,0.07008193938320409,-0.08070158213376999,-0.044078949838876724,0.0,-0.03069530427455902,0.017724545672535896,0.0
265,5,-0.0011650469386950135,-0.00016977833001874387,-0.0004319509898778051,-0.008468518033623695,-0.02211381308734417,-0.09386163204908371,0.018253890797495842,-0.1839226335287094,0.009459479711949825,0.0,0.0,0.0,0.0,0.0,0.0,-0.01272812020033598,0.017927050590515137,-0.0,0.0,0.0,0.0,-0.009363336488604546,0.04235292971134186,0.001513584633357823,18134.0,12091.0,11704.0,16443.0,0.7567489147186279,0.3213118016719818,0.2996878921985626,0.6164538264274597,0.0,0.0,0.0,0.0,0.0,0.0,0.0,0.0,1.8684425354003906,0.049481092585000025,0.3200329639005547,0.07188142358478217,-0.08070158213376999,-0.044078949838876724,0.0,-0.03069530427455902,0.017724545672535896,0.0
270,5,-0.0011650469386950135,-0.00016977833001874387,-0.0004319509898778051,-0.008468518033623695,-0.02211381308734417,-0.09386163204908371,0.017210571095347404,-0.16785618662834167,0.009482945315539837,0.0,0.0,0.0,0.0,0.0,0.0,0.023723240941762924,-0.008505521342158318,-0.0,0.0,0.0,0.0,-0.004630739800632,0.018612096086144447,0.0028636157512664795,16226.0,11935.0,13724.0,13649.0,0.5994718670845032,0.31249499320983887,0.42093467712402344,0.41609370708465576,0.0,0.0,0.0,0.0,0.0,0.0,0.0,0.0,1.864740252494812,0.049481092585000025,0.3200329639005547,0.07188142358478217,0.038207072764635086,0.08198358863592148,0.0,-0.011421485804021358,-0.006477803457528353,0.0
275,5,-0.0010804408229887486,-0.0004134243063163012,0.0004618642560672015,-0.008468518033623695,-0.02211381308734417,-0.09386163204908371,0.017210571095347404,-0.16785618662834167,0.009482945315539837,0.0,0.0,0.0,0.0,0.0,0.0,0.023723240941762924,-0.008505521342158318,-0.0,0.0,0.0,0.0,-0.004630739800632,0.018612096086144447,0.0028636157512664795,16226.0,11935.0,13724.0,13649.0,0.5994718670845032,0.31249499320983887,0.42093467712402344,0.41609370708465576,0.0,0.0,0.0,0.0,0.0,0.0,0.0,0.0,1.864740252494812,0.05373251608353957,0.3196966877245377,0.07661459290930334,0.038207072764635086,0.08198358863592148,0.0,-0.011421485804021358,-0.006477803457528353,0.0
280,5,-0.0010804408229887486,-0.0004134243063163012,0.0004618642560672015,-0.008468518033623695,-0.02211381308734417,-0.09386163204908371,0.015648121014237404,-0.15227869153022766,0.008993401192128658,0.0,0.0,0.0,0.0,0.0,0.0,0.023380359634757042,-0.008419057354331017,-0.0,0.0,0.0,0.0,-0.002541419817134738,0.009182129055261612,-0.002167440252378583,14448.0,14684.0,12956.0,15452.0,0.46936577558517456,0.48574015498161316,0.37241098284721375,0.5409256219863892,0.0,0.0,0.0,0.0,0.0,0.0,0.0,0.0,1.8611180782318115,0.05373251608353957,0.3196966877245377,0.07661459290930334,0.03774552419781685,0.08064208924770355,0.0,-0.01272812020033598,0.017927050590515137,0.0
285,5,-0.0012086494825780392,-0.0003692758036777377,0.0011676877038553357,-0.01877245120704174,-0.01414334774017334,-0.12224346399307251,0.015648121014237404,-0.15227869153022766,0.008993401192128658,0.0,0.0,0.0,0.0,0.0,0.0,0.023380359634757042,-0.008419057354331017,-0.0,0.0,0.0,0.0,-0.002541419817134738,0.009182129055261612,-0.002167440252378583,14448.0,14684.0,12956.0,15452.0,0.46936577558517456,0.48574015498161316,0.37241098284721375,0.5409256219863892,0.0,0.0,0.0,0.0,0.0,0.0,0.0,0.0,1.8611180782318115,0.05294544040208962,0.3007838383402057,0.0751467798900836,0.03774552419781685,0.08064208924770355,0.0,-0.01272812020033598,0.017927050590515137,0.0
290,5,-0.0012086494825780392,-0.0003692758036777377,0.0011676877038553357,-0.01877245120704174,-0.01414334774017334,-0.12224346399307251,0.013855488039553165,-0.12336234748363495,0.0085840355604887,0.0,0.0,0.0,0.0,0.0,0.0,0.014715424738824368,-0.017114777117967606,-0.0,0.0,0.0,0.0,0.0023243878968060017,-0.013220309279859066,0.002755895024165511,14207.0,14318.0,16532.0,12204.0,0.4529799818992615,0.46046632528305054,0.6235059499740601,0.32778799533843994,0.0,0.0,0.0,0.0,0.0,0.0,0.0,0.0,1.8696887493133545,0.05294544040208962,0.3007838383402057,0.0751467798900836,0.0770946517586708,0.05099436640739441,0.0,0.023723240941762924,-0.008505521342158318,0.0
295,5,-0.001372816041111946,-0.00031512565328739583,0.0017635233234614134,-0.01877245120704174,-0.01414334774017334,-0.12224346399307251,0.013855488039553165,-0.12336234748363495,0.0085840355604887,0.0,0.0,0.0,0.0,0.0,0.0,0.014715424738824368,-0.017114777117967606,-0.0,0.0,0.0,0.0,0.0023243878968060017,-0.013220309279859066,0.002755895024165511,14207.0,14318.0,16532.0,12204.0,0.4529799818992615,0.46046632528305054,0.6235059499740601,0.32778799533843994,0.0,0.0,0.0,0.0,0.0,0.0,0.0,0.0,1.8696887493133545,0.050758185808543646,0.27506129826761905,0.07117317297513226,0.0770946517586708,0.05099436640739441,0.0,0.023723240941762924,-0.008505521342158318,0.0
300,5,-0.001372816041111946,-0.00031512565328739583,0.0017635233234614134,-0.01877245120704174,-0.01414334774017334,-0.12224346399307251,0.013653373345732689,-0.10200262814760208,0.008328753523528576,0.0,0.0,0.0,0.0,0.0,0.0,0.014782426878809929,-0.017294524237513542,-0.0,0.0,0.0,0.0,0.0022348801139742136,-0.02568744495511055,0.0003041392774321139,12716.0,15602.0,16364.0,12430.0,0.35786932706832886,0.5520595908164978,0.6102871298789978,0.34090203046798706,0.0,0.0,0.0,0.0,0.0,0.0,0.0,0.0,1.8720453977584839,0.050758185808543646,0.27506129826761905,0.07117317297513226,0.07800237089395523,0.0512910895049572,0.0,0.023380359634757042,-0.008419057354331017,0.0
305,5,-0.0015538512961938977,-0.00044067477574571967,0.0021368118468672037,-0.029233215376734734,0.009408555924892426,-0.09369202703237534,0.013653373345732689,-0.10200262814760208,0.008328753523528576,0.0,0.0,0.0,0.0,0.0,0.0,0.014782426878809929,-0.017294524237513542,-0.0,0.0,0.0,0.0,0.0022348801139742136,-0.02568744495511055,0.0003041392774321139,12716.0,15602.0,16364.0,12430.0,0.35786932706832886,0.5520595908164978,0.6102871298789978,0.34090203046798706,0.0,0.0,0.0,0.0,0.0,0.0,0.0,0.0,1.8720453977584839,0.05368425037861475,0.24064415971102376,0.07827835807673933,0.07800237089395523,0.0512910895049572,0.0,0.023380359634757042,-0.008419057354331017,0.0
310,5,-0.0015538512961938977,-0.00044067477574571967,0.0021368118468672037,-0.029233215376734734,0.009408555924892426,-0.09369202703237534,0.013449939899146557,-0.07043473422527313,0.007882901467382908,0.0,0.0,0.0,0.0,0.0,0.0,-0.010437496937811375,-0.025168780237436295,-0.0,0.0,0.0,0.0,0.00016873734421096742,-0.0315404050052166,-5.5852844525361434e-05,11814.0,16597.0,16409.0,12093.0,0.30574867129325867,0.6286508440971375,0.6138368844985962,0.3214522898197174,0.0,0.0,0.0,0.0,0.0,0.0,0.0,0.0,1.949791431427002,0.05368425037861475,0.24064415971102376,0.07827835807673933,0.11823137104511261,-0.037720613181591034,0.0,0.014715424738824368,-0.017114777117967606,0.0
315,5,-0.0015894131502136588,-0.0004560461384244263,0.002230987185612321,-0.029233215376734734,0.009408555924892426,-0.09369202703237534,0.013449939899146557,-0.07043473422527313,0.007882901467382908,0.0,0.0,0.0,0.0,0.0,0.0,-0.010437496937811375,-0.025168780237436295,-0.0,0.0,0.0,0.0,0.00016873734421096742,-0.0315404050052166,-5.5852844525361434e-05,11814.0,16597.0,16409.0,12093.0,0.30574867129325867,0.6286508440971375,0.6138368844985962,0.3214522898197174,0.0,0.0,0.0,0.0,0.0,0.0,0.0,0.0,1.949791431427002,0.04643656531418504,0.2122533173951438,0.07516744876544158,0.11823137104511261,-0.037720613181591034,0.0,0.014715424738824368,-0.017114777117967606,0.0
321,5,-0.0015894131502136588,-0.0004560461384244263,0.002230987185612321,-0.029233215376734734,0.009408555924892426,-0.09369202703237534,0.013986397534608841,-0.05213385447859764,0.007270791567862034,0.0,0.0,0.0,0.0,0.0,0.0,-0.010458407923579216,-0.02520456351339817,-0.0,0.0,0.0,0.0,-0.0068260976113379,-0.025796474888920784,-0.0012930614175274968,12394.0,16323.0,16282.0,12108.0,0.3388262093067169,0.607056736946106,0.603830873966217,0.32233163714408875,0.0,0.0,0.0,0.0,0.0,0.0,0.0,0.0,1.9503368139266968,0.04643656531418504,0.2122533173951438,0.07516744876544158,0.11843252182006836,-0.03780675306916237,0.0,-0.010437496937811375,-0.025168780237436295,0.0
326,5,-0.0017466642893850803,-0.0005254467250779271,0.002775419969111681,-0.03056342527270317,0.012091491371393204,-0.10280875861644745,0.013986397534608841,-0.05213385447859764,0.007270791567862034,0.0,0.0,0.0,0.0,0.0,0.0,-0.010458407923579216,-0.02520456351339817,-0.0,0.0,0.0,0.0,-0.0068260976113379,-0.025796474888920784,-0.0012930614175274968,12394.0,16323.0,16282.0,12108.0,0.3388262093067169,0.607056736946106,0.603830873966217,0.32233163714408875,0.0,0.0,0.0,0.0,0.0,0.0,0.0,0.0,1.9503368139266968,0.049077093427963965,0.20217439872797074,0.079267208180949,0.11843252182006836,-0.03780675306916237,0.0,-0.010437496937811375,-0.025168780237436295,0.0
331,5,-0.0017466642893850803,-0.0005254467250779271,0.002775419969111681,-0.03056342527270317,0.012091491371393204,-0.10280875861644745,0.013986397534608841,-0.05213385447859764,0.007270791567862034,0.0,0.0,0.0,0.0,0.0,0.0,-0.013195693492889404,-0.026150904595851898,-0.0,0.0,0.0,0.0,-0.0068260976113379,-0.025796474888920784,-0.0012930614175274968,12394.0,16323.0,16282.0,12108.0,0.3388262093067169,0.607056736946106,0.603830873966217,0.32233163714408875,0.0,0.0,0.0,0.0,0.0,0.0,0.0,0.0,1.9728368520736694,0.049077093427963965,0.20217439872797074,0.079267208180949,0.1242917999625206,-0.04825130105018616,0.0,-0.010437496937811375,-0.025168780237436295,0.0
336,5,-0.001818469143472612,-0.00021938375721219927,0.003415689803659916,-0.03056342527270317,0.012091491371393204,-0.10280875861644745,0.015611100941896439,-0.031598787754774094,0.006387312430888414,0.0,0.0,0.0,0.0,0.0,0.0,-0.013195693492889404,-0.026150904595851898,-0.0,0.0,0.0,0.0,-0.005765008740127087,-0.013862533494830132,-0.0015234758611768484,12727.0,17190.0,15381.0,13061.0,0.3585408627986908,0.676684558391571,0.5356837511062622,0.3788822293281555,0.0,0.0,0.0,0.0,0.0,0.0,0.0,0.0,1.9728368520736694,0.05354602469260603,0.20854227919008161,0.06693252975794872,0.1242917999625206,-0.04825130105018616,0.0,-0.010458407923579216,-0.02520456351339817,0.0
341,5,-0.001818469143472612,-0.00021938375721219927,0.003415689803659916,-0.03056342527270317,0.012091491371393204,-0.10280875861644745,0.015611100941896439,-0.031598787754774094,0.006387312430888414,0.0,0.0,0.0,0.0,0.0,0.0,-0.012739123776555061,-0.02624266967177391,-0.0,0.0,0.0,0.0,-0.005765008740127087,-0.013862533494830132,-0.0015234758611768484,12727.0,17190.0,15381.0,13061.0,0.3585408627986908,0.676684558391571,0.5356837511062622,0.3788822293281555,0.0,0.0,0.0,0.0,0.0,0.0,0.0,0.0,1.9722754955291748,0.05354602469260603,0.20854227919008161,0.06693252975794872,0.12469309568405151,-0.046568725258111954,0.0,-0.010458407923579216,-0.02520456351339817,0.0
346,5,-0.001792465802282095,-0.0004568026342894882,0.003032588167116046,-0.009104960598051548,0.03332686051726341,0.004848696291446686,0.01650778017938137,-0.023621316999197006,0.0054061198607087135,0.0,0.0,0.0,0.0,0.0,0.0,-0.012739123776555061,-0.02624266967177391,-0.0,0.0,0.0,0.0,-0.006716389674693346,-0.0017404445679858327,-0.0025977385230362415,14222.0,16103.0,13411.0,15276.0,0.454009473323822,0.5900217890739441,0.40079465508461,0.5280109643936157,0.0,0.0,0.0,0.0,0.0,0.0,0.0,0.0,1.9722754955291748,0.054372662163991496,0.19559444140002177,0.07697827654260612,0.12469309568405151,-0.046568725258111954,0.0,-0.013195693492889404,-0.026150904595851898,0.0
351,5,-0.001792465802282095,-0.0004568026342894882,0.003032588167116046,-0.009104960598051548,0.03332686051726341,0.004848696291446686,0.01650778017938137,-0.023621316999197006,0.0054061198607087135,0.0,0.0,0.0,0.0,0.0,0.0,-0.03480491042137146,-0.009259313344955444,-0.0,0.0,0.0,0.0,-0.006716389674693346,-0.0017404445679858327,-0.0025977385230362415,14222.0,16103.0,13411.0,15276.0,0.454009473323822,0.5900217890739441,0.40079465508461,0.5280109643936157,0.0,0.0,0.0,0.0,0.0,0.0,0.0,0.0,1.9771983623504639,0.054372662163991496,0.19559444140002177,0.07697827654260612,0.044087108224630356,-0.1275087594985962,-0.0,-0.013195693492889404,-0.026150904595851898,0.0
356,5,-0.0017180207651108503,-0.0004811324761249125,0.0029469882138073444,-0.009104960598051548,0.03332686051726341,0.004848696291446686,0.016839981079101562,-0.02055056206882,0.004240318201482296,0.0,0.0,0.0,0.0,0.0,0.0,-0.03480491042137146,-0.009259313344955444,-0.0,0.0,0.0,0.0,-0.006833357736468315,0.00827421061694622,-0.0010734142269939184,15383.0,15010.0,13337.0,15323.0,0.5358675718307495,0.5088210701942444,0.3961408734321594,0.5314458608627319,0.0,0.0,0.0,0.0,0.0,0.0,0.0,0.0,1.9771983623504639,0.049117173199570194,0.2024447591541068,0.07528908021597755,0.044087108224630356,-0.1275087594985962,-0.0,-0.012739123776555061,-0.02624266967177391,0.0
361,5,-0.0017180207651108503,-0.0004811324761249125,0.0029469882138073444,-0.009104960598051548,0.03332686051726341,0.004848696291446686,0.016839981079101562,-0.02055056206882,0.004240318201482296,0.0,0.0,0.0,0.0,0.0,0.0,-0.03484204038977623,-0.009174622595310211,-0.0,0.0,0.0,0.0,-0.006833357736468315,0.00827421061694622,-0.0010734142269939184,15383.0,15010.0,13337.0,15323.0,0.5358675718307495,0.5088210701942444,0.3961408734321594,0.5314458608627319,0.0,0.0,0.0,0.0,0.0,0.0,0.0,0.0,1.977191686630249,0.049117173199570194,0.2024447591541068,0.07528908021597755,0.043683674186468124,-0.12764425575733185,-0.0,-0.012739123776555061,-0.02624266967177391,0.0
367,5,-0.0017248252406716347,-0.0005429073935374618,0.0029640181455761194,-0.009104960598051548,0.03332686051726341,0.004848696291446686,0.017209209501743317,-0.022905809804797173,0.003650895319879055,0.0,0.0,0.0,0.0,0.0,0.0,-0.03484204038977623,-0.009174622595310211,-0.0,0.0,0.0,0.0,-0.011315281502902508,0.016195455566048622,-0.002691829577088356,15516.0,15453.0,11654.0,16150.0,0.5456417798995972,0.5410029888153076,0.2969302833080292,0.5936232805252075,0.0,0.0,0.0,0.0,0.0,0.0,0.0,0.0,1.977191686630249,0.056154721948247194,0.2077383447196061,0.07789635451340243,0.043683674186468124,-0.12764425575733185,-0.0,-0.03480491042137146,-0.009259313344955444,0.0
372,5,-0.0017248252406716347,-0.0005429073935374618,0.0029640181455761194,-0.009104960598051548,0.03332686051726341,0.004848696291446686,0.017209209501743317,-0.022905809804797173,0.003650895319879055,0.0,0.0,0.0,0.0,0.0,0.0,-0.03492052108049393,-0.009179874323308468,-0.0,0.0,0.0,0.0,-0.011315281502902508,0.016195455566048622,-0.002691829577088356,15516.0,15453.0,11654.0,16150.0,0.5456417798995972,0.5410029888153076,0.2969302833080292,0.5936232805252075,0.0,0.0,0.0,0.0,0.0,0.0,0.0,0.0,1.9780319929122925,0.056154721948247194,0.2077383447196061,0.07789635451340243,0.04372713342308998,-0.12798592448234558,-0.0,-0.03480491042137146,-0.009259313344955444,0.0
377,5,-0.0016805765917524695,-0.000559261126909405,0.0028522114735096693,0.0016678525134921074,0.01529319304972887,0.015356291085481644,0.017698097974061966,-0.03205699101090431,0.0017873438773676753,0.0,0.0,0.0,0.0,0.0,0.0,-0.03492052108049393,-0.009179874323308468,-0.0,0.0,0.0,0.0,-0.010455909185111523,0.012181706726551056,-0.0018495337571948767,15606.0,15235.0,12745.0,15442.0,0.5523420572280884,0.5250028371810913,0.3596487045288086,0.5401980876922607,0.0,0.0,0.0,0.0,0.0,0.0,0.0,0.0,1.9780319929122925,0.055881928420845495,0.20706918880812558,0.07635587207017473,0.04372713342308998,-0.12798592448234558,-0.0,-0.03484204038977623,-0.009174622595310211,0.0
382,5,-0.0015049458015710115,-0.000588323746342212,0.0027443808503448963,0.021742839366197586,0.009604793041944504,0.019082199782133102,0.017698097974061966,-0.03205699101090431,0.0017873438773676753,0.0,0.0,0.0,0.0,0.0,0.0,-0.018250007182359695,-0.0007179991225712001,-0.0,0.0,0.0,0.0,-0.010455909185111523,0.012181706726551056,-0.0018495337571948767,15606.0,15235.0,12745.0,15442.0,0.5523420572280884,0.5250028371810913,0.3596487045288086,0.5401980876922607,0.0,0.0,0.0,0.0,0.0,0.0,0.0,0.0,1.7872273921966553,0.050337371886674934,0.20906104779017112,0.07332193478250822,0.00309159979224205,-0.06045157089829445,-0.0,-0.03484204038977623,-0.009174622595310211,0.0
387,5,-0.0015049458015710115,-0.000588323746342212,0.0027443808503448963,0.021742839366197586,0.009604793041944504,0.019082199782133102,0.0168561190366745,-0.031133519485592842,0.001309820101596415,0.0,0.0,0.0,0.0,0.0,0.0,-0.018250007182359695,-0.0007179991225712001,-0.0,0.0,0.0,0.0,-0.00926645565778017,0.0026391444262117147,-0.0003474974655546248,15349.0,15364.0,14036.0,14439.0,0.5333142280578613,0.5344575643539429,0.441474974155426,0.46878522634506226,0.0,0.0,0.0,0.0,0.0,0.0,0.0,0.0,1.7872273921966553,0.050337371886674934,0.20906104779017112,0.07332193478250822,0.00309159979224205,-0.06045157089829445,-0.0,-0.03492052108049393,-0.009179874323308468,0.0
392,5,-0.0015602495986968279,-0.0005891555338166654,0.0028368858620524406,0.021742839366197586,0.009604793041944504,0.019082199782133102,0.0168561190366745,-0.031133519485592842,0.001309820101596415,0.0,0.0,0.0,0.0,0.0,0.0,-0.011483723297715187,0.016451027244329453,-0.0,0.0,0.0,0.0,-0.00926645565778017,0.0026391444262117147,-0.0003474974655546248,15349.0,15364.0,14036.0,14439.0,0.5333142280578613,0.5344575643539429,0.441474974155426,0.46878522634506226,0.0,0.0,0.0,0.0,0.0,0.0,0.0,0.0,1.8455226421356201,0.04775062441639426,0.19830782210294554,0.07686646380822258,-0.07315029948949814,-0.039281975477933884,-0.0,-0.03492052108049393,-0.009179874323308468,0.0
397,5,-0.0015602495986968279,-0.0005891555338166654,0.0028368858620524406,0.021742839366197586,0.009604793041944504,0.019082199782133102,0.015666713938117027,-0.027553491294384003,0.0014839994255453348,0.0,0.0,0.0,0.0,0.0,0.0,-0.011483723297715187,0.016451027244329453,-0.0,0.0,0.0,0.0,-0.00493489857763052,-0.002235820284113288,0.0010390236275270581,14522.0,14336.0,14268.0,13302.0,0.47447627782821655,0.4617328643798828,0.45710045099258423,0.3939177989959717,0.0,0.0,0.0,0.0,0.0,0.0,0.0,0.0,1.8455226421356201,0.04775062441639426,0.19830782210294554,0.07686646380822258,-0.07315029948949814,-0.039281975477933884,-0.0,-0.018250007182359695,-0.0007179991225712001,0.0
402,5,-0.0014188701752573252,-0.0006314899655990303,0.002958670724183321,0.025662656873464584,0.008922046050429344,-0.006981300190091133,0.015666713938117027,-0.027553491294384003,0.0014839994255453348,0.0,0.0,0.0,0.0,0.0,0.0,-0.011489983648061752,0.01638755202293396,-0.0,0.0,0.0,0.0,-0.00493489857763052,-0.002235820284113288,0.0010390236275270581,14522.0,14336.0,14268.0,13302.0,0.47447627782821655,0.4617328643798828,0.45710045099258423,0.3939177989959717,0.0,0.0,0.0,0.0,0.0,0.0,0.0,0.0,1.844828724861145,0.042535416833287536,0.1976703534053375,0.07632512221535039,-0.07284066826105118,-0.039288610219955444,-0.0,-0.018250007182359695,-0.0007179991225712001,0.0
407,5,-0.0014188701752573252,-0.0006314899655990303,0.002958670724183321,0.025662656873464584,0.008922046050429344,-0.006981300190091133,0.013361915946006775,-0.020720982924103737,0.0008805893012322485,0.0,0.0,0.0,0.0,0.0,0.0,-0.011489983648061752,0.01638755202293396,-0.0,0.0,0.0,0.0,-0.0036721122451126575,-0.0037106347735971212,-0.00180805753916502,13651.0,15243.0,13234.0,15084.0,0.4162147343158722,0.5255904793739319,0.38963910937309265,0.5140783786773682,0.0,0.0,0.0,0.0,0.0,0.0,0.0,0.0,1.844828724861145,0.042535416833287536,0.1976703534053375,0.07632512221535039,-0.07284066826105118,-0.039288610219955444,-0.0,-0.018250007182359695,-0.0007179991225712001,0.0
412,5,-0.0015190762933343649,-0.0006834652740508318,0.003429068485274911,0.025662656873464584,0.008922046050429344,-0.006981300190091133,0.013361915946006775,-0.020720982924103737,0.0008805893012322485,0.0,0.0,0.0,0.0,0.0,0.0,-0.010618465952575207,0.019516725093126297,-0.0,0.0,0.0,0.0,-0.0036721122451126575,-0.0037106347735971212,-0.00180805753916502,13651.0,15243.0,13234.0,15084.0,0.4162147343158722,0.5255904793739319,0.38963910937309265,0.5140783786773682,0.0,0.0,0.0,0.0,0.0,0.0,0.0,0.0,1.8780879974365234,0.05087092634823461,0.19930157541488971,0.08026558545768955,-0.08831261098384857,-0.03696335852146149,0.0,-0.018250007182359695,-0.0007179991225712001,0.0
417,5,-0.0015190762933343649,-0.0006834652740508318,0.003429068485274911,0.025662656873464584,0.008922046050429344,-0.006981300190091133,0.011702848598361015,-0.016799574717879295,0.0001058877314790152,0.0,0.0,0.0,0.0,0.0,0.0,-0.010618465952575207,0.019516725093126297,-0.0,0.0,0.0,0.0,-0.002246545162051916,0.0016205267747864127,-0.0014361555222421885,14163.0,14779.0,13584.0,14752.0,0.4500347673892975,0.49241968989372253,0.4118991792201996,0.4904750883579254,0.0,0.0,0.0,0.0,0.0,0.0,0.0,0.0,1.8780879974365234,0.05087092634823461,0.19930157541488971,0.08026558545768955,-0.08831261098384857,-0.03696335852146149,0.0,-0.011483723297715187,0.016451027244329453,0.0
423,5,-0.0015232154401019216,-0.0006944246124476194,0.0034077726304531097,0.025662656873464584,0.008922046050429344,-0.006981300190091133,0.011702848598361015,-0.016799574717879295,0.0001058877314790152,0.0,0.0,0.0,0.0,0.0,0.0,-0.010707109235227108,0.019404320046305656,-0.0,0.0,0.0,0.0,-0.002246545162051916,0.0016205267747864127,-0.0014361555222421885,14163.0,14779.0,13584.0,14752.0,0.4500347673892975,0.49241968989372253,0.4118991792201996,0.4904750883579254,0.0,0.0,0.0,0.0,0.0,0.0,0.0,0.0,1.8770654201507568,0.049238389842296684,0.19261568471575824,0.08023614586282467,-0.08775615692138672,-0.03725161775946617,0.0,-0.011483723297715187,0.016451027244329453,0.0
428,5,-0.0015232154401019216,-0.0006944246124476194,0.0034077726304531097,0.025662656873464584,0.008922046050429344,-0.006981300190091133,0.010035180486738682,-0.012747076340019703,-0.00029805710073560476,0.0,0.0,0.0,0.0,0.0,0.0,-0.010707109235227108,0.019404320046305656,-0.0,0.0,0.0,0.0,-0.0031372157391160727,0.0032441900111734867,-0.0005794090684503317,14559.0,14493.0,13724.0,14520.0,0.47707679867744446,0.4724791944026947,0.42091628909111023,0.47435644268989563,0.0,0.0,0.0,0.0,0.0,0.0,0.0,0.0,1.8770654201507568,0.049238389842296684,0.19261568471575824,0.08023614586282467,-0.08775615692138672,-0.03725161775946617,0.0,-0.011489983648061752,0.01638755202293396,0.0
433,5,-0.0014760810881853104,-0.000592162599787116,0.0035773483105003834,0.01592119038105011,-0.008702627383172512,-0.023141609504818916,0.010035180486738682,-0.012747076340019703,-0.00029805710073560476,0.0,0.0,0.0,0.0,0.0,0.0,-0.010725151747465134,0.019398143514990807,-0.0,0.0,0.0,0.0,-0.0031372157391160727,0.0032441900111734867,-0.0005794090684503317,14559.0,14493.0,13724.0,14520.0,0.47707679867744446,0.4724791944026947,0.42091628909111023,0.47435644268989563,0.0,0.0,0.0,0.0,0.0,0.0,0.0,0.0,1.877062201499939,0.051415884999113974,0.1922191625127188,0.07942127601908239,-0.08772806078195572,-0.03731432184576988,0.0,-0.011489983648061752,0.01638755202293396,0.0
438,5,-0.0014760810881853104,-0.000592162599787116,0.0035773483105003834,0.01592119038105011,-0.008702627383172512,-0.023141609504818916,0.009542538784444332,-0.010643895715475082,-0.00041204452281817794,0.0,0.0,0.0,0.0,0.0,0.0,-0.010725151747465134,0.019398143514990807,-0.0,0.0,0.0,0.0,-0.0037457847502082586,0.0047738743014633656,-0.0006596703315153718,14718.0,14656.0,13564.0,14824.0,0.4881041646003723,0.4837825298309326,0.4106207489967346,0.4955805540084839,0.0,0.0,0.0,0.0,0.0,0.0,0.0,0.0,1.877062201499939,0.051415884999113974,0.1922191625127188,0.07942127601908239,-0.08772806078195572,-0.03731432184576988,0.0,-0.010618465952575207,0.019516725093126297,0.0
443,5,-0.00151951820589602,-0.0005141012370586395,0.0036812189500778913,0.01592119038105011,-0.008702627383172512,-0.023141609504818916,0.009542538784444332,-0.010643895715475082,-0.00041204452281817794,0.0,0.0,0.0,0.0,0.0,0.0,0.008873840793967247,0.011971418745815754,-0.0,0.0,0.0,0.0,-0.0037457847502082586,0.0047738743014633656,-0.0006596703315153718,14718.0,14656.0,13564.0,14824.0,0.4881041646003723,0.4837825298309326,0.4106207489967346,0.4955805540084839,0.0,0.0,0.0,0.0,0.0,0.0,0.0,0.0,1.7837300300598145,0.048359197227936336,0.19303362239170474,0.07531734739249873,-0.051451634615659714,0.029338570311665535,0.0,-0.010618465952575207,0.019516725093126297,0.0
448,5,-0.00151951820589602,-0.0005141012370586395,0.0036812189500778913,0.01592119038105011,-0.008702627383172512,-0.023141609504818916,0.009427257813513279,-0.008104800246655941,-0.0009361411212012172,0.0,0.0,0.0,0.0,0.0,0.0,0.008873840793967247,0.011971418745815754,-0.0,0.0,0.0,0.0,-0.004018696956336498,0.004850058816373348,-0.0009190837736241519,14673.0,14713.0,13523.0,14834.0,0.485006183385849,0.4877796471118927,0.4079601466655731,0.496319442987442,0.0,0.0,0.0,0.0,0.0,0.0,0.0,0.0,1.7837300300598145,0.048359197227936336,0.19303362239170474,0.07531734739249873,-0.051451634615659714,0.029338570311665535,0.0,-0.010707109235227108,0.019404320046305656,0.0
453,5,-0.0015272186137735844,-0.0006771021871827543,0.004015064798295498,0.005444420967251062,0.01607906073331833,-0.04931815713644028,0.009427257813513279,-0.008104800246655941,-0.0009361411212012172,0.0,0.0,0.0,0.0,0.0,0.0,0.00900313537567854,0.011914570815861225,-0.0,0.0,0.0,0.0,-0.004018696956336498,0.004850058816373348,-0.0009190837736241519,14673.0,14713.0,13523.0,14834.0,0.485006183385849,0.4877796471118927,0.4079601466655731,0.496319442987442,0.0,0.0,0.0,0.0,0.0,0.0,0.0,0.0,1.7837352752685547,0.04972473035262045,0.20654624067398994,0.0769855201612074,-0.05120741203427315,0.029766108840703964,0.0,-0.010707109235227108,0.019404320046305656,0.0
458,5,-0.0015272186137735844,-0.0006771021871827543,0.004015064798295498,0.005444420967251062,0.01607906073331833,-0.04931815713644028,0.009427257813513279,-0.008104800246655941,-0.0009361411212012172,0.0,0.0,0.0,0.0,0.0,0.0,0.00900313537567854,0.011914570815861225,-0.0,0.0,0.0,0.0,-0.004018696956336498,0.004850058816373348,-0.0009190837736241519,14673.0,14713.0,13523.0,14834.0,0.485006183385849,0.4877796471118927,0.4079601466655731,0.496319442987442,0.0,0.0,0.0,0.0,0.0,0.0,0.0,0.0,1.7837352752685547,0.04972473035262045,0.20654624067398994,0.0769855201612074,-0.05120741203427315,0.029766108840703964,0.0,-0.010707109235227108,0.019404320046305656,0.0
463,5,-0.0015582562191411853,-0.0007620737887918949,0.00391207542270422,0.005444420967251062,0.01607906073331833,-0.04931815713644028,0.009162661619484425,-0.00660679442808032,-0.0012189015978947282,0.0,0.0,0.0,0.0,0.0,0.0,-0.019210953265428543,0.002738676033914089,-0.0,0.0,0.0,0.0,-0.0036092442460358143,0.004441268276423216,-0.001279219752177596,14423.0,14932.0,13333.0,15031.0,0.46765169501304626,0.5032157301902771,0.3958902657032013,0.5103044509887695,0.0,0.0,0.0,0.0,0.0,0.0,0.0,0.0,1.7993088960647583,0.05364528366913869,0.19882884722972252,0.08082963117518041,-0.011871828697621822,-0.06406409293413162,0.0,-0.010725151747465134,0.019398143514990807,0.0
468,5,-0.0015582562191411853,-0.0007620737887918949,0.00391207542270422,0.005444420967251062,0.01607906073331833,-0.04931815713644028,0.009162661619484425,-0.00660679442808032,-0.0012189015978947282,0.0,0.0,0.0,0.0,0.0,0.0,-0.019210953265428543,0.002738676033914089,-0.0,0.0,0.0,0.0,-0.0036092442460358143,0.004441268276423216,-0.001279219752177596,14423.0,14932.0,13333.0,15031.0,0.46765169501304626,0.5032157301902771,0.3958902657032013,0.5103044509887695,0.0,0.0,0.0,0.0,0.0,0.0,0.0,0.0,1.7993088960647583,0.05364528366913869,0.19882884722972252,0.08082963117518041,-0.011871828697621822,-0.06406409293413162,0.0,-0.010725151747465134,0.019398143514990807,0.0
473,5,-0.0016363889444619417,-0.0007890467531979084,0.0038947700522840023,0.005444420967251062,0.01607906073331833,-0.04931815713644028,0.009170746430754662,-0.004119265358895063,-0.001991425408050418,0.0,0.0,0.0,0.0,0.0,0.0,-0.019339848309755325,0.0026963609270751476,-0.0,0.0,0.0,0.0,-0.00022682991402689368,0.0011556887766346335,-0.0015386195154860616,13480.0,14737.0,13323.0,14799.0,0.40519800782203674,0.48943671584129333,0.3952576816082001,0.4938376247882843,0.0,0.0,0.0,0.0,0.0,0.0,0.0,0.0,1.800432562828064,0.054382469336897464,0.1933240908516755,0.08144310065479234,-0.01169566810131073,-0.06453410536050797,0.0,0.008873840793967247,0.011971418745815754,0.0
478,5,-0.0016363889444619417,-0.0007890467531979084,0.0038947700522840023,0.005444420967251062,0.01607906073331833,-0.04931815713644028,0.009170746430754662,-0.004119265358895063,-0.001991425408050418,0.0,0.0,0.0,0.0,0.0,0.0,-0.019339848309755325,0.0026963609270751476,-0.0,0.0,0.0,0.0,-0.00022682991402689368,0.0011556887766346335,-0.0015386195154860616,13480.0,14737.0,13323.0,14799.0,0.40519800782203674,0.48943671584129333,0.3952576816082001,0.4938376247882843,0.0,0.0,0.0,0.0,0.0,0.0,0.0,0.0,1.800432562828064,0.054382469336897464,0.1933240908516755,0.08144310065479234,-0.01169566810131073,-0.06453410536050797,0.0,0.008873840793967247,0.011971418745815754,0.0
484,5,-0.0017164598684757948,-0.0006506908102892339,0.0038611460477113724,-0.00743073457852006,-0.010171088390052319,-0.015692375600337982,0.009238080121576786,-0.0022606963757425547,-0.002557886065915227,0.0,0.0,0.0,0.0,0.0,0.0,-0.019383100792765617,0.002595697296783328,-0.0,0.0,0.0,0.0,-0.00586855411529541,-0.0030168495140969753,-0.002016328973695636,13403.0,14772.0,13408.0,14757.0,0.40031981468200684,0.49190855026245117,0.40065526962280273,0.49085164070129395,0.0,0.0,0.0,0.0,0.0,0.0,0.0,0.0,1.8006223440170288,0.05351519541895828,0.18594949640572386,0.07916731962107201,-0.011260210536420345,-0.06468521803617477,0.0,-0.019210953265428543,0.002738676033914089,0.0
489,5,-0.0017164598684757948,-0.0006506908102892339,0.0038611460477113724,-0.00743073457852006,-0.010171088390052319,-0.015692375600337982,0.009238080121576786,-0.0022606963757425547,-0.002557886065915227,0.0,0.0,0.0,0.0,0.0,0.0,-0.019383100792765617,0.002595697296783328,-0.0,0.0,0.0,0.0,-0.00586855411529541,-0.0030168495140969753,-0.002016328973695636,13403.0,14772.0,13408.0,14757.0,0.40031981468200684,0.49190855026245117,0.40065526962280273,0.49085164070129395,0.0,0.0,0.0,0.0,0.0,0.0,0.0,0.0,1.8006223440170288,0.05351519541895828,0.18594949640572386,0.07916731962107201,-0.011260210536420345,-0.06468521803617477,0.0,-0.019210953265428543,0.002738676033914089,0.0
494,5,-0.0018148957751691341,-0.0007794757839292288,0.0040051755495369434,-0.01478460244834423,0.011385761201381683,-0.02356051467359066,0.00923963077366352,0.00042448152089491487,-0.003447576193138957,0.0,0.0,0.0,0.0,0.0,0.0,0.01056730281561613,-0.008825365453958511,-0.0,0.0,0.0,0.0,-0.0059351082891225815,-0.002871772041544318,-0.0025553693994879723,13545.0,15446.0,13201.0,14339.0,0.4094027280807495,0.540439784526825,0.3875722289085388,0.461894154548645,0.0,0.0,0.0,0.0,0.0,0.0,0.0,0.0,1.762000560760498,0.05422290607568014,0.19103711330924927,0.08004740329811083,0.037468019872903824,0.034511517733335495,0.0,-0.019339848309755325,0.0026963609270751476,0.0
499,5,-0.0018148957751691341,-0.0007794757839292288,0.0040051755495369434,-0.01478460244834423,0.011385761201381683,-0.02356051467359066,0.00923963077366352,0.00042448152089491487,-0.003447576193138957,0.0,0.0,0.0,0.0,0.0,0.0,0.01056730281561613,-0.008825365453958511,-0.0,0.0,0.0,0.0,-0.0059351082891225815,-0.002871772041544318,-0.0025553693994879723,13545.0,15446.0,13201.0,14339.0,0.4094027280807495,0.540439784526825,0.3875722289085388,0.461894154548645,0.0,0.0,0.0,0.0,0.0,0.0,0.0,0.0,1.762000560760498,0.05422290607568014,0.19103711330924927,0.08004740329811083,0.037468019872903824,0.034511517733335495,0.0,-0.019339848309755325,0.0026963609270751476,0.0
