timestamp,dt,pos_x,pos_y,pos_z,vel_x,vel_y,vel_z,roll,pitch,yaw,agv_x,agv_y,agv_z,x_ref,y_ref,z_ref,roll_ref,pitch_ref,yaw_ref,x_vel_ref,y_vel_ref,z_vel_ref,x_torque,y_torque,z_torque,w0,w1,w2,w3,u0,u1,u2,u3,m0req,m1req,m2req,m3req,thrust0,thrust1,thrust2,thrust3,thrust_ref,roll_vicon,pitch_vicon,yaw_vicon,acc_x,acc_y,acc_z,roll_received,pitch_received,yaw_received
5,5,0.0,0.0,0.0,-0.0005651277024298906,0.001614538487046957,-0.001265636645257473,-0.0007458362961187959,-0.14192898571491241,0.0009121148032136261,0.0,0.0,0.0,0.0,0.0,0.0,-0.0019879082683473825,-0.0005352437146939337,-0.0,0.0,0.0,0.0,0.00019514310406520963,0.042629990726709366,4.9186604883288965e-05,1495.0,1495.0,1495.0,1495.0,0.0,0.0,0.0,0.0,0.0,0.0,0.0,0.0,0.0,0.0,0.0,0.0,1.6431427001953125,0.02738000424605144,0.22843972770629178,0.18912448919952965,0.002119228942319751,-0.006054519210010767,0.0,-0.0,-0.0,0.0
33,28,0.0,0.0,0.0,-0.00013514953025151044,0.0010911030694842339,-0.00039277630276046693,-0.0007458362961187959,-0.14192898571491241,0.0009121148032136261,0.0,0.0,0.0,0.0,0.0,0.0,-0.0019879082683473825,-0.0005352437146939337,-0.0,0.0,0.0,0.0,0.00019514310406520963,0.042629990726709366,4.9186604883288965e-05,1495.0,1495.0,1495.0,1495.0,0.0,0.0,0.0,0.0,0.0,0.0,0.0,0.0,0.0,0.0,0.0,0.0,1.6431427001953125,0.02692724338534912,0.2282376151965768,0.1889604708023941,0.002119228942319751,-0.006054519210010767,0.0,-0.0,-0.0,0.0
38,5,0.0,0.0,0.0,-0.00013514953025151044,0.0010911030694842339,-0.00039277630276046693,-0.0007399455062113702,-0.14194506406784058,0.0009097383008338511,0.0,0.0,0.0,0.0,0.0,0.0,-0.0013485202798619866,-0.00012848814367316663,-0.0,0.0,0.0,0.0,-0.00023723416961729527,0.042509764432907104,8.050498581724241e-05,1495.0,1495.0,1495.0,1495.0,0.0,0.0,0.0,0.0,0.0,0.0,0.0,0.0,0.0,0.0,0.0,0.0,1.6369341611862183,0.02692724338534912,0.2282376151965768,0.1889604708023941,0.0005068107275292277,-0.004091636277735233,0.0,-0.0019879082683473825,-0.0005352437146939337,0.0
43,5,0.0,0.0,0.0,-0.00013514953025151044,0.0010911030694842339,-0.00039277630276046693,-0.0007399455062113702,-0.14194506406784058,0.0009097383008338511,0.0,0.0,0.0,0.0,0.0,0.0,-0.0013485202798619866,-0.00012848814367316663,-0.0,0.0,0.0,0.0,-0.00023723416961729527,0.042509764432907104,8.050498581724241e-05,1495.0,1495.0,1495.0,1495.0,0.0,0.0,0.0,0.0,0.0,0.0,0.0,0.0,0.0,0.0,0.0,0.0,1.6369341611862183,0.027364863777729176,0.22800921248234818,0.18833675139540101,0.0005068107275292277,-0.004091636277735233,0.0,-0.0019879082683473825,-0.0005352437146939337,0.0
48,5,0.0,0.0,0.0,-0.00013514953025151044,0.0010911030694842339,-0.00039277630276046693,-0.0007717295084148645,-0.1419724076986313,0.000882684369571507,0.0,0.0,0.0,0.0,0.0,0.0,-0.0013485202798619866,-0.00012848814367316663,-0.0,0.0,0.0,0.0,-0.00023723416961729527,0.042509764432907104,8.050498581724241e-05,1495.0,1495.0,1495.0,1495.0,0.0,0.0,0.0,0.0,0.0,0.0,0.0,0.0,0.0,0.0,0.0,0.0,1.6369341611862183,0.027364863777729176,0.22800921248234818,0.18833675139540101,0.0005068107275292277,-0.004091636277735233,0.0,-0.0019879082683473825,-0.0005352437146939337,0.0
63,15,2.046289955615066e-05,8.635433005110826e-06,-8.157798220054246e-06,-0.00013514953025151044,0.0010911030694842339,-0.00039277630276046693,-0.0007717295084148645,-0.1419724076986313,0.000882684369571507,0.0,0.0,0.0,0.0,0.0,0.0,-0.0013329886132851243,-9.994688298320398e-05,-0.0,0.0,0.0,0.0,-9.93567009572871e-05,0.04251819849014282,9.352104098070413e-05,16301.0,10016.0,10097.0,16229.0,0.6053282618522644,0.2140520215034485,0.2178419828414917,0.5997118353843689,0.0,0.0,0.0,0.0,0.0,0.0,0.0,0.0,1.6367725133895874,0.02739796012022672,0.2271524932800408,0.18798382332155758,0.0003941931645385921,-0.004044111352413893,0.0,-0.0013485202798619866,-0.00012848814367316663,0.0
71,7,-3.101814399997238e-06,2.1782907424494624e-05,8.776698086876422e-05,-0.0018780657555907965,0.0020136930979788303,-0.010355734266340733,-0.0007717295084148645,-0.1419724076986313,0.000882684369571507,0.0,0.0,0.0,0.0,0.0,0.0,-0.0013329886132851243,-9.994688298320398e-05,-0.0,0.0,0.0,0.0,-9.93567009572871e-05,0.04251819849014282,9.352104098070413e-05,16301.0,10016.0,10097.0,16229.0,0.6053282618522644,0.2140520215034485,0.2178419828414917,0.5997118353843689,0.0,0.0,0.0,0.0,0.0,0.0,0.0,0.0,1.6367725133895874,0.02835967193661958,0.227375531576118,0.18893031524078413,0.0003941931645385921,-0.004044111352413893,0.0,-0.0013485202798619866,-0.00012848814367316663,0.0
76,5,-3.101814399997238e-06,2.1782907424494624e-05,8.776698086876422e-05,-0.0018780657555907965,0.0020136930979788303,-0.010355734266340733,-0.0007914945599623024,-0.14204400777816772,0.0008672200492583215,0.0,0.0,0.0,0.0,0.0,0.0,-0.00242469715885818,-0.0017718671588227153,-0.0,0.0,0.0,0.0,-8.743556827539578e-05,0.04273262619972229,0.00010053961159428582,16322.0,9981.0,10096.0,16229.0,0.6069793701171875,0.21242360770702362,0.21780331432819366,0.5997279286384583,0.0,0.0,0.0,0.0,0.0,0.0,0.0,0.0,1.6535125970840454,0.02835967193661958,0.227375531576118,0.18893031524078413,0.007059745956212282,-0.00743143679574132,0.0,-0.0013485202798619866,-0.00012848814367316663,0.0
82,6,-1.4391455138706988e-08,-2.0752941054524854e-05,1.1782885422917388e-07,-0.00038073555333539844,0.005909779109060764,0.006375604309141636,-0.0007914945599623024,-0.14204400777816772,0.0008672200492583215,0.0,0.0,0.0,0.0,0.0,0.0,-0.00242469715885818,-0.0017718671588227153,-0.0,0.0,0.0,0.0,-8.743556827539578e-05,0.04273262619972229,0.00010053961159428582,16322.0,9981.0,10096.0,16229.0,0.6069793701171875,0.21242360770702362,0.21780331432819366,0.5997279286384583,0.0,0.0,0.0,0.0,0.0,0.0,0.0,0.0,1.6535125970840454,0.028315175227158935,0.22896037351996987,0.1882019838575498,0.007059745956212282,-0.00743143679574132,0.0,-0.0013485202798619866,-0.00012848814367316663,0.0
87,5,-1.4391455138706988e-08,-2.0752941054524854e-05,1.1782885422917388e-07,-0.00038073555333539844,0.005909779109060764,0.006375604309141636,-0.0007914945599623024,-0.14204400777816772,0.0008672200492583215,0.0,0.0,0.0,0.0,0.0,0.0,-0.00242469715885818,-0.0017718671588227153,-0.0,0.0,0.0,0.0,-8.743556827539578e-05,0.04273262619972229,0.00010053961159428582,16322.0,9981.0,10096.0,16229.0,0.6069793701171875,0.21242360770702362,0.21780331432819366,0.5997279286384583,0.0,0.0,0.0,0.0,0.0,0.0,0.0,0.0,1.6535125970840454,0.028315175227158935,0.22896037351996987,0.1882019838575498,0.007059745956212282,-0.00743143679574132,0.0,-0.0013485202798619866,-0.00012848814367316663,0.0
92,5,6.349785053316737e-06,-1.1782231922552455e-05,7.734880114185216e-07,0.0006114069256000221,0.0012874264502897859,0.002471562474966049,-0.0007710233912803233,-0.14200720191001892,0.0008873900515027344,0.0,0.0,0.0,0.0,0.0,0.0,-0.007128101773560047,-0.0003514489799272269,-0.0,0.0,0.0,0.0,-0.0003090481914114207,0.04223423823714256,4.037684993818402e-05,16308.0,10008.0,10086.0,16230.0,0.6058998107910156,0.21370287239551544,0.21734587848186493,0.5998239517211914,0.0,0.0,0.0,0.0,0.0,0.0,0.0,0.0,1.6859983205795288,0.02860985023826611,0.22803258514097421,0.18813204097382824,0.0014277767622843385,-0.022275779396295547,-0.0,-0.00242469715885818,-0.0017718671588227153,0.0
97,5,6.349785053316737e-06,-1.1782231922552455e-05,7.734880114185216e-07,0.0006114069256000221,0.0012874264502897859,0.002471562474966049,-0.0007710233912803233,-0.14200720191001892,0.0008873900515027344,0.0,0.0,0.0,0.0,0.0,0.0,-0.007128101773560047,-0.0003514489799272269,-0.0,0.0,0.0,0.0,-0.0003090481914114207,0.04223423823714256,4.037684993818402e-05,16308.0,10008.0,10086.0,16230.0,0.6058998107910156,0.21370287239551544,0.21734587848186493,0.5998239517211914,0.0,0.0,0.0,0.0,0.0,0.0,0.0,0.0,1.6859983205795288,0.02860985023826611,0.22803258514097421,0.18813204097382824,0.0014277767622843385,-0.022275779396295547,-0.0,-0.00242469715885818,-0.0017718671588227153,0.0
102,5,4.643809461413184e-06,-1.4728379937878344e-05,5.595377297140658e-05,0.0006114069256000221,0.0012874264502897859,0.002471562474966049,-0.0007710233912803233,-0.14200720191001892,0.0008873900515027344,0.0,0.0,0.0,0.0,0.0,0.0,-0.007128101773560047,-0.0003514489799272269,-0.0,0.0,0.0,0.0,-0.0003090481914114207,0.04223423823714256,4.037684993818402e-05,16308.0,10008.0,10086.0,16230.0,0.6058998107910156,0.21370287239551544,0.21734587848186493,0.5998239517211914,0.0,0.0,0.0,0.0,0.0,0.0,0.0,0.0,1.6859983205795288,0.028271622023598734,0.22817284437049964,0.18891354412513867,-0.0023183999583125114,-0.0049088625237345695,-0.0,-0.00242469715885818,-0.0017718671588227153,0.0
107,5,4.643809461413184e-06,-1.4728379937878344e-05,5.595377297140658e-05,0.0006114069256000221,0.0012874264502897859,0.002471562474966049,-0.0007678008987568319,-0.1420023888349533,0.0008751581772230566,0.0,0.0,0.0,0.0,0.0,0.0,-0.0016143720131367445,0.0005864999839104712,-0.0,0.0,0.0,0.0,-0.0003139085602015257,0.04222390800714493,8.02802896942012e-05,16345.0,10161.0,10182.0,16259.0,0.6087515950202942,0.22083890438079834,0.22186720371246338,0.6020549535751343,0.0,0.0,0.0,0.0,0.0,0.0,0.0,0.0,1.6404728889465332,0.028271622023598734,0.22817284437049964,0.18891354412513867,-0.0023183999583125114,-0.0049088625237345695,-0.0,-0.00242469715885818,-0.0017718671588227153,0.0
112,5,-2.806731572491117e-06,1.16198934847489e-05,2.936462260549888e-05,-0.00064950215164572,-0.0026468222495168447,0.0041793230921030045,-0.0007678008987568319,-0.1420023888349533,0.0008751581772230566,0.0,0.0,0.0,0.0,0.0,0.0,0.003259151242673397,-0.0006151202251203358,-0.0,0.0,0.0,0.0,-0.0003139085602015257,0.04222390800714493,8.02802896942012e-05,16345.0,10161.0,10182.0,16259.0,0.6087515950202942,0.22083890438079834,0.22186720371246338,0.6020549535751343,0.0,0.0,0.0,0.0,0.0,0.0,0.0,0.0,1.6536104679107666,0.029073081895546034,0.2269764636820578,0.18842151280945346,0.00245099700987339,0.009989526122808456,-0.0,-0.00242469715885818,-0.0017718671588227153,0.0
117,5,-2.806731572491117e-06,1.16198934847489e-05,2.936462260549888e-05,-0.00064950215164572,-0.0026468222495168447,0.0041793230921030045,-0.0007678008987568319,-0.1420023888349533,0.0008751581772230566,0.0,0.0,0.0,0.0,0.0,0.0,0.003259151242673397,-0.0006151202251203358,-0.0,0.0,0.0,0.0,-0.00034653564216569066,0.042244043201208115,0.0001701037399470806,16345.0,10161.0,10182.0,16259.0,0.6087515950202942,0.22083890438079834,0.22186720371246338,0.6020549535751343,0.0,0.0,0.0,0.0,0.0,0.0,0.0,0.0,1.6536104679107666,0.029073081895546034,0.2269764636820578,0.18842151280945346,0.00245099700987339,0.009989526122808456,-0.0,-0.00242469715885818,-0.0017718671588227153,0.0
122,5,9.613951988285407e-06,-8.11118934507249e-06,3.753755663638003e-05,-0.00064950215164572,-0.0026468222495168447,0.0041793230921030045,-0.0007404108764603734,-0.14193473756313324,0.0008432542090304196,0.0,0.0,0.0,0.0,0.0,0.0,0.0032243768218904734,-0.0005980859859846532,-0.0,0.0,0.0,0.0,0.000790523539762944,0.04261636361479759,-2.4792163458187133e-05,16281.0,10059.0,10209.0,16364.0,0.603766918182373,0.21607691049575806,0.223150372505188,0.6102877259254456,0.0,0.0,0.0,0.0,0.0,0.0,0.0,0.0,1.6532819271087646,0.027492180217833735,0.2281177531829729,0.18887560872912382,0.0023826495744287968,0.009880976751446724,-0.0,0.003259151242673397,-0.0006151202251203358,0.0
134,12,-1.2128674825362395e-05,-4.588355295709334e-06,6.288512668106705e-05,-0.00286891614086926,-0.0014814690221101046,-0.0013699789997190237,-0.0007404108764603734,-0.14193473756313324,0.0008432542090304196,0.0,0.0,0.0,0.0,0.0,0.0,0.0032243768218904734,-0.0005980859859846532,-0.0,0.0,0.0,0.0,0.000790523539762944,0.04261636361479759,-2.4792163458187133e-05,16281.0,10059.0,10209.0,16364.0,0.603766918182373,0.21607691049575806,0.223150372505188,0.6102877259254456,0.0,0.0,0.0,0.0,0.0,0.0,0.0,0.0,1.6586544513702393,0.028620436657604196,0.22802541084009348,0.18875572471919702,0.010825078934431076,0.005530261900275946,0.0,0.003259151242673397,-0.0006151202251203358,0.0
139,5,-1.2128674825362395e-05,-4.588355295709334e-06,6.288512668106705e-05,-0.00286891614086926,-0.0014814690221101046,-0.0013699789997190237,-0.0007404108764603734,-0.14193473756313324,0.0008432542090304196,0.0,0.0,0.0,0.0,0.0,0.0,0.00179879495408386,-0.002708472777158022,-0.0,0.0,0.0,0.0,0.000790523539762944,0.04261636361479759,-2.4792163458187133e-05,16281.0,10059.0,10209.0,16364.0,0.603766918182373,0.21607691049575806,0.223150372505188,0.6102877259254456,0.0,0.0,0.0,0.0,0.0,0.0,0.0,0.0,1.6586544513702393,0.028620436657604196,0.22802541084009348,0.18875572471919702,0.010825078934431076,0.005530261900275946,0.0,0.003259151242673397,-0.0006151202251203358,0.0
144,5,-2.0642060007958207e-06,-5.29756198375253e-06,4.773918408318423e-05,-0.00286891614086926,-0.0014814690221101046,-0.0013699789997190237,-0.0007610659813508391,-0.14191247522830963,0.0008492679335176945,0.0,0.0,0.0,0.0,0.0,0.0,0.0017976692179217935,-0.0026948482263833284,-0.0,0.0,0.0,0.0,0.0008135082316584885,0.042655099183321,7.403410563711077e-05,16308.0,10011.0,10248.0,16343.0,0.6058890223503113,0.2138119339942932,0.22497934103012085,0.6086016297340393,0.0,0.0,0.0,0.0,0.0,0.0,0.0,0.0,1.658516764640808,0.027500156564446578,0.2279336290567862,0.18879578176556278,0.010769731365144253,0.005526342429220676,0.0,0.0032243768218904734,-0.0005980859859846532,0.0
149,5,-2.0642060007958207e-06,-5.29756198375253e-06,4.773918408318423e-05,-0.00286891614086926,-0.0014814690221101046,-0.0013699789997190237,-0.0007610659813508391,-0.14191247522830963,0.0008492679335176945,0.0,0.0,0.0,0.0,0.0,0.0,0.0017976692179217935,-0.0026948482263833284,-0.0,0.0,0.0,0.0,0.0008135082316584885,0.042655099183321,7.403410563711077e-05,16308.0,10011.0,10248.0,16343.0,0.6058890223503113,0.2138119339942932,0.22497934103012085,0.6086016297340393,0.0,0.0,0.0,0.0,0.0,0.0,0.0,0.0,1.658516764640808,0.027500156564446578,0.2279336290567862,0.18879578176556278,0.010769731365144253,0.005526342429220676,0.0,0.0032243768218904734,-0.0005980859859846532,0.0
154,5,-3.3686110327835195e-06,-1.8877869933930924e-06,3.9413342165062204e-05,-0.00286891614086926,-0.0014814690221101046,-0.0013699789997190237,-0.000753622327465564,-0.1419139802455902,0.0008548992336727679,0.0,0.0,0.0,0.0,0.0,0.0,0.0018037199042737484,-0.0026965797878801823,-0.0,0.0,0.0,0.0,0.0007633253699168563,0.04275793954730034,5.734619844588451e-05,16308.0,10131.0,10289.0,16314.0,0.605925440788269,0.21945418417453766,0.22693361341953278,0.6063412427902222,0.0,0.0,0.0,0.0,0.0,0.0,0.0,0.0,1.6585570573806763,0.028612816821659025,0.22809148349299585,0.1888847977961949,0.010776912793517113,0.005545077845454216,0.0,0.0032243768218904734,-0.0005980859859846532,0.0
159,5,-3.3686110327835195e-06,-1.8877869933930924e-06,3.9413342165062204e-05,-0.00286891614086926,-0.0014814690221101046,-0.0013699789997190237,-0.000753622327465564,-0.1419139802455902,0.0008548992336727679,0.0,0.0,0.0,0.0,0.0,0.0,0.0018037199042737484,-0.0026965797878801823,-0.0,0.0,0.0,0.0,0.0007633253699168563,0.04275793954730034,5.734619844588451e-05,16308.0,10131.0,10289.0,16314.0,0.605925440788269,0.21945418417453766,0.22693361341953278,0.6063412427902222,0.0,0.0,0.0,0.0,0.0,0.0,0.0,0.0,1.6585570573806763,0.028612816821659025,0.22809148349299585,0.1888847977961949,0.010776912793517113,0.005545077845454216,0.0,0.0032243768218904734,-0.0005980859859846532,0.0
165,5,5.3449810366146266e-05,-0.00010890345583902672,6.737444346072152e-05,0.005670643877238035,0.012249292805790901,-0.0039033235516399145,-0.000753622327465564,-0.1419139802455902,0.0008548992336727679,0.0,0.0,0.0,0.0,0.0,0.0,0.0018037176923826337,-0.0026965828146785498,-0.0,0.0,0.0,0.0,0.0005138764972798526,0.04197356104850769,-0.0004214711661916226,16185.0,10322.0,10128.0,16418.0,0.5963313579559326,0.22852541506290436,0.2193285971879959,0.614469051361084,0.0,0.0,0.0,0.0,0.0,0.0,0.0,0.0,1.6585571765899658,0.021040729202937557,0.23034415094220906,0.19272618577108075,0.010776924900710583,0.005545071326196194,0.0,0.00179879495408386,-0.002708472777158022,0.0
170,5,0.0003259992226958275,-6.032399323885329e-05,-7.774721598252654e-05,0.005670643877238035,0.012249292805790901,-0.0039033235516399145,-0.0007353700930252671,-0.1418687254190445,0.0007526123663410544,0.0,0.0,0.0,0.0,0.0,0.0,0.0018037176923826337,-0.0026965828146785498,-0.0,0.0,0.0,0.0,0.0005138764972798526,0.04197356104850769,-0.0004214711661916226,16185.0,10322.0,10128.0,16418.0,0.5963313579559326,0.22852541506290436,0.2193285971879959,0.614469051361084,0.0,0.0,0.0,0.0,0.0,0.0,0.0,0.0,1.6585571765899658,0.006732277633966787,0.2399606939954237,0.19379783977140866,0.010776924900710583,0.005545071326196194,0.0,0.00179879495408386,-0.002708472777158022,0.0
175,5,0.0003259992226958275,-6.032399323885329e-05,-7.774721598252654e-05,0.005670643877238035,0.012249292805790901,-0.0039033235516399145,-0.0006594630540348589,-0.14175041019916534,0.0010529319988563657,0.0,0.0,0.0,0.0,0.0,0.0,0.0018037176923826337,-0.0026965828146785498,-0.0,0.0,0.0,0.0,0.00037065325886942446,0.04191282019019127,0.000246197625529021,16104.0,10494.0,9942.0,16500.0,0.5900970697402954,0.23687215149402618,0.21061913669109344,0.6209686994552612,0.0,0.0,0.0,0.0,0.0,0.0,0.0,0.0,1.6585571765899658,0.006732277633966787,0.2399606939954237,0.19379783977140866,0.010776924900710583,0.005545071326196194,0.0,0.0018037199042737484,-0.0026965797878801823,0.0
180,5,0.0003261563542764634,-5.371893712435849e-05,-5.457512816064991e-05,0.0022871128749102354,0.0041071102023124695,-0.004341979511082172,-0.0006594630540348589,-0.14175041019916534,0.0010529319988563657,0.0,0.0,0.0,0.0,0.0,0.0,-0.014150943607091904,0.005425416864454746,-0.0,0.0,0.0,0.0,0.00037065325886942446,0.04191282019019127,0.000246197625529021,16104.0,10494.0,9942.0,16500.0,0.5900970697402954,0.23687215149402618,0.21061913669109344,0.6209686994552612,0.0,0.0,0.0,0.0,0.0,0.0,0.0,0.0,1.76401686668396,0.007885557292099644,0.23853542451598456,0.1939144746482218,-0.023059088736772537,-0.04626689478754997,0.0,0.0018037199042737484,-0.0026965797878801823,0.0
185,5,0.0003261563542764634,-5.371893712435849e-05,-5.457512816064991e-05,0.0022871128749102354,0.0041071102023124695,-0.004341979511082172,-0.0006594630540348589,-0.14175041019916534,0.0010529319988563657,0.0,0.0,0.0,0.0,0.0,0.0,-0.014150943607091904,0.005425416864454746,-0.0,0.0,0.0,0.0,0.00037065325886942446,0.04191282019019127,0.000246197625529021,16104.0,10494.0,9942.0,16500.0,0.5900970697402954,0.23687215149402618,0.21061913669109344,0.6209686994552612,0.0,0.0,0.0,0.0,0.0,0.0,0.0,0.0,1.76401686668396,0.007885557292099644,0.23853542451598456,0.1939144746482218,-0.023059088736772537,-0.04626689478754997,0.0,0.0018037199042737484,-0.0026965797878801823,0.0
190,5,0.0003261563542764634,-5.371893712435849e-05,-5.457512816064991e-05,0.0022871128749102354,0.0041071102023124695,-0.004341979511082172,-0.0005226039211265743,-0.1416069120168686,0.0010295163374394178,0.0,0.0,0.0,0.0,0.0,0.0,-0.0050512864254415035,0.002567598596215248,-0.0,0.0,0.0,0.0,0.00043161719804629683,0.04162338003516197,0.0011461070971563458,16613.0,9633.0,10859.0,15933.0,0.6298956274986267,0.1966484785079956,0.2550475001335144,0.5769656300544739,0.0,0.0,0.0,0.0,0.0,0.0,0.0,0.0,1.6765837669372559,0.007885557292099644,0.23853542451598456,0.1939144746482218,-0.010372853837907314,-0.015697570517659187,0.0,0.0018037176923826337,-0.0026965828146785498,0.0
195,5,0.0002715516311582178,-7.587493018945679e-05,-6.301685061771423e-05,0.0022871128749102354,0.0041071102023124695,-0.004341979511082172,-0.0005226039211265743,-0.1416069120168686,0.0010295163374394178,0.0,0.0,0.0,0.0,0.0,0.0,-0.0050512864254415035,0.002567598596215248,-0.0,0.0,0.0,0.0,0.00043161719804629683,0.04162338003516197,0.0011461070971563458,16613.0,9633.0,10859.0,15933.0,0.6298956274986267,0.1966484785079956,0.2550475001335144,0.5769656300544739,0.0,0.0,0.0,0.0,0.0,0.0,0.0,0.0,1.6765837669372559,0.008862960785441534,0.23634975172004094,0.19446296970012344,-0.010372853837907314,-0.015697570517659187,0.0,0.0018037176923826337,-0.0026965828146785498,0.0
200,5,0.00035607977770268917,4.128182990825735e-05,3.60501253453549e-05,0.01105822529643774,-0.012415967881679535,-0.013624828308820724,-0.00042069892515428364,-0.14151030778884888,0.0007572267204523087,0.0,0.0,0.0,0.0,0.0,0.0,-0.0050910781137645245,0.002493735635653138,-0.0,0.0,0.0,0.0,0.0003258665674366057,0.04190739616751671,-0.001548581407405436,15810.0,10930.0,9484.0,16766.0,0.5676770806312561,0.25866690278053284,0.19003230333328247,0.642180860042572,0.0,0.0,0.0,0.0,0.0,0.0,0.0,0.0,1.6764215230941772,0.007089511795775696,0.23405656998591828,0.19229301615391114,-0.01007347833365202,-0.015819694846868515,0.0,0.0018037176923826337,-0.0026965828146785498,0.0
205,5,0.00035607977770268917,4.128182990825735e-05,3.60501253453549e-05,0.01105822529643774,-0.012415967881679535,-0.013624828308820724,-0.00042069892515428364,-0.14151030778884888,0.0007572267204523087,0.0,0.0,0.0,0.0,0.0,0.0,-0.0050910781137645245,0.002493735635653138,-0.0,0.0,0.0,0.0,0.0003258665674366057,0.04190739616751671,-0.001548581407405436,15810.0,10930.0,9484.0,16766.0,0.5676770806312561,0.25866690278053284,0.19003230333328247,0.642180860042572,0.0,0.0,0.0,0.0,0.0,0.0,0.0,0.0,1.6764215230941772,0.007089511795775696,0.23405656998591828,0.19229301615391114,-0.01007347833365202,-0.015819694846868515,0.0,0.0018037176923826337,-0.0026965828146785498,0.0
210,5,9.962710464606062e-05,-5.944833537796512e-05,-0.0005489662289619446,0.01105822529643774,-0.012415967881679535,-0.013624828308820724,-0.0002600011648610234,-0.14151394367218018,0.0009355470538139343,0.0,0.0,0.0,0.0,0.0,0.0,0.014056451618671417,0.010037838481366634,-0.0,0.0,0.0,0.0,-0.0029785248916596174,0.0447356216609478,0.0007396293804049492,16983.0,10731.0,10289.0,16598.0,0.6597511768341064,0.24861454963684082,0.22694659233093262,0.6287045478820801,0.0,0.0,0.0,0.0,0.0,0.0,0.0,0.0,1.7958121299743652,0.036883170304607124,0.22528080316210172,0.18593123433263858,-0.043431300669908524,0.0467863529920578,0.0,-0.014150943607091904,0.005425416864454746,0.0
215,5,9.962710464606062e-05,-5.944833537796512e-05,-0.0005489662289619446,0.01105822529643774,-0.012415967881679535,-0.013624828308820724,-0.0002600011648610234,-0.14151394367218018,0.0009355470538139343,0.0,0.0,0.0,0.0,0.0,0.0,0.014056451618671417,0.010037838481366634,-0.0,0.0,0.0,0.0,-0.0029785248916596174,0.0447356216609478,0.0007396293804049492,16983.0,10731.0,10289.0,16598.0,0.6597511768341064,0.24861454963684082,0.22694659233093262,0.6287045478820801,0.0,0.0,0.0,0.0,0.0,0.0,0.0,0.0,1.7958121299743652,0.036883170304607124,0.22528080316210172,0.18593123433263858,-0.043431300669908524,0.0467863529920578,0.0,-0.014150943607091904,0.005425416864454746,0.0
220,5,0.0002111049834638834,-4.903452645521611e-05,-0.00021872964862268418,0.01780063472688198,-0.006216044072061777,-0.04507831856608391,-0.00010941223445115611,-0.1415282040834427,0.0008985582971945405,0.0,0.0,0.0,0.0,0.0,0.0,0.013917479664087296,0.009731164202094078,-0.0,0.0,0.0,0.0,-0.001194044016301632,0.044047318398952484,0.00069617317058146,16881.0,9649.0,10523.0,16096.0,0.6514502763748169,0.19735229015350342,0.23830735683441162,0.5894738435745239,0.0,0.0,0.0,0.0,0.0,0.0,0.0,0.0,1.7922567129135132,0.018396027702236774,0.2309874758469854,0.18951874097863297,-0.04202115908265114,0.046232130378484726,0.0,-0.0050512864254415035,0.002567598596215248,0.0
225,5,0.0002111049834638834,-4.903452645521611e-05,-0.00021872964862268418,0.01780063472688198,-0.006216044072061777,-0.04507831856608391,-0.00010941223445115611,-0.1415282040834427,0.0008985582971945405,0.0,0.0,0.0,0.0,0.0,0.0,0.013917479664087296,0.009731164202094078,-0.0,0.0,0.0,0.0,-0.001194044016301632,0.044047318398952484,0.00069617317058146,16881.0,9649.0,10523.0,16096.0,0.6514502763748169,0.19735229015350342,0.23830735683441162,0.5894738435745239,0.0,0.0,0.0,0.0,0.0,0.0,0.0,0.0,1.7922567129135132,0.018396027702236774,0.2309874758469854,0.18951874097863297,-0.04202115908265114,0.046232130378484726,0.0,-0.0050512864254415035,0.002567598596215248,0.0
231,5,0.00025587237905710936,-9.045764454640448e-05,-0.00019849700038321316,0.012492342852056026,0.0024843565188348293,-0.020459245890378952,0.000154200941324234,-0.14217151701450348,0.0008280150359496474,0.0,0.0,0.0,0.0,0.0,0.0,0.00684372941032052,0.015519908629357815,-0.0,0.0,0.0,0.0,-0.001175814657472074,0.04475904256105423,-0.000806916446890682,16307.0,10627.0,9485.0,16703.0,0.605774462223053,0.243414506316185,0.19009675085544586,0.6371358633041382,0.0,0.0,0.0,0.0,0.0,0.0,0.0,0.0,1.816260814666748,0.019695140873814083,0.23122982781066367,0.18919469664909278,-0.067919060587883,0.023039519786834717,0.0,-0.0050910781137645245,0.002493735635653138,0.0
236,5,0.00025587237905710936,-9.045764454640448e-05,-0.00019849700038321316,0.012492342852056026,0.0024843565188348293,-0.020459245890378952,0.000154200941324234,-0.14217151701450348,0.0008280150359496474,0.0,0.0,0.0,0.0,0.0,0.0,0.00684372941032052,0.015519908629357815,-0.0,0.0,0.0,0.0,-0.001175814657472074,0.04475904256105423,-0.000806916446890682,16307.0,10627.0,9485.0,16703.0,0.605774462223053,0.243414506316185,0.19009675085544586,0.6371358633041382,0.0,0.0,0.0,0.0,0.0,0.0,0.0,0.0,1.816260814666748,0.019695140873814083,0.23122982781066367,0.18919469664909278,-0.067919060587883,0.023039519786834717,0.0,-0.0050910781137645245,0.002493735635653138,0.0
241,5,0.00027646642411127687,-5.618541399599053e-05,5.0895701861009e-05,0.012492342852056026,0.0024843565188348293,-0.020459245890378952,0.00038285483606159687,-0.14241242408752441,0.0010044032242149115,0.0,0.0,0.0,0.0,0.0,0.0,-0.003012940287590027,0.011395924724638462,-0.0,0.0,0.0,0.0,0.002738850424066186,0.046694327145814896,0.0010595613857731223,17124.0,9768.0,11228.0,16836.0,0.6712526679039001,0.2026679813861847,0.27409568428993225,0.6477957367897034,0.0,0.0,0.0,0.0,0.0,0.0,0.0,0.0,1.7575106620788574,0.019083720089647822,0.22910065143543895,0.18957334647034732,-0.04826008528470993,-0.009815125726163387,0.0,0.014056451618671417,0.010037838481366634,0.0
246,5,0.00027646642411127687,-5.618541399599053e-05,5.0895701861009e-05,0.012492342852056026,0.0024843565188348293,-0.020459245890378952,0.00038285483606159687,-0.14241242408752441,0.0010044032242149115,0.0,0.0,0.0,0.0,0.0,0.0,-0.003012940287590027,0.011395924724638462,-0.0,0.0,0.0,0.0,0.002738850424066186,0.046694327145814896,0.0010595613857731223,17124.0,9768.0,11228.0,16836.0,0.6712526679039001,0.2026679813861847,0.27409568428993225,0.6477957367897034,0.0,0.0,0.0,0.0,0.0,0.0,0.0,0.0,1.7575106620788574,0.019083720089647822,0.22910065143543895,0.18957334647034732,-0.04826008528470993,-0.009815125726163387,0.0,0.014056451618671417,0.010037838481366634,0.0
251,5,0.00030940002761781216,-5.6443128414684907e-05,0.00040971816633827984,0.008948969654738903,0.0010246684541925788,-0.051242396235466,0.0016609522281214595,-0.1400044709444046,0.001243045786395669,0.0,0.0,0.0,0.0,0.0,0.0,-0.002954806201159954,0.011421618051826954,-0.0,0.0,0.0,0.0,-0.0007370647508651018,0.04220446199178696,0.00109997414983809,17251.0,10372.0,11658.0,16315.0,0.6817629337310791,0.23091723024845123,0.29718244075775146,0.6063982248306274,0.0,0.0,0.0,0.0,0.0,0.0,0.0,0.0,1.7577077150344849,0.019140778672975423,0.22119422615720558,0.19092741456720588,-0.04837431758642197,-0.009626824408769608,0.0,0.00684372941032052,0.015519908629357815,0.0
256,5,0.00030940002761781216,-5.6443128414684907e-05,0.00040971816633827984,0.008948969654738903,0.0010246684541925788,-0.051242396235466,0.0016609522281214595,-0.1400044709444046,0.001243045786395669,0.0,0.0,0.0,0.0,0.0,0.0,-0.002954806201159954,0.011421618051826954,-0.0,0.0,0.0,0.0,-0.0007370647508651018,0.04220446199178696,0.00109997414983809,17251.0,10372.0,11658.0,16315.0,0.6817629337310791,0.23091723024845123,0.29718244075775146,0.6063982248306274,0.0,0.0,0.0,0.0,0.0,0.0,0.0,0.0,1.7577077150344849,0.019140778672975423,0.22119422615720558,0.19092741456720588,-0.04837431758642197,-0.009626824408769608,0.0,0.00684372941032052,0.015519908629357815,0.0
261,5,0.000277752464171499,-6.198800838319585e-05,0.0008783364901319146,-0.00021811774058733135,0.001075252890586853,-0.07673116028308868,0.003124188631772995,-0.1351422816514969,0.0016736432444304228,0.0,0.0,0.0,0.0,0.0,0.0,-0.0013022550847381353,0.008503928780555725,-0.0,0.0,0.0,0.0,-0.00394103629514575,0.03004397451877594,0.0019922649953514338,16771.0,11184.0,12471.0,14884.0,0.6425466537475586,0.27181297540664673,0.3433223366737366,0.49982866644859314,0.0,0.0,0.0,0.0,0.0,0.0,0.0,0.0,1.7211781740188599,0.021509406880129818,0.21157784971741123,0.19193640651503374,-0.035268887877464294,-0.004154609516263008,0.0,-0.003012940287590027,0.011395924724638462,0.0
266,5,0.000277752464171499,-6.198800838319585e-05,0.0008783364901319146,-0.00021811774058733135,0.001075252890586853,-0.07673116028308868,0.003124188631772995,-0.1351422816514969,0.0016736432444304228,0.0,0.0,0.0,0.0,0.0,0.0,-0.0013022550847381353,0.008503928780555725,-0.0,0.0,0.0,0.0,-0.00394103629514575,0.03004397451877594,0.0019922649953514338,16771.0,11184.0,12471.0,14884.0,0.6425466537475586,0.27181297540664673,0.3433223366737366,0.49982866644859314,0.0,0.0,0.0,0.0,0.0,0.0,0.0,0.0,1.7211781740188599,0.021509406880129818,0.21157784971741123,0.19193640651503374,-0.035268887877464294,-0.004154609516263008,0.0,-0.003012940287590027,0.011395924724638462,0.0
271,5,0.00018280791118741035,-0.00015010882634669542,0.00137453677598387,-0.00021811774058733135,0.001075252890586853,-0.07673116028308868,0.006074496544897556,-0.12135767936706543,0.003373938612639904,0.0,0.0,0.0,0.0,0.0,0.0,-0.0014411744195967913,0.0001822450285544619,-0.0,0.0,0.0,0.0,-0.005249436479061842,0.01636703684926033,0.004832457285374403,16813.0,11322.0,14310.0,12962.0,0.6459441184997559,0.2790607511997223,0.45991793274879456,0.37278494238853455,0.0,0.0,0.0,0.0,0.0,0.0,0.0,0.0,1.6377767324447632,0.026510479936074794,0.19630076694240542,0.19297921411114166,-0.0007192201446741819,-0.004375014919787645,0.0,-0.002954806201159954,0.011421618051826954,0.0
276,5,0.00018280791118741035,-0.00015010882634669542,0.00137453677598387,-0.00021811774058733135,0.001075252890586853,-0.07673116028308868,0.006074496544897556,-0.12135767936706543,0.003373938612639904,0.0,0.0,0.0,0.0,0.0,0.0,-0.0014411744195967913,0.0001822450285544619,-0.0,0.0,0.0,0.0,-0.005249436479061842,0.01636703684926033,0.004832457285374403,16813.0,11322.0,14310.0,12962.0,0.6459441184997559,0.2790607511997223,0.45991793274879456,0.37278494238853455,0.0,0.0,0.0,0.0,0.0,0.0,0.0,0.0,1.6377767324447632,0.026510479936074794,0.19630076694240542,0.19297921411114166,-0.0007192201446741819,-0.004375014919787645,0.0,-0.002954806201159954,0.011421618051826954,0.0
281,5,2.7941294320044108e-05,-0.00022763348533771932,0.0019761002622544765,-0.018671242520213127,0.009733060374855995,-0.1028800755739212,0.008377808146178722,-0.10803422331809998,0.004107167944312096,0.0,0.0,0.0,0.0,0.0,0.0,-0.0015998614253476262,5.0051177822751924e-05,-0.0,0.0,0.0,0.0,-0.0062078312039375305,-0.00038153171772137284,0.0021198871545493603,15026.0,13772.0,14457.0,12646.0,0.5099183917045593,0.42410483956336975,0.46997126936912537,0.3537132441997528,0.0,0.0,0.0,0.0,0.0,0.0,0.0,0.0,1.6389434337615967,0.027550316066504713,0.17656914102986698,0.19456766550956037,-0.00019766492187045515,-0.004860204644501209,0.0,-0.002954806201159954,0.011421618051826954,0.0
286,5,2.7941294320044108e-05,-0.00022763348533771932,0.0019761002622544765,-0.018671242520213127,0.009733060374855995,-0.1028800755739212,0.008377808146178722,-0.10803422331809998,0.004107167944312096,0.0,0.0,0.0,0.0,0.0,0.0,-0.0015998614253476262,5.0051177822751924e-05,-0.0,0.0,0.0,0.0,-0.0062078312039375305,-0.00038153171772137284,0.0021198871545493603,15026.0,13772.0,14457.0,12646.0,0.5099183917045593,0.42410483956336975,0.46997126936912537,0.3537132441997528,0.0,0.0,0.0,0.0,0.0,0.0,0.0,0.0,1.6389434337615967,0.027550316066504713,0.17656914102986698,0.19456766550956037,-0.00019766492187045515,-0.004860204644501209,0.0,-0.002954806201159954,0.011421618051826954,0.0
292,5,-0.00019112226436845958,-0.0003585182421375066,0.0024355778004974127,-0.018671242520213127,0.009733060374855995,-0.1028800755739212,0.011729913763701916,-0.08092252165079117,0.00489040557295084,0.0,0.0,0.0,0.0,0.0,0.0,-0.011093277484178543,-0.015789438039064407,-0.0,0.0,0.0,0.0,-0.004758897237479687,-0.03374336659908295,0.001958803739398718,14343.0,14194.0,15847.0,10487.0,0.4621778428554535,0.45207327604293823,0.570418119430542,0.23650899529457092,0.0,0.0,0.0,0.0,0.0,0.0,0.0,0.0,1.8361690044403076,0.03961874279490098,0.15058413919639968,0.19341311980169812,0.06985322386026382,-0.03775416687130928,0.0,-0.0014411744195967913,0.0001822450285544619,0.0
297,5,-0.00019112226436845958,-0.0003585182421375066,0.0024355778004974127,-0.018671242520213127,0.009733060374855995,-0.1028800755739212,0.011729913763701916,-0.08092252165079117,0.00489040557295084,0.0,0.0,0.0,0.0,0.0,0.0,-0.011093277484178543,-0.015789438039064407,-0.0,0.0,0.0,0.0,-0.004758897237479687,-0.03374336659908295,0.001958803739398718,14343.0,14194.0,15847.0,10487.0,0.4621778428554535,0.45207327604293823,0.570418119430542,0.23650899529457092,0.0,0.0,0.0,0.0,0.0,0.0,0.0,0.0,1.8361690044403076,0.03961874279490098,0.15058413919639968,0.19341311980169812,0.06985322386026382,-0.03775416687130928,0.0,-0.0014411744195967913,0.0001822450285544619,0.0
302,5,-0.0001870840642368421,-0.0004887692630290985,0.0028876601718366146,-0.006983913015574217,0.019523348659276962,-0.09540191292762756,0.012882862240076065,-0.060197614133358,0.005330740474164486,0.0,0.0,0.0,0.0,0.0,0.0,-0.011282920837402344,-0.016030363738536835,-0.0,0.0,0.0,0.0,-0.0015108842635527253,-0.038802120834589005,0.0012081942986696959,11726.0,15631.0,15876.0,9928.0,0.3009057343006134,0.5542237758636475,0.5726325511932373,0.21001464128494263,0.0,0.0,0.0,0.0,0.0,0.0,0.0,0.0,1.8397910594940186,0.0321275149787578,0.13308611354065672,0.19604544809627295,0.0710587427020073,-0.03847528621554375,0.0,-0.0015998614253476262,5.0051177822751924e-05,0.0
307,5,-0.0001870840642368421,-0.0004887692630290985,0.0028876601718366146,-0.006983913015574217,0.019523348659276962,-0.09540191292762756,0.012882862240076065,-0.060197614133358,0.005330740474164486,0.0,0.0,0.0,0.0,0.0,0.0,-0.011282920837402344,-0.016030363738536835,-0.0,0.0,0.0,0.0,-0.0015108842635527253,-0.038802120834589005,0.0012081942986696959,11726.0,15631.0,15876.0,9928.0,0.3009057343006134,0.5542237758636475,0.5726325511932373,0.21001464128494263,0.0,0.0,0.0,0.0,0.0,0.0,0.0,0.0,1.8397910594940186,0.0321275149787578,0.13308611354065672,0.19604544809627295,0.0710587427020073,-0.03847528621554375,0.0,-0.0015998614253476262,5.0051177822751924e-05,0.0
312,5,-0.0004024179943371564,-0.0005367870908230543,0.0034352780785411596,-0.006983913015574217,0.019523348659276962,-0.09540191292762756,0.012139908969402313,-0.029097773134708405,0.0050837332382798195,0.0,0.0,0.0,0.0,0.0,0.0,-0.02226591855287552,-0.006140229292213917,-0.0,0.0,0.0,0.0,-0.0015108842635527253,-0.038802120834589005,0.0012081942986696959,11447.0,15538.0,16505.0,9359.0,0.28573814034461975,0.5472607612609863,0.6213396787643433,0.18460489809513092,0.0,0.0,0.0,0.0,0.0,0.0,0.0,0.0,1.8394908905029297,0.0349868260048418,0.105963522497688,0.1982761804974368,0.027209699153900146,-0.07590696215629578,0.0,-0.0015998614253476262,5.0051177822751924e-05,0.0
317,5,-0.0004024179943371564,-0.0005367870908230543,0.0034352780785411596,-0.006983913015574217,0.019523348659276962,-0.09540191292762756,0.012139908969402313,-0.029097773134708405,0.0050837332382798195,0.0,0.0,0.0,0.0,0.0,0.0,-0.02226591855287552,-0.006140229292213917,-0.0,0.0,0.0,0.0,-0.0015108842635527253,-0.038802120834589005,0.0012081942986696959,11447.0,15538.0,16505.0,9359.0,0.28573814034461975,0.5472607612609863,0.6213396787643433,0.18460489809513092,0.0,0.0,0.0,0.0,0.0,0.0,0.0,0.0,1.8394908905029297,0.0349868260048418,0.105963522497688,0.1982761804974368,0.027209699153900146,-0.07590696215629578,0.0,-0.0015998614253476262,5.0051177822751924e-05,0.0
322,5,-0.0004531675949692726,-0.0006255494663491845,0.003699204884469509,-0.008883517235517502,0.018460819497704506,-0.069831982254982,0.010927150025963783,-0.010954448021948338,0.005574832204729319,0.0,0.0,0.0,0.0,0.0,0.0,-0.022323384881019592,-0.00640192162245512,-0.0,0.0,0.0,0.0,-0.005532288923859596,-0.035477060824632645,0.0005115026724524796,12423.0,16319.0,17398.0,9596.0,0.34052959084510803,0.6067246794700623,0.6939128041267395,0.19500191509723663,0.0,0.0,0.0,0.0,0.0,0.0,0.0,0.0,1.8411858081817627,0.02844241593280309,0.09292801133129648,0.19842336084764797,0.02839544415473938,-0.07617293298244476,0.0,-0.011282920837402344,-0.016030363738536835,0.0
327,5,-0.0004531675949692726,-0.0006255494663491845,0.003699204884469509,-0.008883517235517502,0.018460819497704506,-0.069831982254982,0.010927150025963783,-0.010954448021948338,0.005574832204729319,0.0,0.0,0.0,0.0,0.0,0.0,-0.022323384881019592,-0.00640192162245512,-0.0,0.0,0.0,0.0,-0.005532288923859596,-0.035477060824632645,0.0005115026724524796,12423.0,16319.0,17398.0,9596.0,0.34052959084510803,0.6067246794700623,0.6939128041267395,0.19500191509723663,0.0,0.0,0.0,0.0,0.0,0.0,0.0,0.0,1.8411858081817627,0.02844241593280309,0.09292801133129648,0.19842336084764797,0.02839544415473938,-0.07617293298244476,0.0,-0.011282920837402344,-0.016030363738536835,0.0
332,5,-0.0004924985114485025,-0.0006698596989735961,0.004078989382833242,-0.008883517235517502,0.018460819497704506,-0.069831982254982,0.01142497081309557,0.009089757688343525,0.005386729724705219,0.0,0.0,0.0,0.0,0.0,0.0,-0.021307537332177162,-0.008074293844401836,-0.0,0.0,0.0,0.0,-0.008288177661597729,-0.0198516845703125,0.001334460568614304,12567.0,16493.0,16352.0,10978.0,0.3489740788936615,0.6204155683517456,0.6092998385429382,0.2611015737056732,0.0,0.0,0.0,0.0,0.0,0.0,0.0,0.0,1.8404576778411865,0.029850178815302317,0.08757890839623153,0.19860624334907598,0.03579966723918915,-0.0726788341999054,0.0,-0.02226591855287552,-0.006140229292213917,0.0
337,5,-0.0004924985114485025,-0.0006698596989735961,0.004078989382833242,-0.008883517235517502,0.018460819497704506,-0.069831982254982,0.01142497081309557,0.009089757688343525,0.005386729724705219,0.0,0.0,0.0,0.0,0.0,0.0,-0.021307537332177162,-0.008074293844401836,-0.0,0.0,0.0,0.0,-0.008288177661597729,-0.0198516845703125,0.001334460568614304,12567.0,16493.0,16352.0,10978.0,0.3489740788936615,0.6204155683517456,0.6092998385429382,0.2611015737056732,0.0,0.0,0.0,0.0,0.0,0.0,0.0,0.0,1.8404576778411865,0.029850178815302317,0.08757890839623153,0.19860624334907598,0.03579966723918915,-0.0726788341999054,0.0,-0.02226591855287552,-0.006140229292213917,0.0
342,5,-0.0004959699581377208,-0.0007535897893831134,0.003942829091101885,-0.008883517235517502,0.018460819497704506,-0.069831982254982,0.011933350935578346,0.016384854912757874,0.005522764753550291,0.0,0.0,0.0,0.0,0.0,0.0,-0.021370185539126396,-0.008119872771203518,-0.0,0.0,0.0,0.0,-0.006259785499423742,-0.006275354418903589,-0.00037425136542879045,14340.0,15070.0,14199.0,13601.0,0.46198341250419617,0.5131009221076965,0.45241817831993103,0.4129551947116852,0.0,0.0,0.0,0.0,0.0,0.0,0.0,0.0,1.8412762880325317,0.030437140217455496,0.08652898437209454,0.19780183306714916,0.03601771220564842,-0.07292488217353821,0.0,-0.021307537332177162,-0.008074293844401836,0.0
347,5,-0.0004959699581377208,-0.0007535897893831134,0.003942829091101885,-0.008883517235517502,0.018460819497704506,-0.069831982254982,0.011933350935578346,0.016384854912757874,0.005522764753550291,0.0,0.0,0.0,0.0,0.0,0.0,-0.021370185539126396,-0.008119872771203518,-0.0,0.0,0.0,0.0,-0.006259785499423742,-0.006275354418903589,-0.00037425136542879045,14340.0,15070.0,14199.0,13601.0,0.46198341250419617,0.5131009221076965,0.45241817831993103,0.4129551947116852,0.0,0.0,0.0,0.0,0.0,0.0,0.0,0.0,1.8412762880325317,0.030437140217455496,0.08652898437209454,0.19780183306714916,0.03601771220564842,-0.07292488217353821,0.0,-0.021307537332177162,-0.008074293844401836,0.0
352,5,-0.00034941890044137836,-0.0008093299111351371,0.003945061005651951,0.014032721519470215,0.014073138125240803,-0.028200652450323105,0.012271973304450512,0.017765231430530548,0.005510411690920591,0.0,0.0,0.0,0.0,0.0,0.0,-0.02149314433336258,-0.008119753561913967,-0.0,0.0,0.0,0.0,-0.007036148104816675,0.005269218701869249,0.0022094380110502243,15744.0,13657.0,14140.0,13610.0,0.5626783967018127,0.416562557220459,0.4484887719154358,0.4135465621948242,0.0,0.0,0.0,0.0,0.0,0.0,0.0,0.0,1.8423728942871094,0.022089401177388727,0.09527142392602934,0.1987059249009761,0.03603854030370712,-0.07338804006576538,0.0,-0.021370185539126396,-0.008119872771203518,0.0
357,5,-0.00034941890044137836,-0.0008093299111351371,0.003945061005651951,0.014032721519470215,0.014073138125240803,-0.028200652450323105,0.012271973304450512,0.017765231430530548,0.005510411690920591,0.0,0.0,0.0,0.0,0.0,0.0,-0.02149314433336258,-0.008119753561913967,-0.0,0.0,0.0,0.0,-0.007036148104816675,0.005269218701869249,0.0022094380110502243,15744.0,13657.0,14140.0,13610.0,0.5626783967018127,0.416562557220459,0.4484887719154358,0.4135465621948242,0.0,0.0,0.0,0.0,0.0,0.0,0.0,0.0,1.8423728942871094,0.022089401177388727,0.09527142392602934,0.1987059249009761,0.03603854030370712,-0.07338804006576538,0.0,-0.021370185539126396,-0.008119872771203518,0.0
363,5,-0.0002591568627394736,-0.0008578603737987578,0.0038603751454502344,0.016444532200694084,0.011452916078269482,-0.0011179647408425808,0.012317974120378494,0.014074920676648617,0.0059111774899065495,0.0,0.0,0.0,0.0,0.0,0.0,-0.016889842227101326,0.011508415453135967,-0.0,0.0,0.0,0.0,-0.005761411506682634,0.010871430858969688,-0.0018029026687145233,14974.0,14409.0,12621.0,15112.0,0.5062063336372375,0.46669045090675354,0.35222265124320984,0.5161568522453308,0.0,0.0,0.0,0.0,0.0,0.0,0.0,0.0,1.828649878501892,0.022131429001508697,0.1042564576463117,0.19811866788849375,-0.050702162086963654,-0.05724363401532173,0.0,-0.021370185539126396,-0.008119872771203518,0.0
368,5,-0.0002591568627394736,-0.0008578603737987578,0.0038603751454502344,0.016444532200694084,0.011452916078269482,-0.0011179647408425808,0.012317974120378494,0.014074920676648617,0.0059111774899065495,0.0,0.0,0.0,0.0,0.0,0.0,-0.016889842227101326,0.011508415453135967,-0.0,0.0,0.0,0.0,-0.005761411506682634,0.010871430858969688,-0.0018029026687145233,14974.0,14409.0,12621.0,15112.0,0.5062063336372375,0.46669045090675354,0.35222265124320984,0.5161568522453308,0.0,0.0,0.0,0.0,0.0,0.0,0.0,0.0,1.828649878501892,0.022131429001508697,0.1042564576463117,0.19811866788849375,-0.050702162086963654,-0.05724363401532173,0.0,-0.021370185539126396,-0.008119872771203518,0.0
373,5,-0.00018919265130534768,-0.0008900077664293349,0.0036867770832031965,0.016444532200694084,0.011452916078269482,-0.0011179647408425808,0.011687859892845154,0.005444253794848919,0.005438754800707102,0.0,0.0,0.0,0.0,0.0,0.0,-0.01406300999224186,0.013666524551808834,-0.0,0.0,0.0,0.0,-0.005518679972738028,0.013601602986454964,0.0008887226576916873,15738.0,13502.0,13245.0,14648.0,0.5622106194496155,0.4066258370876312,0.39031025767326355,0.48322615027427673,0.0,0.0,0.0,0.0,0.0,0.0,0.0,0.0,1.8295562267303467,0.021320398520898384,0.10693335105675932,0.19813664740765824,-0.06024198606610298,-0.047687724232673645,0.0,-0.02149314433336258,-0.008119753561913967,0.0
378,5,-0.00018919265130534768,-0.0008900077664293349,0.0036867770832031965,0.016444532200694084,0.011452916078269482,-0.0011179647408425808,0.011687859892845154,0.005444253794848919,0.005438754800707102,0.0,0.0,0.0,0.0,0.0,0.0,-0.01406300999224186,0.013666524551808834,-0.0,0.0,0.0,0.0,-0.005518679972738028,0.013601602986454964,0.0008887226576916873,15738.0,13502.0,13245.0,14648.0,0.5622106194496155,0.4066258370876312,0.39031025767326355,0.48322615027427673,0.0,0.0,0.0,0.0,0.0,0.0,0.0,0.0,1.8295562267303467,0.021320398520898384,0.10693335105675932,0.19813664740765824,-0.06024198606610298,-0.047687724232673645,0.0,-0.02149314433336258,-0.008119753561913967,0.0
383,5,-0.00012286280980333686,-0.0009281396050937474,0.0035879036877304316,0.014537394978106022,0.009156984277069569,0.011417611502110958,0.011687859892845154,0.005444253794848919,0.005438754800707102,0.0,0.0,0.0,0.0,0.0,0.0,-0.014107839204370975,0.01374566089361906,-0.0,0.0,0.0,0.0,-0.005518679972738028,0.013601602986454964,0.0008887226576916873,15738.0,13502.0,13245.0,14648.0,0.5622106194496155,0.4066258370876312,0.39031025767326355,0.48322615027427673,0.0,0.0,0.0,0.0,0.0,0.0,0.0,0.0,1.8306242227554321,0.017508190572155937,0.11492528084484642,0.19864675773189402,-0.06062612682580948,-0.04786764830350876,0.0,-0.02149314433336258,-0.008119753561913967,0.0
388,5,-0.00012286280980333686,-0.0009281396050937474,0.0035879036877304316,0.014537394978106022,0.009156984277069569,0.011417611502110958,0.010685358196496964,-0.008286181837320328,0.0052182902581989765,0.0,0.0,0.0,0.0,0.0,0.0,-0.014107839204370975,0.01374566089361906,-0.0,0.0,0.0,0.0,-0.005260562524199486,0.016962850466370583,-0.0006892308592796326,15474.0,13660.0,12539.0,15194.0,0.542532742023468,0.41675955057144165,0.34732431173324585,0.5220333337783813,0.0,0.0,0.0,0.0,0.0,0.0,0.0,0.0,1.8306242227554321,0.017508190572155937,0.11492528084484642,0.19864675773189402,-0.06062612682580948,-0.04786764830350876,0.0,-0.016889842227101326,0.011508415453135967,0.0
393,5,-4.209173857816495e-05,-0.0009948903461918235,0.0036284751258790493,0.015507486648857594,0.011672892607748508,-0.00030153151601552963,0.010685358196496964,-0.008286181837320328,0.0052182902581989765,0.0,0.0,0.0,0.0,0.0,0.0,-0.011808504350483418,0.012390611693263054,-0.0,0.0,0.0,0.0,-0.005260562524199486,0.016962850466370583,-0.0006892308592796326,15474.0,13660.0,12539.0,15194.0,0.542532742023468,0.41675955057144165,0.34732431173324585,0.5220333337783813,0.0,0.0,0.0,0.0,0.0,0.0,0.0,0.0,1.8033983707427979,0.01726070186972952,0.12110643335203587,0.199295115407975,-0.05383874475955963,-0.03947087749838829,-0.0,-0.016889842227101326,0.011508415453135967,0.0
398,5,-4.209173857816495e-05,-0.0009948903461918235,0.0036284751258790493,0.015507486648857594,0.011672892607748508,-0.00030153151601552963,0.010511760599911213,-0.010972696356475353,0.005351897329092026,0.0,0.0,0.0,0.0,0.0,0.0,-0.011808504350483418,0.012390611693263054,-0.0,0.0,0.0,0.0,-0.004914469085633755,0.012865553610026836,0.0011429701698943973,15789.0,13270.0,13613.0,14294.0,0.5660668611526489,0.3919088840484619,0.41375893354415894,0.4588894844055176,0.0,0.0,0.0,0.0,0.0,0.0,0.0,0.0,1.8033983707427979,0.01726070186972952,0.12110643335203587,0.199295115407975,-0.05383874475955963,-0.03947087749838829,-0.0,-0.014107839204370975,0.01374566089361906,0.0
403,5,-0.00011021978571079671,-0.0010592652251943946,0.003623064374551177,0.015507486648857594,0.011672892607748508,-0.00030153151601552963,0.010769852437078953,-0.009509136900305748,0.005380679853260517,0.0,0.0,0.0,0.0,0.0,0.0,-0.014547630213201046,0.013154564425349236,-0.0,0.0,0.0,0.0,-0.005075425840914249,0.002387008164077997,0.00020638360001612455,14639.0,14330.0,13822.0,13896.0,0.4825868010520935,0.46128779649734497,0.42732125520706177,0.4322025179862976,0.0,0.0,0.0,0.0,0.0,0.0,0.0,0.0,1.8275269269943237,0.016778401084180546,0.11404735225028784,0.19875949370889764,-0.057920683175325394,-0.04927614703774452,0.0,-0.011808504350483418,0.012390611693263054,0.0
408,5,-0.00011021978571079671,-0.0010592652251943946,0.003623064374551177,0.015507486648857594,0.011672892607748508,-0.00030153151601552963,0.010769852437078953,-0.009509136900305748,0.005380679853260517,0.0,0.0,0.0,0.0,0.0,0.0,-0.014547630213201046,0.013154564425349236,-0.0,0.0,0.0,0.0,-0.005075425840914249,0.002387008164077997,0.00020638360001612455,14639.0,14330.0,13822.0,13896.0,0.4825868010520935,0.46128779649734497,0.42732125520706177,0.4322025179862976,0.0,0.0,0.0,0.0,0.0,0.0,0.0,0.0,1.8275269269943237,0.016778401084180546,0.11404735225028784,0.19875949370889764,-0.057920683175325394,-0.04927614703774452,0.0,-0.011808504350483418,0.012390611693263054,0.0
413,5,-0.00018694187747314572,-0.0011620211880654097,0.0038900086656212807,-0.003003656165674329,0.0169998649507761,-0.0321539081633091,0.010769852437078953,-0.009509136900305748,0.005380679853260517,0.0,0.0,0.0,0.0,0.0,0.0,-0.014654338359832764,0.013070348650217056,-0.0,0.0,0.0,0.0,-0.005075425840914249,0.002387008164077997,0.00020638360001612455,14639.0,14330.0,13822.0,13896.0,0.4825868010520935,0.46128779649734497,0.42732125520706177,0.4322025179862976,0.0,0.0,0.0,0.0,0.0,0.0,0.0,0.0,1.8273932933807373,0.015933401707801886,0.11276977070320064,0.19713742037613807,-0.05754559487104416,-0.04963391646742821,0.0,-0.011808504350483418,0.012390611693263054,0.0
419,5,-0.00018694187747314572,-0.0011620211880654097,0.0038900086656212807,-0.003003656165674329,0.0169998649507761,-0.0321539081633091,0.010806802660226822,-0.0052846986800432205,0.005765153560787439,0.0,0.0,0.0,0.0,0.0,0.0,-0.014654338359832764,0.013070348650217056,-0.0,0.0,0.0,0.0,-0.005228735040873289,-0.00613068463280797,0.0022525861859321594,14898.0,14292.0,15133.0,12591.0,0.5007917284965515,0.4587087631225586,0.5176253914833069,0.35040101408958435,0.0,0.0,0.0,0.0,0.0,0.0,0.0,0.0,1.8273932933807373,0.015933401707801886,0.11276977070320064,0.19713742037613807,-0.05754559487104416,-0.04963391646742821,0.0,-0.014547630213201046,0.013154564425349236,0.0
424,5,-0.00022227084264159203,-0.001306242891587317,0.003912866581231356,-0.003003656165674329,0.0169998649507761,-0.0321539081633091,0.010806802660226822,-0.0052846986800432205,0.005765153560787439,0.0,0.0,0.0,0.0,0.0,0.0,-0.014654338359832764,0.013070348650217056,-0.0,0.0,0.0,0.0,-0.005228735040873289,-0.00613068463280797,0.0022525861859321594,14898.0,14292.0,15133.0,12591.0,0.5007917284965515,0.4587087631225586,0.5176253914833069,0.35040101408958435,0.0,0.0,0.0,0.0,0.0,0.0,0.0,0.0,1.8273932933807373,0.021732174304878595,0.09859740862174173,0.19673100844618843,0.012488250620663166,-0.07097300887107849,0.0,-0.014547630213201046,0.013154564425349236,0.0
429,5,-0.00022227084264159203,-0.001306242891587317,0.003912866581231356,-0.003003656165674329,0.0169998649507761,-0.0321539081633091,0.010999825783073902,0.004861824680119753,0.005833345465362072,0.0,0.0,0.0,0.0,0.0,0.0,-0.021072544157505035,-0.0028524671215564013,-0.0,0.0,0.0,0.0,-0.005365000572055578,-0.014099694788455963,0.0006524869822897017,13929.0,15255.0,15141.0,12555.0,0.43440520763397217,0.5264833569526672,0.518230676651001,0.3482740521430969,0.0,0.0,0.0,0.0,0.0,0.0,0.0,0.0,1.8172976970672607,0.021732174304878595,0.09859740862174173,0.19673100844618843,0.012488250620663166,-0.07097300887107849,0.0,-0.014547630213201046,0.013154564425349236,0.0
434,5,-0.0003384594456292689,-0.0013857055455446243,0.004069562070071697,-0.01514409389346838,0.016335465013980865,-0.031665027141571045,0.010999825783073902,0.004861824680119753,0.005833345465362072,0.0,0.0,0.0,0.0,0.0,0.0,-0.0199422687292099,-0.013056199066340923,-0.0,0.0,0.0,0.0,-0.005365000572055578,-0.014099694788455963,0.0006524869822897017,13929.0,15255.0,15141.0,12555.0,0.43440520763397217,0.5264833569526672,0.518230676651001,0.3482740521430969,0.0,0.0,0.0,0.0,0.0,0.0,0.0,0.0,1.8648157119750977,0.01936497159106639,0.09047058711247657,0.1985415613886146,0.058655112981796265,-0.06892340630292892,0.0,-0.014547630213201046,0.013154564425349236,0.0
439,5,-0.0003384594456292689,-0.0013857055455446243,0.004069562070071697,-0.01514409389346838,0.016335465013980865,-0.031665027141571045,0.01080129574984312,0.0126187764108181,0.0061437650583684444,0.0,0.0,0.0,0.0,0.0,0.0,-0.0199422687292099,-0.013056199066340923,-0.0,0.0,0.0,0.0,-0.004683077335357666,-0.018654298037290573,0.0020162551663815975,14060.0,15049.0,15848.0,11748.0,0.44310230016708374,0.5116211175918579,0.5705270767211914,0.3021427392959595,0.0,0.0,0.0,0.0,0.0,0.0,0.0,0.0,1.8648157119750977,0.01936497159106639,0.09047058711247657,0.1985415613886146,0.058655112981796265,-0.06892340630292892,0.0,-0.014654338359832764,0.013070348650217056,0.0
444,5,-0.000513353617861867,-0.0014637428103014827,0.0041306400671601295,-0.01514409389346838,0.016335465013980865,-0.031665027141571045,0.01080129574984312,0.0126187764108181,0.0061437650583684444,0.0,0.0,0.0,0.0,0.0,0.0,-0.020041557028889656,-0.013253208249807358,-0.0,0.0,0.0,0.0,-0.004683077335357666,-0.018654298037290573,0.0020162551663815975,14060.0,15049.0,15848.0,11748.0,0.44310230016708374,0.5116211175918579,0.5705270767211914,0.3021427392959595,0.0,0.0,0.0,0.0,0.0,0.0,0.0,0.0,1.867265224456787,0.022437543172015816,0.08159451294528543,0.19787448598677346,0.05961821600794792,-0.06935746222734451,0.0,-0.014654338359832764,0.013070348650217056,0.0
449,5,-0.000513353617861867,-0.0014637428103014827,0.0041306400671601295,-0.01514409389346838,0.016335465013980865,-0.031665027141571045,0.010614965111017227,0.023271001875400543,0.006458618678152561,0.0,0.0,0.0,0.0,0.0,0.0,-0.020041557028889656,-0.013253208249807358,-0.0,0.0,0.0,0.0,-0.0062538678757846355,-0.02337665669620037,0.0013954158639535308,13600.0,15589.0,15806.0,11451.0,0.4129349887371063,0.5510658025741577,0.5673559904098511,0.28594085574150085,0.0,0.0,0.0,0.0,0.0,0.0,0.0,0.0,1.867265224456787,0.022437543172015816,0.08159451294528543,0.19787448598677346,0.05961821600794792,-0.06935746222734451,0.0,-0.021072544157505035,-0.0028524671215564013,0.0
454,5,-0.0006115903961472213,-0.0015229578129947186,0.0043807667680084705,-0.01514409389346838,0.016335465013980865,-0.031665027141571045,0.010614965111017227,0.023271001875400543,0.006458618678152561,0.0,0.0,0.0,0.0,0.0,0.0,-0.020041557028889656,-0.013253208249807358,-0.0,0.0,0.0,0.0,-0.0062538678757846355,-0.02337665669620037,0.0013954158639535308,13600.0,15589.0,15806.0,11451.0,0.4129349887371063,0.5510658025741577,0.5673559904098511,0.28594085574150085,0.0,0.0,0.0,0.0,0.0,0.0,0.0,0.0,1.867265224456787,0.0224307161780079,0.07251183448753483,0.19694093185067055,0.05961821600794792,-0.06935746222734451,0.0,-0.021072544157505035,-0.0028524671215564013,0.0
459,5,-0.0006115903961472213,-0.0015229578129947186,0.0043807667680084705,-0.01514409389346838,0.016335465013980865,-0.031665027141571045,0.010223397985100746,0.028878070414066315,0.006717277690768242,0.0,0.0,0.0,0.0,0.0,0.0,-0.02012052945792675,-0.013362734578549862,-0.0,0.0,0.0,0.0,-0.004969827830791473,-0.02452043630182743,0.0015636006137356162,13691.0,15652.0,16148.0,11652.0,0.4188109040260315,0.5557286739349365,0.5934564471244812,0.29681968688964844,0.0,0.0,0.0,0.0,0.0,0.0,0.0,0.0,1.868814468383789,0.0224307161780079,0.07251183448753483,0.19694093185067055,0.06016065925359726,-0.06968846917152405,0.0,-0.0199422687292099,-0.013056199066340923,0.0
464,5,-0.0006591540877707303,-0.0016088439151644707,0.004509485326707363,-0.01176527887582779,0.01684051938354969,-0.028112202882766724,0.010223397985100746,0.028878070414066315,0.006717277690768242,0.0,0.0,0.0,0.0,0.0,0.0,-0.02012052945792675,-0.013362734578549862,-0.0,0.0,0.0,0.0,-0.004969827830791473,-0.02452043630182743,0.0015636006137356162,13691.0,15652.0,16148.0,11652.0,0.4188109040260315,0.5557286739349365,0.5934564471244812,0.29681968688964844,0.0,0.0,0.0,0.0,0.0,0.0,0.0,0.0,1.868814468383789,0.02337650100305129,0.0710239757832485,0.1992776133616443,0.06016065925359726,-0.06968846917152405,0.0,-0.0199422687292099,-0.013056199066340923,0.0
469,5,-0.0006591540877707303,-0.0016088439151644707,0.004509485326707363,-0.01176527887582779,0.01684051938354969,-0.028112202882766724,0.010085506364703178,0.033733006566762924,0.006552050355821848,0.0,0.0,0.0,0.0,0.0,0.0,-0.02096700668334961,-0.010689367540180683,-0.0,0.0,0.0,0.0,-0.006243420299142599,-0.011748774908483028,0.0001696950348559767,13343.0,16114.0,15100.0,12827.0,0.3965340256690979,0.5908778309822083,0.5152833461761475,0.3645699620246887,0.0,0.0,0.0,0.0,0.0,0.0,0.0,0.0,1.8544267416000366,0.02337650100305129,0.0710239757832485,0.1992776133616443,0.047754012048244476,-0.07206042855978012,0.0,-0.02012052945792675,-0.013362734578549862,0.0
475,5,-0.000789045647252351,-0.0016417643055319786,0.004468886181712151,-0.01176527887582779,0.01684051938354969,-0.028112202882766724,0.010085506364703178,0.033733006566762924,0.006552050355821848,0.0,0.0,0.0,0.0,0.0,0.0,-0.02096700668334961,-0.010689367540180683,-0.0,0.0,0.0,0.0,-0.006243420299142599,-0.011748774908483028,0.0001696950348559767,13343.0,16114.0,15100.0,12827.0,0.3965340256690979,0.5908778309822083,0.5152833461761475,0.3645699620246887,0.0,0.0,0.0,0.0,0.0,0.0,0.0,0.0,1.8544267416000366,0.025149366866672893,0.06810260204962194,0.199489298475286,0.047754012048244476,-0.07206042855978012,0.0,-0.02012052945792675,-0.013362734578549862,0.0
480,5,-0.0009726943098939955,-0.001616774476133287,0.004448724910616875,-0.02674395591020584,0.003737414488568902,-0.008825558237731457,0.010139311663806438,0.03376549854874611,0.006366129964590073,0.0,0.0,0.0,0.0,0.0,0.0,-0.021005267277359962,-0.010841602459549904,-0.0,0.0,0.0,0.0,-0.006132958922535181,-0.0034772250801324844,-6.447584019042552e-05,14186.0,15413.0,14849.0,13109.0,0.45155975222587585,0.5380032658576965,0.4973711669445038,0.3818803131580353,0.0,0.0,0.0,0.0,0.0,0.0,0.0,0.0,1.8558484315872192,0.02478336203101266,0.07217115120227041,0.19618027948227026,0.048471175134181976,-0.07224723696708679,0.0,-0.02096700668334961,-0.010689367540180683,0.0
485,5,-0.0009726943098939955,-0.001616774476133287,0.004448724910616875,-0.02674395591020584,0.003737414488568902,-0.008825558237731457,0.010139311663806438,0.03376549854874611,0.006366129964590073,0.0,0.0,0.0,0.0,0.0,0.0,-0.021005267277359962,-0.010841602459549904,-0.0,0.0,0.0,0.0,-0.006132958922535181,-0.0034772250801324844,-6.447584019042552e-05,14186.0,15413.0,14849.0,13109.0,0.45155975222587585,0.5380032658576965,0.4973711669445038,0.3818803131580353,0.0,0.0,0.0,0.0,0.0,0.0,0.0,0.0,1.8558484315872192,0.02478336203101266,0.07217115120227041,0.19618027948227026,0.048471175134181976,-0.07224723696708679,0.0,-0.02096700668334961,-0.010689367540180683,0.0
490,5,-0.0009497294086031616,-0.0017186281038448215,0.004276330582797527,-0.02674395591020584,0.003737414488568902,-0.008825558237731457,0.01009686104953289,0.02968491055071354,0.006126789841800928,0.0,0.0,0.0,0.0,0.0,0.0,-0.006492228247225285,-0.02296431176364422,-0.0,0.0,0.0,0.0,-0.0057504926808178425,0.0028718910180032253,0.0005679939058609307,14480.0,15002.0,14110.0,13834.0,0.4715762734413147,0.5082480311393738,0.4464606046676636,0.42814183235168457,0.0,0.0,0.0,0.0,0.0,0.0,0.0,0.0,1.9095487594604492,0.02248472599743292,0.07716883253951215,0.1993453692908511,0.10565468668937683,-0.022978810593485832,0.0,-0.021005267277359962,-0.010841602459549904,0.0
495,5,-0.0009497294086031616,-0.0017186281038448215,0.004276330582797527,-0.02674395591020584,0.003737414488568902,-0.008825558237731457,0.01009686104953289,0.02968491055071354,0.006126789841800928,0.0,0.0,0.0,0.0,0.0,0.0,-0.006492228247225285,-0.02296431176364422,-0.0,0.0,0.0,0.0,-0.0057504926808178425,0.0028718910180032253,0.0005679939058609307,14480.0,15002.0,14110.0,13834.0,0.4715762734413147,0.5082480311393738,0.4464606046676636,0.42814183235168457,0.0,0.0,0.0,0.0,0.0,0.0,0.0,0.0,1.9095487594604492,0.02248472599743292,0.07716883253951215,0.1993453692908511,0.10565468668937683,-0.022978810593485832,0.0,-0.021005267277359962,-0.010841602459549904,0.0
500,5,-0.0009223614470101893,-0.001790610607713461,0.004072749521583319,-0.007413431070744991,0.010132865980267525,0.020899493247270584,0.01009686104953289,0.02968491055071354,0.006126789841800928,0.0,0.0,0.0,0.0,0.0,0.0,-0.0066521866247057915,-0.022937539964914322,-0.0,0.0,0.0,0.0,-0.0057504926808178425,0.0028718910180032253,0.0005679939058609307,14480.0,15002.0,14110.0,13834.0,0.4715762734413147,0.5082480311393738,0.4464606046676636,0.42814183235168457,0.0,0.0,0.0,0.0,0.0,0.0,0.0,0.0,1.9095538854599,0.021611126166719268,0.08389322365249084,0.19807591096618507,0.105531707406044,-0.023545021191239357,0.0,-0.021005267277359962,-0.010841602459549904,0.0
