timestamp,dt,pos_x,pos_y,pos_z,vel_x,vel_y,vel_z,roll,pitch,yaw,agv_x,agv_y,agv_z,x_ref,y_ref,z_ref,roll_ref,pitch_ref,yaw_ref,x_vel_ref,y_vel_ref,z_vel_ref,x_torque,y_torque,z_torque,w0,w1,w2,w3,u0,u1,u2,u3,m0req,m1req,m2req,m3req,thrust0,thrust1,thrust2,thrust3,thrust_ref,roll_vicon,pitch_vicon,yaw_vicon,acc_x,acc_y,acc_z
5,5,0.0,0.0,0.0,0.000862913322634995,0.0010367892682552338,-2.4199177914852044e-06,-0.013687721453607082,-0.13451513648033142,0.003977355547249317,-0.002764704404398799,-0.0014533590292558074,0.0023293227422982454,0.0,0.0,0.0,-0.0012794112553820014,0.0008191127562895417,-0.0,0.0,0.0,0.0,0.0034060468897223473,0.04031411185860634,0.0005632919492200017,1495.0,1495.0,1495.0,1495.0,0.0,0.0,0.0,0.0,0.0,0.0,0.0,0.0,1495.0,1495.0,1495.0,1495.0,1.6394692659378052,-0.008934824344675081,0.14001589369638953,-0.05197004685011959,-0.0032359249889850616,-0.0038879597559571266,0.0
29,24,0.0,0.0,0.0,-0.0009119003661908209,-0.00019205651187803596,0.001999017084017396,-0.013687721453607082,-0.13451513648033142,0.003977355547249317,-0.002764704404398799,-0.0014533590292558074,0.0023293227422982454,0.0,0.0,0.0,-0.0012794112553820014,0.0008191127562895417,-0.0,0.0,0.0,0.0,0.0034060468897223473,0.04031411185860634,0.0005632919492200017,1495.0,1495.0,1495.0,1495.0,0.0,0.0,0.0,0.0,0.0,0.0,0.0,0.0,1495.0,1495.0,1495.0,1495.0,1.6394692659378052,-0.010624967762103858,0.13979393878114915,-0.05073080150028909,-0.0032359249889850616,-0.0038879597559571266,0.0
35,5,0.0,0.0,0.0,8.433646871708333e-05,-0.00042751975706778467,0.0007321133743971586,-0.01367948018014431,-0.13443121314048767,0.003974956925958395,0.0013121610973030329,-0.014216484501957893,0.0028291302733123302,0.0,0.0,0.0,0.00023761445481795818,-0.0008678564336150885,-0.0,0.0,0.0,0.0,0.00341956689953804,0.040005508810281754,0.00036778388312086463,1495.0,1495.0,1495.0,1495.0,0.0,0.0,0.0,0.0,0.0,0.0,0.0,0.0,1495.0,1495.0,1495.0,1495.0,1.635230302810669,-0.010294830127279575,0.1397753993003834,-0.05143994791512682,0.003419626271352172,0.0007202119450084865,0.0
40,5,0.0,0.0,0.0,0.001354334643110633,0.0014076402876526117,-0.0002061011764453724,-0.01367948018014431,-0.13443121314048767,0.003974956925958395,0.0013121610973030329,-0.014216484501957893,0.0028291302733123302,0.0,0.0,0.0,0.00023761445481795818,-0.0008678564336150885,-0.0,0.0,0.0,0.0,0.00341956689953804,0.040005508810281754,0.00036778388312086463,1495.0,1495.0,1495.0,1495.0,0.0,0.0,0.0,0.0,0.0,0.0,0.0,0.0,1495.0,1495.0,1495.0,1495.0,1.635230302810669,-0.008927574521135968,0.1403424521762176,-0.05191977058194396,0.003419626271352172,0.0007202119450084865,0.0
45,5,0.0,0.0,0.0,-0.0002331353898625821,-0.0019577422644943,-0.002454951172694564,-0.013675265945494175,-0.13438576459884644,0.00399941299110651,0.00010727969493018463,-0.0029945664573460817,-0.0006024945760145783,0.0,0.0,0.0,-0.001730568939819932,0.0012807967141270638,-0.0,0.0,0.0,0.0,0.0031202775426208973,0.040446966886520386,0.0003613955050241202,1495.0,1495.0,1495.0,1495.0,0.0,0.0,0.0,0.0,0.0,0.0,0.0,0.0,1495.0,1495.0,1495.0,1495.0,1.6456061601638794,-0.009799679904809547,0.13976539776469768,-0.051560386692929956,-0.0050787548534572124,-0.005278651136904955,0.0
50,5,0.0,0.0,0.0,0.0005904822028242052,-9.040129953064024e-05,-0.002288007875904441,-0.013675265945494175,-0.13438576459884644,0.00399941299110651,0.00010727969493018463,-0.0029945664573460817,-0.0006024945760145783,0.0,0.0,0.0,-0.001730568939819932,0.0012807967141270638,-0.0,0.0,0.0,0.0,0.0031202775426208973,0.040446966886520386,0.0003613955050241202,1495.0,1495.0,1495.0,1495.0,0.0,0.0,0.0,0.0,0.0,0.0,0.0,0.0,1495.0,1495.0,1495.0,1495.0,1.6456061601638794,-0.010748774118190828,0.1395478361292756,-0.051183528131247956,-0.0050787548534572124,-0.005278651136904955,0.0
55,5,1.337205230811378e-05,1.0684983863029629e-05,-2.690903602342587e-05,0.0018408391624689102,-0.0013183585833758116,0.002313881181180477,-0.013682558201253414,-0.13440115749835968,0.00402439758181572,7.228153117466718e-05,0.0020478731021285057,0.0009066593484021723,0.0,0.0,0.0,-0.001730568939819932,0.0012807967141270638,-0.0,0.0,0.0,0.0,0.0035082369577139616,0.04008683189749718,0.0003670889709610492,16145.0,9702.0,10767.0,16182.0,0.593248724937439,0.19972747564315796,0.25038883090019226,0.5961042642593384,0.0,0.0,0.0,0.0,16113.0,9761.0,10738.0,16199.0,1.6490126848220825,-0.009861214876495324,0.14001669654439283,-0.05106526393786962,-0.006976739969104528,0.005002649500966072,0.0
60,5,-7.052011824271176e-06,-7.5875086622545496e-06,-2.405176383035723e-05,-0.001714552054181695,0.0016653556376695633,0.0005826797569170594,-0.013682558201253414,-0.13440115749835968,0.00402439758181572,7.228153117466718e-05,0.0020478731021285057,0.0009066593484021723,0.0,0.0,0.0,0.001636695466004312,0.0017558096442371607,-0.0,0.0,0.0,0.0,0.0035082369577139616,0.04008683189749718,0.0003670889709610492,16145.0,9702.0,10767.0,16182.0,0.593248724937439,0.19972747564315796,0.25038883090019226,0.5961042642593384,0.0,0.0,0.0,0.0,16113.0,9761.0,10738.0,16199.0,1.6490126848220825,-0.010225970573413729,0.14003017519734587,-0.05127918993387068,-0.006976739969104528,0.005002649500966072,0.0
65,5,-1.1880884812853765e-05,-1.0121742889168672e-05,-2.7198857424082235e-05,-0.0012652856530621648,0.0009702504030428827,0.0006107231602072716,-0.013687887229025364,-0.13439853489398956,0.004024675581604242,-0.0015770532190799713,-0.003091961843892932,-0.003643705742433667,0.0,0.0,0.0,-0.0012136020231992006,-0.001215579453855753,-0.0,0.0,0.0,0.0,0.0035082369577139616,0.04008683189749718,0.0003670889709610492,16023.0,9786.0,10760.0,16204.0,0.5838541984558105,0.20349933207035065,0.2500615119934082,0.5978152751922607,0.0,0.0,0.0,0.0,16046.0,9752.0,10807.0,16171.0,1.642195224761963,-0.010400997721587249,0.13983231833524384,-0.05099241980864726,0.004810160957276821,-0.0036941065918654203,0.0
72,7,-1.4899005691404454e-05,-1.6919093468459323e-05,-3.219229984097183e-05,-0.0011124348966404796,0.00045093364315107465,-0.00016237360250670463,-0.013687887229025364,-0.13439853489398956,0.004024675581604242,-0.0015770532190799713,-0.003091961843892932,-0.003643705742433667,0.0,0.0,0.0,-0.0012136020231992006,-0.001215579453855753,-0.0,0.0,0.0,0.0,0.0035082369577139616,0.04008683189749718,0.0003670889709610492,16023.0,9786.0,10760.0,16204.0,0.5838541984558105,0.20349933207035065,0.2500615119934082,0.5978152751922607,0.0,0.0,0.0,0.0,16046.0,9752.0,10807.0,16171.0,1.642195224761963,-0.010275861976626641,0.13975955868500148,-0.05112271620223895,0.004810160957276821,-0.0036941065918654203,0.0
77,5,-1.2074686310370453e-05,-2.6808631901076296e-06,-4.157419243711047e-05,-0.00010605566785670817,-0.0015282141976058483,0.0010608774609863758,-0.013698780909180641,-0.13436159491539001,0.0040214997716248035,0.0012344757560640574,-0.004148516338318586,0.0009346226579509676,0.0,0.0,0.0,-0.0005875311326235533,-0.0010775168193504214,-0.0,0.0,0.0,0.0,0.003852702910080552,0.04095961153507233,0.0003374802472535521,16124.0,9701.0,10810.0,16299.0,0.5916102528572083,0.19967199862003326,0.2525780498981476,0.605152428150177,0.0,0.0,0.0,0.0,16157.0,9768.0,10771.0,16209.0,1.6382609605789185,-0.009577689084623585,0.13987344051854592,-0.05139437213003697,0.004253622144460678,-0.0017841134686022997,0.0
82,5,-1.0016661690315232e-05,-9.57350948738167e-06,-2.851288445526734e-05,0.00020454073091968894,0.00021583183843176812,-0.0011430057929828763,-0.013698780909180641,-0.13436159491539001,0.0040214997716248035,0.0012344757560640574,-0.004148516338318586,0.0009346226579509676,0.0,0.0,0.0,-0.0005875311326235533,-0.0010775168193504214,-0.0,0.0,0.0,0.0,0.003852702910080552,0.04095961153507233,0.0003374802472535521,16124.0,9701.0,10810.0,16299.0,0.5916102528572083,0.19967199862003326,0.2525780498981476,0.605152428150177,0.0,0.0,0.0,0.0,16157.0,9768.0,10771.0,16209.0,1.6382609605789185,-0.009284848068981062,0.14025778936647293,-0.051681755631742564,0.004253622144460678,-0.0017841134686022997,0.0
87,5,-6.252971616049763e-06,6.077726766307023e-07,-4.055252793477848e-05,0.0005334590678103268,-0.0011354211019352078,0.0009875547839328647,-0.013699146918952465,-0.1343585103750229,0.004034452605992556,-0.0003508733643684536,0.00038680038414895535,0.00013815288548357785,0.0,0.0,0.0,-0.0002855576458387077,0.0001813746348489076,-0.0,0.0,0.0,0.0,0.0031206542626023293,0.040033433586359024,0.00040267029544338584,16093.0,9817.0,10798.0,16182.0,0.5892230868339539,0.20490434765815735,0.25195688009262085,0.5961109399795532,0.0,0.0,0.0,0.0,16151.0,9657.0,10873.0,16256.0,1.6287806034088135,-0.009622714690210659,0.14002810419281136,-0.051191089434498314,-0.0007118541398085654,-0.0008621144224889576,0.0
92,5,3.509255293465685e-06,6.6690654421108775e-06,-4.645882290787995e-05,0.001384850824251771,-0.001181523548439145,0.001103777321986854,-0.013699146918952465,-0.1343585103750229,0.004034452605992556,-0.0003508733643684536,0.00038680038414895535,0.00013815288548357785,0.0,0.0,0.0,-0.0002855576458387077,0.0001813746348489076,-0.0,0.0,0.0,0.0,0.0031206542626023293,0.040033433586359024,0.00040267029544338584,16093.0,9817.0,10798.0,16182.0,0.5892230868339539,0.20490434765815735,0.25195688009262085,0.5961109399795532,0.0,0.0,0.0,0.0,16151.0,9657.0,10873.0,16256.0,1.6287806034088135,-0.010200935554046251,0.14030917777192284,-0.051021179258849976,-0.0007118541398085654,-0.0008621144224889576,0.0
98,5,5.560379577218555e-06,-6.228701295185601e-06,-3.345390723552555e-05,0.0008000753005035222,0.0010751226218417287,-0.0011190790683031082,-0.013690181076526642,-0.13432976603507996,0.00404946506023407,0.0009837356628850102,-0.004285511560738087,-0.0003176146128680557,0.0,0.0,0.0,0.001465690671466291,0.0013155011693015695,-0.0,0.0,0.0,0.0,0.0033366596326231956,0.04029142111539841,0.0004591509932652116,16062.0,9680.0,10738.0,16159.0,0.5868018269538879,0.19874495267868042,0.24892103672027588,0.594312846660614,0.0,0.0,0.0,0.0,16099.0,9807.0,10819.0,16169.0,1.6443604230880737,-0.009611778760409681,0.1399382582221013,-0.051316841886678274,-0.005212421994656324,0.004467325750738382,0.0
103,5,3.980865585617721e-06,1.6058314713518484e-06,-4.276953040971421e-05,0.00013048839173279703,-0.0005100948619656265,0.0006702432874590158,-0.013690181076526642,-0.13432976603507996,0.00404946506023407,0.0009837356628850102,-0.004285511560738087,-0.0003176146128680557,0.0,0.0,0.0,0.001465690671466291,0.0013155011693015695,-0.0,0.0,0.0,0.0,0.0033366596326231956,0.04029142111539841,0.0004591509932652116,16062.0,9680.0,10738.0,16159.0,0.5868018269538879,0.19874495267868042,0.24892103672027588,0.594312846660614,0.0,0.0,0.0,0.0,16099.0,9807.0,10819.0,16169.0,1.6443604230880737,-0.00997812824263003,0.14016430338426958,-0.05148020948613406,-0.005212421994656324,0.004467325750738382,0.0
108,5,-3.3110613912867848e-06,-1.283396704820916e-05,-1.3322967788553797e-05,-0.0008228358346968889,0.0015287378337234259,-0.0032654902897775173,-0.01368211954832077,-0.13429933786392212,0.004055693279951811,-0.0017600370338186622,6.862267764518037e-05,0.0008350944262929261,0.0,0.0,0.0,-0.0019049555994570255,-0.000783728901296854,-0.0,0.0,0.0,0.0,0.00335089024156332,0.04038478061556816,0.00047281698789447546,16073.0,9656.0,10741.0,16160.0,0.5876715779304504,0.1976354569196701,0.24909080564975739,0.5943827033042908,0.0,0.0,0.0,0.0,16049.0,9700.0,10715.0,16174.0,1.6435937881469727,-0.01020641750548951,0.13984244881339278,-0.05151710239737943,0.003103926545009017,-0.005803465843200684,0.0
114,6,-2.9560787879745476e-06,-8.184518264897633e-06,-1.6868047168827616e-05,-0.0002865364367607981,5.356128895073198e-05,-0.0008807864505797625,-0.01368211954832077,-0.13429933786392212,0.004055693279951811,-0.0017600370338186622,6.862267764518037e-05,0.0008350944262929261,0.0,0.0,0.0,-0.0019049555994570255,-0.000783728901296854,-0.0,0.0,0.0,0.0,0.00335089024156332,0.04038478061556816,0.00047281698789447546,16073.0,9656.0,10741.0,16160.0,0.5876715779304504,0.1976354569196701,0.24909080564975739,0.5943827033042908,0.0,0.0,0.0,0.0,16049.0,9700.0,10715.0,16174.0,1.6435937881469727,-0.00980094792587279,0.13985235408030358,-0.051516783808530704,0.003103926545009017,-0.005803465843200684,0.0
119,5,-9.230670002580155e-06,-8.953282303991728e-06,-2.7775253329309635e-05,-0.000867565511725843,0.00011367622937541455,0.000956549949478358,-0.01368518266826868,-0.1343192607164383,0.004043132066726685,0.0004518740752246231,0.0006884972099214792,-0.0008760816417634487,0.0,0.0,0.0,-8.148593042278662e-05,-0.0002779425703920424,-0.0,0.0,0.0,0.0,0.003786016022786498,0.0408702977001667,0.00039297956391237676,16112.0,9681.0,10792.0,16274.0,0.5906934142112732,0.1987914890050888,0.25164976716041565,0.6032257676124573,0.0,0.0,0.0,0.0,16106.0,9687.0,10776.0,16287.0,1.6287811994552612,-0.0104191778231077,0.1398177759046962,-0.05118083099849344,0.0010908617405220866,-0.00024601066252216697,0.0
124,5,-5.401401722338051e-06,3.5994064546684967e-06,-1.597336813574657e-05,0.0001124859627452679,-0.0014608522178605199,-0.0010336062405258417,-0.01368518266826868,-0.1343192607164383,0.004043132066726685,0.0004518740752246231,0.0006884972099214792,-0.0008760816417634487,0.0,0.0,0.0,-8.148593042278662e-05,-0.0002779425703920424,-0.0,0.0,0.0,0.0,0.003786016022786498,0.0408702977001667,0.00039297956391237676,16112.0,9681.0,10792.0,16274.0,0.5906934142112732,0.1987914890050888,0.25164976716041565,0.6032257676124573,0.0,0.0,0.0,0.0,16106.0,9687.0,10776.0,16287.0,1.6287811994552612,-0.009752373426286086,0.1401822151551172,-0.05114062313618368,0.0010908617405220866,-0.00024601066252216697,0.0
129,5,-1.2405673260218464e-05,-1.3633782145916484e-05,-2.9124314096407034e-05,-0.0007955182227306068,0.0014836417976766825,0.0011646711500361562,-0.01368518266826868,-0.1343192607164383,0.004043132066726685,0.0004518740752246231,0.0006884972099214792,-0.0008760816417634487,0.0,0.0,0.0,0.0018078285502269864,9.915413102135062e-05,-0.0,0.0,0.0,0.0,0.003786016022786498,0.0408702977001667,0.00039297956391237676,16112.0,9681.0,10792.0,16274.0,0.5906934142112732,0.1987914890050888,0.25164976716041565,0.6032257676124573,0.0,0.0,0.0,0.0,16106.0,9687.0,10776.0,16287.0,1.640697956085205,-0.010639602591898707,0.13966900181135591,-0.05115855063238334,-0.0003920041199307889,0.005497863981872797,0.0
134,5,-9.014379429572728e-06,-5.66301105209277e-06,-2.8182474125060253e-05,8.874804916558787e-05,-0.00036303585511632264,0.0003528475353959948,-0.013693599961698055,-0.13434819877147675,0.004042822401970625,-0.002710344735532999,-0.0015748360892757773,-0.00023957272060215473,0.0,0.0,0.0,0.0018078285502269864,9.915413102135062e-05,-0.0,0.0,0.0,0.0,0.0038178882095962763,0.04095710441470146,0.0004418624739628285,16115.0,9668.0,10797.0,16276.0,0.5909098982810974,0.1981966197490692,0.25189340114593506,0.6033605337142944,0.0,0.0,0.0,0.0,16102.0,9696.0,10763.0,16294.0,1.640697956085205,-0.010597842509731949,0.13945973874679743,-0.05127081728353414,-0.0003920041199307889,0.005497863981872797,0.0
139,5,-4.313238150643883e-06,-1.26964032460819e-05,-3.940588794648647e-05,0.0005996361142024398,0.0006987926899455488,0.0014879486989229918,-0.013693599961698055,-0.13434819877147675,0.004042822401970625,-0.002710344735532999,-0.0015748360892757773,-0.00023957272060215473,0.0,0.0,0.0,0.00044038722990080714,7.209842442534864e-05,-0.0,0.0,0.0,0.0,0.0038178882095962763,0.04095710441470146,0.0004418624739628285,16115.0,9668.0,10797.0,16276.0,0.5909098982810974,0.1981966197490692,0.25189340114593506,0.6033605337142944,0.0,0.0,0.0,0.0,16102.0,9696.0,10763.0,16294.0,1.6294374465942383,-0.010035115388290872,0.14006286277640767,-0.0515899873884967,-0.00028308399487286806,0.0013300897553563118,0.0
144,5,-9.06408968148753e-06,-1.6433314158348367e-05,-3.5424895031610504e-05,-0.00033024779986590147,0.0007279463461600244,0.00011746036034310237,-0.013693599961698055,-0.13434819877147675,0.004042822401970625,-0.002710344735532999,-0.0015748360892757773,-0.00023957272060215473,0.0,0.0,0.0,-0.0009311190224252641,-0.000327206973452121,-0.0,0.0,0.0,0.0,0.0033874185755848885,0.04022091254591942,0.0003903204051312059,16020.0,9739.0,10717.0,16179.0,0.583641529083252,0.20137238502502441,0.24787887930870056,0.5958884358406067,0.0,0.0,0.0,0.0,16045.0,9693.0,10714.0,16184.0,1.6341623067855835,-0.009908399654979645,0.1397248659529955,-0.05141006546049706,0.001288455561734736,-0.002820387715473771,0.0
150,6,-9.57020529313013e-06,-8.577289008826483e-06,-1.4998664482845925e-05,-0.0001928329438669607,-0.000651544367428869,-0.002404163358733058,-0.013693599961698055,-0.13434819877147675,0.004042822401970625,-0.002710344735532999,-0.0015748360892757773,-0.00023957272060215473,0.0,0.0,0.0,-0.0009311190224252641,-0.000327206973452121,-0.0,0.0,0.0,0.0,0.0033874185755848885,0.04022091254591942,0.0003903204051312059,16020.0,9739.0,10717.0,16179.0,0.583641529083252,0.20137238502502441,0.24787887930870056,0.5958884358406067,0.0,0.0,0.0,0.0,16045.0,9693.0,10714.0,16184.0,1.6341623067855835,-0.010177820614221641,0.13962823982482353,-0.05114247468156992,0.001288455561734736,-0.002820387715473771,0.0
155,5,5.483726909005782e-06,9.433125342184212e-06,-3.5089815355604514e-05,0.0015191887505352497,-0.0020712956320494413,0.0007377173169516027,-0.013681625947356224,-0.13432608544826508,0.004038057290017605,0.0003247535787522793,-0.010906829498708248,-0.0039713336154818535,0.0,0.0,0.0,-0.0009311190224252641,-0.000327206973452121,-0.0,0.0,0.0,0.0,0.003911242820322514,0.04062199965119362,0.00039979786379262805,16085.0,9664.0,10811.0,16251.0,0.5886023044586182,0.19802361726760864,0.25260770320892334,0.6014642715454102,0.0,0.0,0.0,0.0,16045.0,9739.0,10800.0,16254.0,1.6341623067855835,-0.009578861992053694,0.13988141112316893,-0.05097431223310729,0.001288455561734736,-0.002820387715473771,0.0
160,5,4.89712192575098e-06,5.941534709563712e-06,-3.858483978547156e-05,0.0005372829036787152,-0.00040952733252197504,0.0007144901901483536,-0.013681625947356224,-0.13432608544826508,0.004038057290017605,0.0003247535787522793,-0.010906829498708248,-0.0039713336154818535,0.0,0.0,0.0,-0.0009311190224252641,-0.000327206973452121,-0.0,0.0,0.0,0.0,0.003911242820322514,0.04062199965119362,0.00039979786379262805,16085.0,9664.0,10811.0,16251.0,0.5886023044586182,0.19802361726760864,0.25260770320892334,0.6014642715454102,0.0,0.0,0.0,0.0,16045.0,9739.0,10800.0,16254.0,1.6341623067855835,-0.009733537241740559,0.14003548662000462,-0.05105038072771044,-0.002041588304564357,0.0015682210214436054,0.0
166,5,1.4131062926026061e-05,-1.7731134676068905e-06,-5.244166459306143e-05,0.0013229859760031104,0.0007619468960911036,0.0019486148376017809,-0.013647575862705708,-0.13437263667583466,0.004045963287353516,0.0014944205759093165,0.012304525822401047,0.028780996799468994,0.0,0.0,0.0,0.0005181831656955183,0.000518920598551631,-0.0,0.0,0.0,0.0,0.003465307643637061,0.041061755269765854,0.0006605693488381803,16235.0,9355.0,10895.0,16077.0,0.6002010703086853,0.184409961104393,0.25685957074165344,0.587966799736023,0.0,0.0,0.0,0.0,16090.0,9599.0,10738.0,16186.0,1.6327340602874756,-0.01083189195980244,0.13947912989175493,-0.05102887524549666,-0.002041588304564357,0.0015682210214436054,0.0
171,5,1.011822769214632e-05,-7.437344720528927e-06,-3.1180723453871906e-05,4.765428093378432e-05,0.0009844864252954721,-0.0017718670424073935,-0.013647575862705708,-0.13437263667583466,0.004045963287353516,0.0014944205759093165,0.012304525822401047,0.028780996799468994,0.0,0.0,0.0,0.0005181831656955183,0.000518920598551631,-0.0,0.0,0.0,0.0,0.003465307643637061,0.041061755269765854,0.0006605693488381803,16235.0,9355.0,10895.0,16077.0,0.6002010703086853,0.184409961104393,0.25685957074165344,0.587966799736023,0.0,0.0,0.0,0.0,16090.0,9599.0,10738.0,16186.0,1.6327340602874756,-0.010162812966570098,0.13983724129625089,-0.05103255392220312,-0.002041588304564357,0.0015682210214436054,0.0
176,5,-1.0210402251686901e-05,6.677238388874684e-07,-2.4103294435917633e-06,-0.002420373959466815,-0.0005788136040791869,-0.0041611939668655396,-0.013712191954255104,-0.1344301849603653,0.004047729540616274,-0.0181465782225132,0.003007255494594574,-0.09438234567642212,0.0,0.0,0.0,-0.0012310815509408712,5.9420974139356986e-05,-0.0,0.0,0.0,0.0,0.003288970096036792,0.040799327194690704,-0.0008086896850727499,15474.0,10666.0,9737.0,16801.0,0.5425585508346558,0.24533185362815857,0.20128676295280457,0.6449851989746094,0.0,0.0,0.0,0.0,16547.0,8879.0,11423.0,15716.0,1.6358968019485474,-0.010472957235326463,0.1395911071841726,-0.05045586799066482,-0.00023423254606314003,-0.0037329404149204493,0.0
181,5,-1.985118979064282e-05,-1.8417200408293866e-05,-2.606596808618633e-06,-0.00212504412047565,0.0020586655009537935,-0.0016409255331382155,-0.013712191954255104,-0.1344301849603653,0.004047729540616274,-0.0181465782225132,0.003007255494594574,-0.09438234567642212,0.0,0.0,0.0,-0.0012310815509408712,5.9420974139356986e-05,-0.0,0.0,0.0,0.0,0.003288970096036792,0.040799327194690704,-0.0008086896850727499,15474.0,10666.0,9737.0,16801.0,0.5425585508346558,0.24533185362815857,0.20128676295280457,0.6449851989746094,0.0,0.0,0.0,0.0,16547.0,8879.0,11423.0,15716.0,1.6358968019485474,-0.010439745354593605,0.13926898566232124,-0.051519293546404436,-0.00023423254606314003,-0.0037329404149204493,0.0
186,5,-3.191902578691952e-05,-1.8331804312765598e-05,-1.6785717889433727e-05,-0.0022981581278145313,0.0008132185903377831,0.0010451243724673986,-0.013888044282793999,-0.13427278399467468,0.003838790813460946,-0.011034764349460602,-0.049433909356594086,0.20370274782180786,0.0,0.0,0.0,-0.0025478515308350325,-0.002024217741563916,-0.0,0.0,0.0,0.0,0.003840755671262741,0.039500486105680466,0.003392958315089345,17329.0,6964.0,12800.0,14689.0,0.6882205009460449,0.09552432596683502,0.3629136085510254,0.48607563972473145,0.0,0.0,0.0,0.0,15131.0,11060.0,9297.0,17084.0,1.6561964750289917,-0.011424859877658988,0.1391541894431506,-0.05162069599048864,0.008078287355601788,-0.007821565493941307,0.0
191,5,-0.000118673087854404,-9.471109660807997e-05,0.00025695754447951913,-0.011329750530421734,0.009490802884101868,-0.032431140542030334,-0.013888044282793999,-0.13427278399467468,0.003838790813460946,-0.011034764349460602,-0.049433909356594086,0.20370274782180786,0.0,0.0,0.0,-0.0025478515308350325,-0.002024217741563916,-0.0,0.0,0.0,0.0,0.003840755671262741,0.039500486105680466,0.003392958315089345,17329.0,6964.0,12800.0,14689.0,0.6882205009460449,0.09552432596683502,0.3629136085510254,0.48607563972473145,0.0,0.0,0.0,0.0,15131.0,11060.0,9297.0,17084.0,1.6561964750289917,-0.018733419364244476,0.13444270698726307,-0.05230477566829715,0.008078287355601788,-0.007821565493941307,0.0
196,5,-3.39214711857494e-05,-3.710930059241946e-06,1.0637432751536835e-05,0.005638293921947479,-0.0071236989460885525,0.016585957258939743,-0.013993903063237667,-0.13400553166866302,0.0034613758325576782,-0.011343139223754406,-0.021022677421569824,-0.19729191064834595,0.0,0.0,0.0,-0.010970423929393291,-0.010081488639116287,-0.0,0.0,0.0,0.0,0.003791065188124776,0.04062081500887871,-0.005759407300502062,13930.0,12563.0,7104.0,18051.0,0.4344901442527771,0.34876391291618347,0.09996169805526733,0.7495182752609253,0.0,0.0,0.0,0.0,16293.0,9209.0,11464.0,15751.0,1.7759705781936646,-0.010511930160442494,0.13891397376799997,-0.051579405218757236,0.04313987120985985,-0.03611202910542488,0.0
201,5,-9.593802678864449e-05,-0.0001053842788678594,0.0002455800131428987,-0.005186669062823057,0.009351322427392006,-0.021558728069067,-0.013993903063237667,-0.13400553166866302,0.0034613758325576782,-0.011343139223754406,-0.021022677421569824,-0.19729191064834595,0.0,0.0,0.0,-0.010970423929393291,-0.010081488639116287,-0.0,0.0,0.0,0.0,0.003791065188124776,0.04062081500887871,-0.005759407300502062,13930.0,12563.0,7104.0,18051.0,0.4344901442527771,0.34876391291618347,0.09996169805526733,0.7495182752609253,0.0,0.0,0.0,0.0,16293.0,9209.0,11464.0,15751.0,1.7759705781936646,-0.019952875366712513,0.13281417406081122,-0.05253275365685865,0.04313987120985985,-0.03611202910542488,0.0
206,5,-2.3943714040797204e-05,1.9441240510786884e-05,1.9444642020971514e-05,0.006564649753272533,-0.01123853400349617,0.018512755632400513,-0.013944780454039574,-0.13350294530391693,0.004491756204515696,-0.06777799129486084,-0.02639630250632763,0.038618627935647964,0.0,0.0,0.0,-0.011082552373409271,-0.004777912050485611,-0.0,0.0,0.0,0.0,0.0034654405899345875,0.03884575515985489,0.004785276483744383,16885.0,8094.0,12188.0,15212.0,0.6517226696014404,0.13396361470222473,0.3268541693687439,0.5233563184738159,0.0,0.0,0.0,0.0,15086.0,11059.0,9388.0,17115.0,1.7354158163070679,-0.010256320167452258,0.1379083285282738,-0.05087702343937684,0.019978610798716545,-0.03564804792404175,0.0
212,5,-4.0581468056188896e-05,2.09631889447337e-05,4.85639029648155e-05,0.0006293297046795487,-0.004678047262132168,0.003910790663212538,-0.013944780454039574,-0.13350294530391693,0.004491756204515696,-0.06777799129486084,-0.02639630250632763,0.038618627935647964,0.0,0.0,0.0,-0.011082552373409271,-0.004777912050485611,-0.0,0.0,0.0,0.0,0.0034654405899345875,0.03884575515985489,0.004785276483744383,16885.0,8094.0,12188.0,15212.0,0.6517226696014404,0.13396361470222473,0.3268541693687439,0.5233563184738159,0.0,0.0,0.0,0.0,15086.0,11059.0,9388.0,17115.0,1.7354158163070679,-0.01067555688267094,0.13720015408878508,-0.05080705104621351,0.019978610798716545,-0.03564804792404175,0.0
217,5,-0.00018525605264585465,2.554258935560938e-05,0.0003072439576499164,-0.0171092189848423,-0.0024207469541579485,-0.02947728894650936,-0.014705879613757133,-0.13306444883346558,0.004229824990034103,-0.009663260541856289,-0.10054639726877213,0.07583222538232803,0.0,0.0,0.0,0.005691221449524164,0.0005295260925777256,-0.0,0.0,0.0,0.0,0.0036604490596801043,0.037726640701293945,0.001054156688041985,16791.0,10010.0,12360.0,15988.0,0.6442024111747742,0.21378687024116516,0.33684954047203064,0.5811316967010498,0.0,0.0,0.0,0.0,16797.0,10196.0,12255.0,15947.0,1.6738207340240479,-0.00972103670940096,0.13783090693319588,-0.05129568831242269,-0.002135704504325986,0.017657073214650154,-0.0
222,5,-8.025567512959242e-05,8.265547876362689e-06,0.00013207184383645654,0.0057563576847314835,0.0011049463646486402,0.009229735471308231,-0.014705879613757133,-0.13306444883346558,0.004229824990034103,-0.009663260541856289,-0.10054639726877213,0.07583222538232803,0.0,0.0,0.0,0.005691221449524164,0.0005295260925777256,-0.0,0.0,0.0,0.0,0.0036604490596801043,0.037726640701293945,0.001054156688041985,16791.0,10010.0,12360.0,15988.0,0.6442024111747742,0.21378687024116516,0.33684954047203064,0.5811316967010498,0.0,0.0,0.0,0.0,16797.0,10196.0,12255.0,15947.0,1.6738207340240479,-0.01023865906663262,0.13635019369460677,-0.051110994428457866,-0.002135704504325986,0.017657073214650154,-0.0
227,5,-8.531114144716412e-05,-4.231555976730306e-06,0.0001568327861605212,0.0016958874184638262,0.0019416309660300612,0.0007205824367702007,-0.01425005029886961,-0.13240082561969757,0.004345916677266359,0.12220735847949982,-0.09817545115947723,-0.011465469375252724,0.0,0.0,0.0,-0.0013132714666426182,0.005210960283875465,-0.0,0.0,0.0,0.0,0.004867979325354099,0.03601362928748131,0.0008765495149418712,16231.0,11553.0,11400.0,16250.0,0.5998885631561279,0.29145509004592896,0.2832280993461609,0.601398766040802,0.0,0.0,0.0,0.0,16463.0,11303.0,11831.0,15883.0,1.6838794946670532,-0.010408673091144755,0.13572059641331924,-0.05117081185307766,-0.02114357054233551,-0.004098961595445871,-0.0
232,5,-0.0001298346178373322,-2.622489228087943e-05,0.0002764584787655622,-0.004664462059736252,0.0034158527851104736,-0.014066848903894424,-0.01425005029886961,-0.13240082561969757,0.004345916677266359,0.12220735847949982,-0.09817545115947723,-0.011465469375252724,0.0,0.0,0.0,-0.0013132714666426182,0.005210960283875465,-0.0,0.0,0.0,0.0,0.004867979325354099,0.03601362928748131,0.0008765495149418712,16231.0,11553.0,11400.0,16250.0,0.5998885631561279,0.29145509004592896,0.2832280993461609,0.601398766040802,0.0,0.0,0.0,0.0,16463.0,11303.0,11831.0,15883.0,1.6838794946670532,-0.0119463138978467,0.1341747315251744,-0.05132537761959114,-0.02114357054233551,-0.004098961595445871,-0.0
237,5,-0.0001829272514441982,-2.7237429094384424e-05,0.0003741178079508245,-0.008236899971961975,0.001487845554947853,-0.017345858737826347,-0.01344152633100748,-0.1309070736169815,0.004483715631067753,0.009511178359389305,-0.15343399345874786,0.013819568790495396,0.0,0.0,0.0,-0.004145227372646332,-0.004481629468500614,-0.0,0.0,0.0,0.0,0.0021455984096974134,0.030867954716086388,-0.00037660059751942754,15559.0,11246.0,11578.0,15804.0,0.5488224029541016,0.27505072951316833,0.2928215563297272,0.5671847462654114,0.0,0.0,0.0,0.0,15783.0,10481.0,11600.0,15946.0,1.6860523223876953,-0.011829915834294016,0.1324954209546384,-0.05101734935277657,0.018207643181085587,-0.012954650446772575,0.0
242,5,-0.00023984076688066125,-1.609504579391796e-05,0.0005269412067718804,-0.010124381631612778,-0.0007419477915391326,-0.02527715265750885,-0.01344152633100748,-0.1309070736169815,0.004483715631067753,0.009511178359389305,-0.15343399345874786,0.013819568790495396,0.0,0.0,0.0,-0.004145227372646332,-0.004481629468500614,-0.0,0.0,0.0,0.0,0.0021455984096974134,0.030867954716086388,-0.00037660059751942754,15559.0,11246.0,11578.0,15804.0,0.5488224029541016,0.27505072951316833,0.2928215563297272,0.5671847462654114,0.0,0.0,0.0,0.0,15783.0,10481.0,11600.0,15946.0,1.6860523223876953,-0.011500668115160735,0.12986774539297222,-0.05165553338606739,0.018207643181085587,-0.012954650446772575,0.0
247,5,-0.00041973660700023174,-3.311911132186651e-05,0.0008484263671562076,-0.025637255981564522,0.0017461087554693222,-0.048689085990190506,-0.012963690795004368,-0.1289549022912979,0.0043631079606711864,0.07610730826854706,-0.38632529973983765,0.004652951844036579,0.0,0.0,0.0,0.0008390378789044917,-0.009416930377483368,-0.0,0.0,0.0,0.0,0.0014624337200075388,0.015931548550724983,0.000346534390700981,14779.0,12403.0,13026.0,14566.0,0.49242478609085083,0.33934658765792847,0.37673419713974,0.477546751499176,0.0,0.0,0.0,0.0,15826.0,10912.0,12709.0,14884.0,1.7314406633377075,-0.0123314876414079,0.1268419691972667,-0.05253581449958247,0.03928821533918381,0.002692759968340397,0.0
252,5,-0.00042320656939409673,-7.993266990524717e-06,0.0008154233801178634,-0.010671296156942844,-0.002316657919436693,-0.01551526878029108,-0.012963690795004368,-0.1289549022912979,0.0043631079606711864,0.07610730826854706,-0.38632529973983765,0.004652951844036579,0.0,0.0,0.0,0.0008390378789044917,-0.009416930377483368,-0.0,0.0,0.0,0.0,0.0014624337200075388,0.015931548550724983,0.000346534390700981,14779.0,12403.0,13026.0,14566.0,0.49242478609085083,0.33934658765792847,0.37673419713974,0.477546751499176,0.0,0.0,0.0,0.0,15826.0,10912.0,12709.0,14884.0,1.7314406633377075,-0.011877664167849711,0.12280127203573106,-0.05223442635059348,0.03928821533918381,0.002692759968340397,0.0
257,5,-0.0005644719931297004,1.3133356333128177e-05,0.0009603860671631992,-0.02122037298977375,-0.0034618580248206854,-0.023601636290550232,-0.012963690795004368,-0.1289549022912979,0.0043631079606711864,0.07610730826854706,-0.38632529973983765,0.004652951844036579,0.0,0.0,0.0,0.0026771845296025276,-0.01009137649089098,-0.0,0.0,0.0,0.0,0.0014624337200075388,0.015931548550724983,0.000346534390700981,14779.0,12403.0,13026.0,14566.0,0.49242478609085083,0.33934658765792847,0.37673419713974,0.477546751499176,0.0,0.0,0.0,0.0,15826.0,10912.0,12709.0,14884.0,1.741611123085022,-0.011438860609134705,0.11834766892625552,-0.05268737921669406,0.042349137365818024,0.008642454631626606,0.0
262,5,-0.0007114281761460006,-6.265909178182483e-05,0.0010859102476388216,-0.026122886687517166,0.007710350677371025,-0.0245035532861948,-0.011308601126074791,-0.1145344227552414,0.004736630246043205,0.11375916004180908,-1.2158291339874268,0.04239337891340256,0.0,0.0,0.0,0.0026771845296025276,-0.01009137649089098,-0.0,0.0,0.0,0.0,0.0017292570555582643,-0.0014885051641613245,0.0011263338383287191,14142.0,13457.0,14698.0,13278.0,0.44859305024147034,0.4037308990955353,0.48670580983161926,0.39241090416908264,0.0,0.0,0.0,0.0,14245.0,13111.0,13303.0,14230.0,1.741611123085022,-0.01810571684183711,0.11044278474095576,-0.05353054148239623,0.042349137365818024,0.008642454631626606,0.0
267,5,-0.0008939171675592661,1.8863856894313358e-05,0.0012555397115647793,-0.03234783560037613,-0.00669861352071166,-0.030156953260302544,-0.011308601126074791,-0.1145344227552414,0.004736630246043205,0.11375916004180908,-1.2158291339874268,0.04239337891340256,0.0,0.0,0.0,-0.008290175348520279,-0.022206606343388557,-0.0,0.0,0.0,0.0,0.0017292570555582643,-0.0014885051641613245,0.0011263338383287191,14142.0,13457.0,14698.0,13278.0,0.44859305024147034,0.4037308990955353,0.48670580983161926,0.39241090416908264,0.0,0.0,0.0,0.0,13901.0,13751.0,15194.0,12653.0,1.9041746854782104,-0.011405275402266405,0.10692041952007582,-0.05298208366886329,0.10188031196594238,-0.029259709641337395,0.0
273,5,-0.001046024146489799,3.607558392104693e-05,0.0013854916905984282,-0.031191974878311157,-0.004744852893054485,-0.027657024562358856,-0.009455659426748753,-0.09839814901351929,0.005360599607229233,0.1484738290309906,-1.534781813621521,0.019532546401023865,0.0,0.0,0.0,-0.008290175348520279,-0.022206606343388557,-0.0,0.0,0.0,0.0,0.0006057171849533916,-0.015264403074979782,0.0009216060861945152,12926.0,14763.0,15494.0,12342.0,0.37059760093688965,0.4912683963775635,0.5439890027046204,0.3357561230659485,0.0,0.0,0.0,0.0,13901.0,13751.0,15194.0,12653.0,1.9041746854782104,-0.01154839335838657,0.10016338250646546,-0.052674150824590635,0.10188031196594238,-0.029259709641337395,0.0
278,5,-0.00123257702216506,2.9881908631068654e-05,0.0015460047870874405,-0.03486313670873642,-0.0011546999448910356,-0.030324382707476616,-0.009455659426748753,-0.09839814901351929,0.005360599607229233,0.1484738290309906,-1.534781813621521,0.019532546401023865,0.0,0.0,0.0,0.0049783894792199135,-0.026128651574254036,-0.0,0.0,0.0,0.0,0.0006057171849533916,-0.015264403074979782,0.0009216060861945152,12926.0,14763.0,15494.0,12342.0,0.37059760093688965,0.4912683963775635,0.5439890027046204,0.3357561230659485,0.0,0.0,0.0,0.0,13901.0,13751.0,15194.0,12653.0,1.9496129751205444,-0.013775291612858946,0.09196827588382486,-0.05288176959583351,0.12273333221673965,0.0179904717952013,0.0
283,5,-0.0014249262167140841,8.186185732483864e-05,0.001777789555490017,-0.03702714666724205,-0.006699474062770605,-0.039943914860486984,-0.008246571756899357,-0.0858767181634903,0.005752193741500378,0.126262366771698,-1.6141417026519775,0.049774885177612305,0.0,0.0,0.0,0.0049783894792199135,-0.026128651574254036,-0.0,0.0,0.0,0.0,0.0010442092316225171,-0.02442227117717266,0.0017625427572056651,13396.0,15799.0,16761.0,11631.0,0.3998580873012543,0.5668008923530579,0.641800045967102,0.29571571946144104,0.0,0.0,0.0,0.0,12828.0,14865.0,15812.0,11903.0,1.9496129751205444,-0.0116603376987616,0.0866683686828496,-0.053007793125790736,0.12273333221673965,0.0179904717952013,0.0
288,5,-0.0014875344932079315,0.00010617334919515997,0.0017775398446246982,-0.022323859855532646,-0.005597168579697609,-0.015947604551911354,-0.008246571756899357,-0.0858767181634903,0.005752193741500378,0.126262366771698,-1.6141417026519775,0.049774885177612305,0.0,0.0,0.0,0.006859377957880497,-0.0302748866379261,-0.0,0.0,0.0,0.0,0.0010442092316225171,-0.02442227117717266,0.0017625427572056651,13396.0,15799.0,16761.0,11631.0,0.3998580873012543,0.5668008923530579,0.641800045967102,0.29571571946144104,0.0,0.0,0.0,0.0,12828.0,14865.0,15812.0,11903.0,2.011335849761963,-0.011192479585935512,0.07997381954632529,-0.052706082982571914,0.14670416712760925,0.025572411715984344,0.0
293,5,-0.0016086726682260633,2.9242113669170067e-05,0.0019836234860122204,-0.02346612885594368,0.006992881186306477,-0.031109079718589783,-0.006916499696671963,-0.06699349731206894,0.006311754230409861,0.08395223319530487,-1.4696507453918457,0.025071432814002037,0.0,0.0,0.0,0.006859377957880497,-0.0302748866379261,-0.0,0.0,0.0,0.0,-0.001455631572753191,-0.02934061363339424,0.0013673275243490934,13037.0,16073.0,16748.0,11680.0,0.3774070739746094,0.5877118706703186,0.6406853795051575,0.298370361328125,0.0,0.0,0.0,0.0,13202.0,15975.0,16826.0,11516.0,2.011335849761963,-0.021260727641577278,0.06893270463989247,-0.05434875542912311,0.14670416712760925,0.025572411715984344,0.0
298,5,-0.0016764943720772862,0.00017717204173095524,0.0019213373307138681,-0.017525048926472664,-0.014954439364373684,-0.004969292785972357,-0.006916499696671963,-0.06699349731206894,0.006311754230409861,0.08395223319530487,-1.4696507453918457,0.025071432814002037,0.0,0.0,0.0,-0.007440941408276558,-0.02127491869032383,-0.0,0.0,0.0,0.0,-0.001455631572753191,-0.02934061363339424,0.0013673275243490934,13037.0,16073.0,16748.0,11680.0,0.3774070739746094,0.5877118706703186,0.6406853795051575,0.298370361328125,0.0,0.0,0.0,0.0,13202.0,15975.0,16826.0,11516.0,1.8897267580032349,-0.012719787867314581,0.06959774596617078,-0.05206118144041463,0.09686659276485443,-0.0260632261633873,0.0
303,5,-0.0017360704950988293,0.00013793332618661225,0.002032930962741375,-0.014159159734845161,-0.0012731291353702545,-0.01537895854562521,-0.006406635046005249,-0.056528422981500626,0.006714837625622749,0.04469216987490654,-1.061780571937561,0.041244521737098694,0.0,0.0,0.0,-0.007440941408276558,-0.02127491869032383,-0.0,0.0,0.0,0.0,0.001893957145512104,-0.024587133899331093,0.0018736354541033506,13675.0,15438.0,16816.0,12513.0,0.4177885055541992,0.5398516058921814,0.6461548209190369,0.34581804275512695,0.0,0.0,0.0,0.0,13103.0,15905.0,17115.0,12115.0,1.8897267580032349,-0.017676216117503595,0.06531517304964342,-0.053309401663129516,0.09686659276485443,-0.0260632261633873,0.0
308,5,-0.0017522848211228848,0.00022878598247189075,0.0020797590259462595,-0.007609375286847353,-0.011411570943892002,-0.011770951561629772,-0.006406635046005249,-0.056528422981500626,0.006714837625622749,0.04469216987490654,-1.061780571937561,0.041244521737098694,0.0,0.0,0.0,0.0016644052229821682,-0.014503647573292255,-0.0,0.0,0.0,0.0,0.001893957145512104,-0.024587133899331093,0.0018736354541033506,13675.0,15438.0,16816.0,12513.0,0.4177885055541992,0.5398516058921814,0.6461548209190369,0.34581804275512695,0.0,0.0,0.0,0.0,13103.0,15905.0,17115.0,12115.0,1.7933363914489746,-0.014035206479241521,0.06429137087830152,-0.051296292876160554,0.0626722201704979,0.005532596725970507,0.0
313,5,-0.001747415866702795,0.0002480069815646857,0.002155319321900606,-0.0024594729766249657,-0.006871147081255913,-0.013775608502328396,-0.0065981317311525345,-0.046520017087459564,0.0072114430367946625,-0.0643063634634018,-0.5291041135787964,0.03520164266228676,0.0,0.0,0.0,0.0016644052229821682,-0.014503647573292255,-0.0,0.0,0.0,0.0,0.003784916130825877,-0.012382577173411846,0.0014978478429839015,14464.0,14891.0,16379.0,13848.0,0.470492422580719,0.5003370642662048,0.611420214176178,0.42908620834350586,0.0,0.0,0.0,0.0,14951.0,13947.0,15337.0,13665.0,1.7933363914489746,-0.01319418782462644,0.06383261773404299,-0.052012237705880295,0.0626722201704979,0.005532596725970507,0.0
318,5,-0.0018570669926702976,0.00023108012101147324,0.002465220168232918,-0.01414193119853735,-0.0007172361947596073,-0.042698346078395844,-0.0065981317311525345,-0.046520017087459564,0.0072114430367946625,-0.0643063634634018,-0.5291041135787964,0.03520164266228676,0.0,0.0,0.0,0.008536885492503643,-0.004566588439047337,-0.0,0.0,0.0,0.0,0.003784916130825877,-0.012382577173411846,0.0014978478429839015,14464.0,14891.0,16379.0,13848.0,0.470492422580719,0.5003370642662048,0.611420214176178,0.42908620834350586,0.0,0.0,0.0,0.0,14951.0,13947.0,15337.0,13665.0,1.7146456241607666,-0.013731013422311351,0.06362473521468162,-0.052569508115225316,0.01886691153049469,0.02713143639266491,0.0
324,5,-0.0016932243015617132,0.0002777215850073844,0.0022154422476887703,0.014004351571202278,-0.005883870646357536,0.01289401762187481,-0.006945629138499498,-0.04435133561491966,0.007570750545710325,-0.053528569638729095,0.017590025439858437,0.03927481919527054,0.0,0.0,0.0,0.008536885492503643,-0.004566588439047337,-0.0,0.0,0.0,0.0,0.0003531159018166363,0.005384032614529133,0.0018223881488665938,15529.0,13302.0,14731.0,14313.0,0.546610951423645,0.39389729499816895,0.4890456795692444,0.4601728320121765,0.0,0.0,0.0,0.0,15371.0,12357.0,13902.0,14732.0,1.7146456241607666,-0.011991024552527893,0.06605756491437717,-0.051705977409750734,0.01886691153049469,0.02713143639266491,0.0
329,5,-0.001661444315686822,0.00028222714900039136,0.002248374978080392,0.0094153368845582,-0.0028942169155925512,0.0012056722771376371,-0.006945629138499498,-0.04435133561491966,0.007570750545710325,-0.053528569638729095,0.017590025439858437,0.03927481919527054,0.0,0.0,0.0,0.007243133150041103,0.01019363570958376,-0.0,0.0,0.0,0.0,0.0003531159018166363,0.005384032614529133,0.0018223881488665938,15529.0,13302.0,14731.0,14313.0,0.546610951423645,0.39389729499816895,0.4890456795692444,0.4601728320121765,0.0,0.0,0.0,0.0,15371.0,12357.0,13902.0,14732.0,1.757378101348877,-0.01180157218642724,0.0675267655255091,-0.05160786358896856,-0.043164558708667755,0.02359355241060257,-0.0
334,5,-0.0016523996600881219,0.0002597712737042457,0.0022733258083462715,0.004851499572396278,0.0015370172914117575,-0.0025118279736489058,-0.007399133872240782,-0.046502385288476944,0.008038390427827835,-0.029397407546639442,0.33003613352775574,0.056387681514024734,0.0,0.0,0.0,0.007243133150041103,0.01019363570958376,-0.0,0.0,0.0,0.0,0.0025427639484405518,0.018482515588402748,0.0018564383499324322,15954.0,11616.0,13770.0,14829.0,0.5785415172576904,0.29489800333976746,0.4239285886287689,0.495968222618103,0.0,0.0,0.0,0.0,15371.0,12357.0,13902.0,14732.0,1.757378101348877,-0.014983399425145144,0.068473651461741,-0.05130963000700156,-0.043164558708667755,0.02359355241060257,-0.0
339,5,-0.0015573576092720032,0.000196634660824202,0.0022690489422529936,0.01334563922137022,0.008191201835870743,-0.0004915209719911218,-0.007399133872240782,-0.046502385288476944,0.008038390427827835,-0.029397407546639442,0.33003613352775574,0.056387681514024734,0.0,0.0,0.0,-0.0014140987768769264,0.0022746918257325888,-0.0,0.0,0.0,0.0,0.0025427639484405518,0.018482515588402748,0.0018564383499324322,15954.0,11616.0,13770.0,14829.0,0.5785415172576904,0.29489800333976746,0.4239285886287689,0.495968222618103,0.0,0.0,0.0,0.0,15371.0,12357.0,13902.0,14732.0,1.6529512405395508,-0.01927167599139644,0.06675898081060541,-0.05287740301937529,-0.009060114622116089,-0.004332594573497772,0.0
344,5,-0.0016809009248390794,0.0002648274239618331,0.002429782645776868,-0.009486946277320385,-0.0049066501669585705,-0.0194846298545599,-0.007536068093031645,-0.04902246594429016,0.008261053822934628,-0.02754608355462551,0.2639181911945343,0.029562948271632195,0.0,0.0,0.0,-0.0014140987768769264,0.0022746918257325888,-0.0,0.0,0.0,0.0,0.0044507659040391445,0.022138191387057304,0.0013440848561003804,15521.0,11194.0,13151.0,15052.0,0.5460501909255981,0.2723161280155182,0.3844399154186249,0.5118393301963806,0.0,0.0,0.0,0.0,15929.0,11670.0,13544.0,15020.0,1.6529512405395508,-0.013356834458377256,0.06975483007573186,-0.05116634919890181,-0.009060114622116089,-0.004332594573497772,0.0
349,5,-0.0015908232890069485,0.0002851376193575561,0.002244249451905489,0.007014541886746883,-0.0043998840264976025,0.014470106922090054,-0.007536068093031645,-0.04902246594429016,0.008261053822934628,-0.02754608355462551,0.2639181911945343,0.029562948271632195,0.0,0.0,0.0,0.006098015699535608,-0.010598687455058098,-0.0,0.0,0.0,0.0,0.0044507659040391445,0.022138191387057304,0.0013440848561003804,15521.0,11194.0,13151.0,15052.0,0.5460501909255981,0.2723161280155182,0.3844399154186249,0.5118393301963806,0.0,0.0,0.0,0.0,15929.0,11670.0,13544.0,15020.0,1.7570524215698242,-0.012522361109458839,0.06928805294067442,-0.050869057544910994,0.044871699064970016,0.01985989324748516,0.0
354,5,-0.0015775490319356322,0.00029460815130732954,0.0021966591011732817,0.004398730117827654,-0.0028964164666831493,0.011498884297907352,-0.007446884643286467,-0.05078785493969917,0.00858419481664896,0.037768591195344925,-0.01763126440346241,0.024159399792551994,0.0,0.0,0.0,0.006098015699535608,-0.010598687455058098,-0.0,0.0,0.0,0.0,0.003503696760162711,0.01920396089553833,0.0013799230800941586,15523.0,11790.0,13504.0,14887.0,0.5461642146110535,0.30446285009384155,0.40674084424972534,0.5000101923942566,0.0,0.0,0.0,0.0,15408.0,11438.0,13250.0,14901.0,1.7570524215698242,-0.012380892641998553,0.06740099739707814,-0.05055942795585074,0.044871699064970016,0.01985989324748516,0.0
359,5,-0.0016330706421285868,0.0002943383005913347,0.0022069301921874285,-0.004903101362287998,-0.0011261868057772517,0.0033670326229184866,-0.007446884643286467,-0.05078785493969917,0.00858419481664896,0.037768591195344925,-0.01763126440346241,0.024159399792551994,0.0,0.0,0.0,0.004044628236442804,0.0019342092564329505,-0.0,0.0,0.0,0.0,0.003503696760162711,0.01920396089553833,0.0013799230800941586,15523.0,11790.0,13504.0,14887.0,0.5461642146110535,0.30446285009384155,0.40674084424972534,0.5000101923942566,0.0,0.0,0.0,0.0,15408.0,11438.0,13250.0,14901.0,1.6655216217041016,-0.012595413331418748,0.06545638702385743,-0.050372710620285,-0.00776250334456563,0.012486343272030354,-0.0
365,5,-0.0017138248076662421,0.00027571499231271446,0.002250279765576124,-0.011651734821498394,0.0017843242967501283,-0.003855132032185793,-0.006987166590988636,-0.04901681840419769,0.00871305912733078,0.08830840140581131,-0.4669458270072937,0.02310064062476158,0.0,0.0,0.0,0.004044628236442804,0.0019342092564329505,-0.0,0.0,0.0,0.0,0.0006481786840595305,0.004645647015422583,0.0013717784313485026,14351.0,12749.0,13967.0,13295.0,0.4627281427383423,0.3598518967628479,0.43690723180770874,0.39346396923065186,0.0,0.0,0.0,0.0,15148.0,12335.0,13734.0,14626.0,1.6655216217041016,-0.011448965179304743,0.06227652621604467,-0.05077485923306848,-0.00776250334456563,0.012486343272030354,-0.0
370,5,-0.0018033263040706515,0.0002992264344356954,0.0023139293771237135,-0.015400872565805912,-0.00210764491930604,-0.009180018678307533,-0.006987166590988636,-0.04901681840419769,0.00871305912733078,0.08830840140581131,-0.4669458270072937,0.02310064062476158,0.0,0.0,0.0,-0.0015769659075886011,-0.01248011365532875,-0.0,0.0,0.0,0.0,0.0006481786840595305,0.004645647015422583,0.0013717784313485026,14351.0,12749.0,13967.0,13295.0,0.4627281427383423,0.3598518967628479,0.43690723180770874,0.39346396923065186,0.0,0.0,0.0,0.0,15148.0,12335.0,13734.0,14626.0,1.768512487411499,-0.011716935893786954,0.05864166342752913,-0.050518223194371124,0.05318225547671318,-0.005169382318854332,0.0
375,5,-0.001885005971416831,0.00030582997715100646,0.0023974492214620113,-0.015961917117238045,-0.0016354830004274845,-0.013694369234144688,-0.006987166590988636,-0.04901681840419769,0.00871305912733078,0.08830840140581131,-0.4669458270072937,0.02310064062476158,0.0,0.0,0.0,-0.0015769659075886011,-0.01248011365532875,-0.0,0.0,0.0,0.0,0.003191419644281268,-0.010807665064930916,0.0008817816269584,14351.0,12749.0,13967.0,13295.0,0.4627281427383423,0.3598518967628479,0.43690723180770874,0.39346396923065186,0.0,0.0,0.0,0.0,14018.0,13118.0,14199.0,13043.0,1.768512487411499,-0.011863238126636387,0.05410946800530415,-0.050018546772467185,0.05318225547671318,-0.005169382318854332,0.0
380,5,-0.0020447559654712677,0.0002994348469655961,0.0025599151849746704,-0.025554751977324486,0.00011322333011776209,-0.024973684921860695,-0.006987166590988636,-0.04901681840419769,0.00871305912733078,0.08830840140581131,-0.4669458270072937,0.02310064062476158,0.0,0.0,0.0,0.002326643094420433,-0.01608516462147236,-0.0,0.0,0.0,0.0,0.003191419644281268,-0.010807665064930916,0.0008817816269584,14351.0,12749.0,13967.0,13295.0,0.4627281427383423,0.3598518967628479,0.43690723180770874,0.39346396923065186,0.0,0.0,0.0,0.0,14018.0,13118.0,14199.0,13043.0,1.8136683702468872,-0.015489349124287803,0.04928459542779915,-0.050150722872267496,0.07029353082180023,0.007821598090231419,0.0
385,5,-0.00218414724804461,0.0002327161782886833,0.0027754027396440506,-0.026948854327201843,0.00805152952671051,-0.03584795817732811,-0.0064519476145505905,-0.04189395532011986,0.008903523907065392,-0.0002932020288426429,-0.7742213606834412,0.0010241831187158823,0.0,0.0,0.0,0.002326643094420433,-0.01608516462147236,-0.0,0.0,0.0,0.0,0.0027793729677796364,-0.013782027177512646,0.001513059251010418,13090.0,13809.0,15348.0,12157.0,0.3806838393211365,0.4265017509460449,0.5332575440406799,0.32507848739624023,0.0,0.0,0.0,0.0,13133.0,14463.0,15546.0,12675.0,1.8136683702468872,-0.02129442887757316,0.0404286870480433,-0.0509195252823785,0.07029353082180023,0.007821598090231419,0.0
390,5,-0.002348537091165781,0.00032831926364451647,0.002740758005529642,-0.020202655345201492,-0.0031281376723200083,-0.009146424941718578,-0.0064519476145505905,-0.04189395532011986,0.008903523907065392,-0.0002932020288426429,-0.7742213606834412,0.0010241831187158823,0.0,0.0,0.0,-0.008074497804045677,-0.024315165355801582,-0.0,0.0,0.0,0.0,0.0027793729677796364,-0.013782027177512646,0.001513059251010418,13090.0,13809.0,15348.0,12157.0,0.3806838393211365,0.4265017509460449,0.5332575440406799,0.32507848739624023,0.0,0.0,0.0,0.0,13133.0,14463.0,15546.0,12675.0,1.9314019680023193,-0.014517372148165592,0.03839035861538634,-0.048940971116839045,0.11314746737480164,-0.02890601009130478,0.0
395,5,-0.002348537091165781,0.00032831926364451647,0.002740758005529642,-0.020202655345201492,-0.0031281376723200083,-0.009146424941718578,-0.006260825786739588,-0.025652529671788216,0.009238170459866524,0.004030753392726183,-0.7913858890533447,-0.007448065094649792,0.0,0.0,0.0,-0.008074497804045677,-0.024315165355801582,-0.0,0.0,0.0,0.0,0.0012120084138587117,-0.018249083310365677,0.0006939632003195584,12914.0,14942.0,15609.0,12451.0,0.36985528469085693,0.5039421916007996,0.5525470972061157,0.3421679735183716,0.0,0.0,0.0,0.0,12987.0,13990.0,15172.0,12282.0,1.9314019680023193,-0.014517372148165592,0.03839035861538634,-0.048940971116839045,0.11314746737480164,-0.02890601009130478,0.0
400,5,-0.002496914705261588,0.0003233758907299489,0.002787485718727112,-0.017056047916412354,-0.008995339274406433,-0.0029675515834242105,-0.006260825786739588,-0.025652529671788216,0.009238170459866524,0.004030753392726183,-0.7913858890533447,-0.007448065094649792,0.0,0.0,0.0,0.003922721836715937,-0.01977558061480522,-0.0,0.0,0.0,0.0,0.0012120084138587117,-0.018249083310365677,0.0006939632003195584,12914.0,14942.0,15609.0,12451.0,0.36985528469085693,0.5039421916007996,0.5525470972061157,0.3421679735183716,0.0,0.0,0.0,0.0,12987.0,13990.0,15172.0,12282.0,1.8628400564193726,-0.012811543366450337,0.0346186034068497,-0.050052756639273666,0.0887615904211998,0.01354470755904913,0.0
405,5,-0.0025439169257879257,0.00032691098749637604,0.0027924743480980396,-0.012462676502764225,-0.004022346809506416,-0.0017856485210359097,-0.005850200075656176,-0.020090484991669655,0.009436845779418945,0.08336161077022552,-0.5492726564407349,0.0005917071830481291,0.0,0.0,0.0,0.003922721836715937,-0.01977558061480522,-0.0,0.0,0.0,0.0,0.0013432903215289116,-0.0162369292229414,0.0012962119653820992,13496.0,14750.0,15658.0,12765.0,0.4062332808971405,0.4903542697429657,0.5562333464622498,0.36084750294685364,0.0,0.0,0.0,0.0,13357.0,14892.0,15207.0,13286.0,1.8628400564193726,-0.013524848009051849,0.033253210163431336,-0.04926556470419147,0.0887615904211998,0.01354470755904913,0.0
411,5,-0.0026087891310453415,0.0002132375811925158,0.002964579965919256,-0.012769727036356926,0.012031870894134045,-0.02136693149805069,-0.005850200075656176,-0.020090484991669655,0.009436845779418945,0.08336161077022552,-0.5492726564407349,0.0005917071830481291,0.0,0.0,0.0,0.005080027971416712,-0.014070887118577957,-0.0,0.0,0.0,0.0,0.0013432903215289116,-0.0162369292229414,0.0012962119653820992,13496.0,14750.0,15658.0,12765.0,0.4062332808971405,0.4903542697429657,0.5562333464622498,0.36084750294685364,0.0,0.0,0.0,0.0,13357.0,14892.0,15207.0,13286.0,1.793882966041565,-0.02334457990705454,0.0269140792155822,-0.05141983355149221,0.06082015857100487,0.016891390085220337,0.0
416,5,-0.0025732810609042645,0.0003456440463196486,0.0027724008541554213,-0.0008469180320389569,-0.011076027527451515,0.01451471634209156,-0.004902263171970844,-0.014971965923905373,0.009235010482370853,0.08222432434558868,-0.2666167914867401,-0.017662925645709038,0.0,0.0,0.0,0.005080027971416712,-0.014070887118577957,-0.0,0.0,0.0,0.0,0.0016974492464214563,-0.0006299624219536781,0.000227761673158966,14273.0,15213.0,15355.0,13659.0,0.45745912194252014,0.5234353542327881,0.5337726473808289,0.41673484444618225,0.0,0.0,0.0,0.0,14569.0,14917.0,15278.0,13760.0,1.793882966041565,-0.012691968204339274,0.03407029367768949,-0.04988973499149231,0.06082015857100487,0.016891390085220337,0.0
421,5,-0.0026038293726742268,0.0003551045956555754,0.0027273986488580704,-0.004004586022347212,-0.005565679166465998,0.011206147260963917,-0.004902263171970844,-0.014971965923905373,0.009235010482370853,0.08222432434558868,-0.2666167914867401,-0.017662925645709038,0.0,0.0,0.0,0.013385957106947899,-0.00413142703473568,-0.0,0.0,0.0,0.0,0.0016974492464214563,-0.0006299624219536781,0.000227761673158966,14273.0,15213.0,15355.0,13659.0,0.45745912194252014,0.5234353542327881,0.5337726473808289,0.41673484444618225,0.0,0.0,0.0,0.0,14569.0,14917.0,15278.0,13760.0,1.7511556148529053,-0.013905868901814814,0.03449013713728441,-0.049334768973130674,0.017431573942303658,0.04344693571329117,-0.0
426,5,-0.0026807417161762714,0.0003156469902023673,0.0027559087611734867,-0.010831291787326336,0.002508644014596939,0.0010612423066049814,-0.004382036160677671,-0.01408661250025034,0.009134003892540932,0.01476586889475584,0.07626069337129593,-0.03321744501590729,0.0,0.0,0.0,0.013385957106947899,-0.00413142703473568,-0.0,0.0,0.0,0.0,0.0034430043306201696,0.006936639081686735,0.0013884472427889705,14336.0,14224.0,14530.0,14485.0,0.46171531081199646,0.45415064692497253,0.47503653168678284,0.4719375669956207,0.0,0.0,0.0,0.0,14523.0,13905.0,14516.0,14622.0,1.7511556148529053,-0.016242774376857602,0.03609398081797221,-0.05030710069857048,0.017431573942303658,0.04344693571329117,-0.0
431,5,-0.002755962312221527,0.00031234996276907623,0.002927487948909402,-0.013359003700315952,0.0013991007581353188,-0.020164992660284042,-0.004382036160677671,-0.01408661250025034,0.009134003892540932,0.01476586889475584,0.07626069337129593,-0.03321744501590729,0.0,0.0,0.0,-0.0023277238942682743,-0.012968421913683414,-0.0,0.0,0.0,0.0,0.0034430043306201696,0.006936639081686735,0.0013884472427889705,14336.0,14224.0,14530.0,14485.0,0.46171531081199646,0.45415064692497253,0.47503653168678284,0.4719375669956207,0.0,0.0,0.0,0.0,14523.0,13905.0,14516.0,14622.0,1.7752479314804077,-0.020160530164491618,0.03315759021130336,-0.05101653073561719,0.055473390966653824,-0.007659462746232748,-0.0
436,5,-0.002681477228179574,0.000396048795664683,0.0026563412975519896,0.0035946134012192488,-0.00948421936482191,0.024471580982208252,-0.004848090000450611,-0.01595977135002613,0.009048353880643845,-0.07022036612033844,0.20997078716754913,0.015919990837574005,0.0,0.0,0.0,-0.0023277238942682743,-0.012968421913683414,-0.0,0.0,0.0,0.0,0.0034430043306201696,0.006936639081686735,0.0013884472427889705,14901.0,12849.0,14352.0,14371.0,0.5010255575180054,0.36590009927749634,0.46282845735549927,0.46412885189056396,0.0,0.0,0.0,0.0,14858.0,12878.0,14189.0,14551.0,1.7752479314804077,-0.013662278573164589,0.03839497106960558,-0.04982022623576149,0.055473390966653824,-0.007659462746232748,-0.0
441,5,-0.0027273802552372217,0.0004154085763730109,0.0026617362163960934,-0.004070508759468794,-0.006116864271461964,0.00914123747497797,-0.004848090000450611,-0.01595977135002613,0.009048353880643845,-0.07022036612033844,0.20997078716754913,0.015919990837574005,0.0,0.0,0.0,0.01179384347051382,-0.00033391526085324585,-0.0,0.0,0.0,0.0,0.0034430043306201696,0.006936639081686735,0.0013884472427889705,14901.0,12849.0,14352.0,14371.0,0.5010255575180054,0.36590009927749634,0.46282845735549927,0.46412885189056396,0.0,0.0,0.0,0.0,14858.0,12878.0,14189.0,14551.0,1.7272536754608154,-0.014407319569441215,0.03862186292830348,-0.04968709489921367,0.0013896777527406812,0.03775737062096596,-0.0
446,5,-0.0027590852696448565,0.00043857443961314857,0.0026693607214838266,-0.005432808306068182,-0.0052266474813222885,0.0027415717486292124,-0.004848090000450611,-0.01595977135002613,0.009048353880643845,-0.07022036612033844,0.20997078716754913,0.015919990837574005,0.0,0.0,0.0,0.01179384347051382,-0.00033391526085324585,-0.0,0.0,0.0,0.0,0.0034430043306201696,0.006936639081686735,0.0013884472427889705,14901.0,12849.0,14352.0,14371.0,0.5010255575180054,0.36590009927749634,0.46282845735549927,0.46412885189056396,0.0,0.0,0.0,0.0,14858.0,12878.0,14189.0,14551.0,1.7272536754608154,-0.014839505215237159,0.03901580969164731,-0.04991237237703189,0.0013896777527406812,0.03775737062096596,-0.0
451,5,-0.002851405180990696,0.00043209249270148575,0.002691966015845537,-0.013251508586108685,-0.0013128252467140555,-0.0016160147497430444,-0.005613622255623341,-0.017897849902510643,0.009027565829455853,-0.13236381113529205,0.2355390042066574,0.004497772082686424,0.0,0.0,0.0,0.0068367356434464455,-0.00851871445775032,-0.0,0.0,0.0,0.0,0.006608435418456793,0.012147178873419762,0.00087680050637573,14698.0,12273.0,13945.0,14846.0,0.48673295974731445,0.33180010318756104,0.4354661703109741,0.49715638160705566,0.0,0.0,0.0,0.0,14881.0,12030.0,14319.0,14502.0,1.738209843635559,-0.014033144701890729,0.03950737651304357,-0.05029716552638436,0.035679008811712265,0.022026902064681053,-0.0
456,5,-0.0029284213669598103,0.00045463794958777726,0.00271437200717628,-0.014542561024427414,-0.0032305866479873657,-0.0033351171296089888,-0.005613622255623341,-0.017897849902510643,0.009027565829455853,-0.13236381113529205,0.2355390042066574,0.004497772082686424,0.0,0.0,0.0,0.0068367356434464455,-0.00851871445775032,-0.0,0.0,0.0,0.0,0.006608435418456793,0.012147178873419762,0.00087680050637573,14698.0,12273.0,13945.0,14846.0,0.48673295974731445,0.33180010318756104,0.4354661703109741,0.49715638160705566,0.0,0.0,0.0,0.0,14881.0,12030.0,14319.0,14502.0,1.738209843635559,-0.014995991130152552,0.03742155107064829,-0.049739739862394876,0.035679008811712265,0.022026902064681053,-0.0
461,5,-0.0030837669037282467,0.00039726097020320594,0.0027810735628008842,-0.02445848658680916,0.0055930051021277905,-0.009338246658444405,-0.006939366459846497,-0.019866181537508965,0.009232006967067719,-0.09034563601016998,0.08009769767522812,0.01498892530798912,0.0,0.0,0.0,0.004342745523899794,-0.01616118662059307,-0.0,0.0,0.0,0.0,0.0012851743958890438,-0.0010243849828839302,0.0010856372537091374,14227.0,12898.0,14579.0,13797.0,0.45429688692092896,0.3688807487487793,0.47839808464050293,0.42567795515060425,0.0,0.0,0.0,0.0,14409.0,13422.0,14275.0,14156.0,1.817698359489441,-0.01704836658253294,0.035944667595409006,-0.05053527555193918,0.07078218460083008,0.01463161502033472,0.0
467,5,-0.003170453477650881,0.0003238871868234128,0.0028364502359181643,-0.02018578164279461,0.011042055673897266,-0.01038048230111599,-0.006939366459846497,-0.019866181537508965,0.009232006967067719,-0.09034563601016998,0.08009769767522812,0.01498892530798912,0.0,0.0,0.0,0.004342745523899794,-0.01616118662059307,-0.0,0.0,0.0,0.0,0.0012851743958890438,-0.0010243849828839302,0.0010856372537091374,14227.0,12898.0,14579.0,13797.0,0.45429688692092896,0.3688807487487793,0.47839808464050293,0.42567795515060425,0.0,0.0,0.0,0.0,14409.0,13422.0,14275.0,14156.0,1.817698359489441,-0.02271715901775251,0.0285697474951409,-0.05186898701940152,0.07078218460083008,0.01463161502033472,0.0
