timestamp,dt,pos_x,pos_y,pos_z,vel_x,vel_y,vel_z,roll,pitch,yaw,agv_x,agv_y,agv_z,x_ref,y_ref,z_ref,roll_ref,pitch_ref,yaw_ref,x_vel_ref,y_vel_ref,z_vel_ref,x_torque,y_torque,z_torque,w0,w1,w2,w3,u0,u1,u2,u3,m0req,m1req,m2req,m3req,thrust0,thrust1,thrust2,thrust3,thrust_ref,roll_vicon,pitch_vicon,yaw_vicon,acc_x,acc_y,acc_z,roll_received,pitch_received,yaw_received
5,5,0.0,0.0,0.0,-0.002313442062586546,0.01894318126142025,-0.006909586954861879,0.010188977234065533,0.0026835526805371046,0.009179585613310337,0.0,0.0,0.0,0.0,0.0,0.0,-0.021106550469994545,-0.001982978777959943,-0.0,0.0,0.0,0.0,-0.006183924153447151,-0.0001713009551167488,0.0017590204952284694,1495.0,1495.0,1495.0,1495.0,0.0,0.0,0.0,0.0,0.0,0.0,0.0,0.0,0.0,0.0,0.0,0.0,1.8160046339035034,0.01244828325844485,-0.1502415745551722,-0.06402748793869513,0.008675407618284225,-0.0710369274020195,0.0,-0.021106550469994545,-0.001982978777959943,0.0
31,26,0.0,0.0,0.0,0.010924313217401505,0.01456460077315569,-0.0011005422566086054,0.010188977234065533,0.0026835526805371046,0.009179585613310337,0.0,0.0,0.0,0.0,0.0,0.0,-0.021106550469994545,-0.001982978777959943,-0.0,0.0,0.0,0.0,-0.006183924153447151,-0.0001713009551167488,0.0017590204952284694,1495.0,1495.0,1495.0,1495.0,0.0,0.0,0.0,0.0,0.0,0.0,0.0,0.0,0.0,0.0,0.0,0.0,1.8160046339035034,0.009948681524936215,-0.1507226461389921,-0.0636797561648337,0.008675407618284225,-0.0710369274020195,0.0,-0.021106550469994545,-0.001982978777959943,0.0
36,5,0.0,0.0,0.0,0.010924313217401505,0.01456460077315569,-0.0011005422566086054,0.010188977234065533,0.0026835526805371046,0.009179585613310337,0.0,0.0,0.0,0.0,0.0,0.0,-0.016304390504956245,0.009407754987478256,-0.0,0.0,0.0,0.0,-0.006183924153447151,-0.0001713009551167488,0.0017590204952284694,1495.0,1495.0,1495.0,1495.0,0.0,0.0,0.0,0.0,0.0,0.0,0.0,0.0,0.0,0.0,0.0,0.0,1.8073891401290894,0.011354297787011773,-0.14931383014139774,-0.06366420171591602,-0.04096617549657822,-0.054617252200841904,0.0,-0.021106550469994545,-0.001982978777959943,0.0
41,5,0.0,0.0,0.0,0.010924313217401505,0.01456460077315569,-0.0011005422566086054,0.01013899128884077,0.0020231367088854313,0.009525330737233162,0.0,0.0,0.0,0.0,0.0,0.0,-0.016304390504956245,0.009407754987478256,-0.0,0.0,0.0,0.0,-0.006195499561727047,-0.00044312261161394417,0.0021863465663045645,1495.0,1495.0,1495.0,1495.0,0.0,0.0,0.0,0.0,0.0,0.0,0.0,0.0,0.0,0.0,0.0,0.0,1.8073891401290894,0.011354297787011773,-0.14931383014139774,-0.06366420171591602,-0.04096617549657822,-0.054617252200841904,0.0,-0.021106550469994545,-0.001982978777959943,0.0
56,15,0.0,0.0,0.0,0.010924313217401505,0.01456460077315569,-0.0011005422566086054,0.010154436342418194,0.0013782340101897717,0.010397093370556831,0.0,0.0,0.0,0.0,0.0,0.0,-0.016304390504956245,0.009407754987478256,-0.0,0.0,0.0,0.0,-0.005236329045146704,0.0028273090720176697,0.0020794786978513002,15409.0,13576.0,14412.0,13261.0,0.537758469581604,0.4113832414150238,0.4669167101383209,0.39133068919181824,0.0,0.0,0.0,0.0,0.0,0.0,0.0,0.0,1.8073891401290894,0.015690313355656297,-0.1486780028340819,-0.06297793596899107,-0.04096617549657822,-0.054617252200841904,0.0,-0.016304390504956245,0.009407754987478256,0.0
61,5,0.0,0.0,0.0,0.010924313217401505,0.01456460077315569,-0.0011005422566086054,0.010154436342418194,0.0013782340101897717,0.010397093370556831,0.0,0.0,0.0,0.0,0.0,0.0,-0.016304390504956245,0.009407754987478256,-0.0,0.0,0.0,0.0,-0.005236329045146704,0.0028273090720176697,0.0020794786978513002,15409.0,13576.0,14412.0,13261.0,0.537758469581604,0.4113832414150238,0.4669167101383209,0.39133068919181824,0.0,0.0,0.0,0.0,0.0,0.0,0.0,0.0,1.8073891401290894,0.015690313355656297,-0.1486780028340819,-0.06297793596899107,-0.04096617549657822,-0.054617252200841904,0.0,-0.016304390504956245,0.009407754987478256,0.0
66,5,9.856928227236494e-05,-1.3692753782379441e-05,-2.131089786416851e-05,0.016198039054870605,0.007468970958143473,0.0021170908585190773,0.010222908109426498,0.0011225058697164059,0.010646635666489601,0.0,0.0,0.0,0.0,0.0,0.0,-0.016304390504956245,0.009407754987478256,-0.0,0.0,0.0,0.0,-0.005312623921781778,0.0030449742916971445,0.0017862316453829408,15357.0,13640.0,14286.0,13392.0,0.5339311957359314,0.41548505425453186,0.4583519995212555,0.399620920419693,0.0,0.0,0.0,0.0,0.0,0.0,0.0,0.0,1.8073891401290894,0.015474165451815654,-0.14826782967926802,-0.06277535318933239,-0.04096617549657822,-0.054617252200841904,0.0,-0.016304390504956245,0.009407754987478256,0.0
71,5,9.856928227236494e-05,-1.3692753782379441e-05,-2.131089786416851e-05,0.016198039054870605,0.007468970958143473,0.0021170908585190773,0.010222908109426498,0.0011225058697164059,0.010646635666489601,0.0,0.0,0.0,0.0,0.0,0.0,-0.016304390504956245,0.009407754987478256,-0.0,0.0,0.0,0.0,-0.005312623921781778,0.0030449742916971445,0.0017862316453829408,15357.0,13640.0,14286.0,13392.0,0.5339311957359314,0.41548505425453186,0.4583519995212555,0.399620920419693,0.0,0.0,0.0,0.0,0.0,0.0,0.0,0.0,1.8073891401290894,0.015474165451815654,-0.14826782967926802,-0.06277535318933239,-0.04096617549657822,-0.054617252200841904,0.0,-0.016304390504956245,0.009407754987478256,0.0
76,5,0.0001943746756296605,4.062066636834061e-06,-2.502134520909749e-05,0.016198039054870605,0.007468970958143473,0.0021170908585190773,0.010222908109426498,0.0011225058697164059,0.010646635666489601,0.0,0.0,0.0,0.0,0.0,0.0,-0.008393888361752033,0.014090823009610176,-0.0,0.0,0.0,0.0,-0.005312623921781778,0.0030449742916971445,0.0017862316453829408,15357.0,13640.0,14286.0,13392.0,0.5339311957359314,0.41548505425453186,0.4583519995212555,0.399620920419693,0.0,0.0,0.0,0.0,0.0,0.0,0.0,0.0,1.8050801753997803,0.01514325677891199,-0.14857449300678455,-0.06223328144580273,-0.061285123229026794,-0.02808399870991707,0.0,-0.016304390504956245,0.009407754987478256,0.0
81,5,0.0001943746756296605,4.062066636834061e-06,-2.502134520909749e-05,0.016198039054870605,0.007468970958143473,0.0021170908585190773,0.010399643331766129,0.0003242999082431197,0.010992237366735935,0.0,0.0,0.0,0.0,0.0,0.0,-0.008393888361752033,0.014090823009610176,-0.0,0.0,0.0,0.0,-0.005436659790575504,0.003937797155231237,0.0018276588525623083,15410.0,13597.0,14211.0,13456.0,0.5378067493438721,0.4126923084259033,0.45323604345321655,0.4036540389060974,0.0,0.0,0.0,0.0,0.0,0.0,0.0,0.0,1.8050801753997803,0.01514325677891199,-0.14857449300678455,-0.06223328144580273,-0.061285123229026794,-0.02808399870991707,0.0,-0.016304390504956245,0.009407754987478256,0.0
86,5,0.00026951354811899364,3.1411440431838855e-05,-2.3618038540007547e-05,0.01549587957561016,-0.00029433664167299867,0.000678439624607563,0.010500667616724968,-0.0003077919245697558,0.011226626113057137,0.0,0.0,0.0,0.0,0.0,0.0,-0.008393888361752033,0.014090823009610176,-0.0,0.0,0.0,0.0,-0.005401267670094967,0.004295740742236376,0.0018492734525352716,15411.0,13592.0,14196.0,13474.0,0.5378668904304504,0.4124281406402588,0.45223909616470337,0.40485501289367676,0.0,0.0,0.0,0.0,0.0,0.0,0.0,0.0,1.8050801753997803,0.01565968247322258,-0.1481856382832534,-0.06203907414122019,-0.05959315970540047,0.0012765873689204454,0.0,-0.016304390504956245,0.009407754987478256,0.0
97,10,0.0003440101572778076,6.626022513955832e-05,-3.59926457349502e-06,0.01549587957561016,-0.00029433664167299867,0.000678439624607563,0.010500667616724968,-0.0003077919245697558,0.011226626113057137,0.0,0.0,0.0,0.0,0.0,0.0,0.0003859037533402443,0.013857836835086346,-0.0,0.0,0.0,0.0,-0.005401267670094967,0.004295740742236376,0.0018492734525352716,15411.0,13592.0,14196.0,13474.0,0.5378668904304504,0.4124281406402588,0.45223909616470337,0.40485501289367676,0.0,0.0,0.0,0.0,0.0,0.0,0.0,0.0,1.7846908569335938,0.01501024750616138,-0.14815767216407805,-0.06196038798565497,-0.05959315970540047,0.0012765873689204454,0.0,-0.016304390504956245,0.009407754987478256,0.0
102,5,0.0003440101572778076,6.626022513955832e-05,-3.59926457349502e-06,0.01549587957561016,-0.00029433664167299867,0.000678439624607563,0.010500667616724968,-0.0003077919245697558,0.011226626113057137,0.0,0.0,0.0,0.0,0.0,0.0,0.0003859037533402443,0.013857836835086346,-0.0,0.0,0.0,0.0,-0.005401267670094967,0.004295740742236376,0.0018492734525352716,15411.0,13592.0,14196.0,13474.0,0.5378668904304504,0.4124281406402588,0.45223909616470337,0.40485501289367676,0.0,0.0,0.0,0.0,0.0,0.0,0.0,0.0,1.7846908569335938,0.01501024750616138,-0.14815767216407805,-0.06196038798565497,-0.05959315970540047,0.0012765873689204454,0.0,-0.016304390504956245,0.009407754987478256,0.0
107,5,0.0004197899252176285,9.938076982507482e-05,-6.772159395040944e-05,0.015291926451027393,-0.004092200193554163,0.007966055534780025,0.010500667616724968,-0.0003077919245697558,0.011226626113057137,0.0,0.0,0.0,0.0,0.0,0.0,0.004789344500750303,0.013829478994011879,-0.0,0.0,0.0,0.0,-0.005401267670094967,0.004295740742236376,0.0018492734525352716,15411.0,13592.0,14196.0,13474.0,0.5378668904304504,0.4124281406402588,0.45223909616470337,0.40485501289367676,0.0,0.0,0.0,0.0,0.0,0.0,0.0,0.0,1.7902661561965942,0.016860817201858357,-0.1469050907224585,-0.06110510110523537,-0.05965632572770119,0.01589275524020195,0.0,-0.016304390504956245,0.009407754987478256,0.0
112,5,0.0004197899252176285,9.938076982507482e-05,-6.772159395040944e-05,0.015291926451027393,-0.004092200193554163,0.007966055534780025,0.010598456487059593,-0.0009334974456578493,0.011590045876801014,0.0,0.0,0.0,0.0,0.0,0.0,0.004789344500750303,0.013829478994011879,-0.0,0.0,0.0,0.0,-0.0038801829796284437,0.005041144788265228,0.0020567819010466337,15502.0,13266.0,14406.0,13434.0,0.5446436405181885,0.39164918661117554,0.4665076732635498,0.40227967500686646,0.0,0.0,0.0,0.0,0.0,0.0,0.0,0.0,1.7902661561965942,0.016860817201858357,-0.1469050907224585,-0.06110510110523537,-0.05965632572770119,0.01589275524020195,0.0,-0.008393888361752033,0.014090823009610176,0.0
117,5,0.00042371818562969565,0.0001186697554658167,-1.955654806806706e-05,0.015291926451027393,-0.004092200193554163,0.007966055534780025,0.010598456487059593,-0.0009334974456578493,0.011590045876801014,0.0,0.0,0.0,0.0,0.0,0.0,0.004789344500750303,0.013829478994011879,-0.0,0.0,0.0,0.0,-0.0038801829796284437,0.005041144788265228,0.0020567819010466337,15502.0,13266.0,14406.0,13434.0,0.5446436405181885,0.39164918661117554,0.4665076732635498,0.40227967500686646,0.0,0.0,0.0,0.0,0.0,0.0,0.0,0.0,1.7902661561965942,0.015795607581290505,-0.14710260047618426,-0.06116541770889055,-0.05965632572770119,0.01589275524020195,0.0,-0.008393888361752033,0.014090823009610176,0.0
122,5,0.00042371818562969565,0.0001186697554658167,-1.955654806806706e-05,0.015291926451027393,-0.004092200193554163,0.007966055534780025,0.010530702769756317,-0.0011963611468672752,0.012395866215229034,0.0,0.0,0.0,0.0,0.0,0.0,0.0048210895620286465,0.013833828270435333,-0.0,0.0,0.0,0.0,-0.00117550790309906,0.0038920228835195303,0.0025373713579028845,15367.0,13002.0,14580.0,13339.0,0.5346924662590027,0.3752291798591614,0.4785248637199402,0.3962443470954895,0.0,0.0,0.0,0.0,0.0,0.0,0.0,0.0,1.7903963327407837,0.015795607581290505,-0.14710260047618426,-0.06116541770889055,-0.059679415076971054,0.015999259427189827,0.0,0.004789344500750303,0.013829478994011879,0.0
127,5,0.0004542578535620123,8.632851677248254e-05,-4.576614810503088e-05,0.015291926451027393,-0.004092200193554163,0.007966055534780025,0.010530702769756317,-0.0011963611468672752,0.012395866215229034,0.0,0.0,0.0,0.0,0.0,0.0,0.0048210895620286465,0.013833828270435333,-0.0,0.0,0.0,0.0,-0.00117550790309906,0.0038920228835195303,0.0025373713579028845,15367.0,13002.0,14580.0,13339.0,0.5346924662590027,0.3752291798591614,0.4785248637199402,0.3962443470954895,0.0,0.0,0.0,0.0,0.0,0.0,0.0,0.0,1.7903963327407837,0.01640314581464409,-0.1470631828606218,-0.06062225076942477,-0.059679415076971054,0.015999259427189827,0.0,0.004789344500750303,0.013829478994011879,0.0
132,5,0.0004542578535620123,8.632851677248254e-05,-4.576614810503088e-05,0.015291926451027393,-0.004092200193554163,0.007966055534780025,0.010478214360773563,-0.0010097397025674582,0.012790958397090435,0.0,0.0,0.0,0.0,0.0,0.0,0.004766758996993303,0.013870742172002792,-0.0,0.0,0.0,0.0,-0.0011114315129816532,0.003664135467261076,0.002665554406121373,15346.0,12956.0,14716.0,13346.0,0.5331389904022217,0.37246376276016235,0.48798543214797974,0.39667797088623047,0.0,0.0,0.0,0.0,0.0,0.0,0.0,0.0,1.790704607963562,0.01640314581464409,-0.1470631828606218,-0.06062225076942477,-0.05984897166490555,0.015821684151887894,0.0,0.0048210895620286465,0.013833828270435333,0.0
137,5,0.00047780165914446115,5.276933734421618e-05,-3.6957596876163734e-06,0.008942029438912868,0.0023902214597910643,-0.0018620246555656195,0.010478214360773563,-0.0010097397025674582,0.012790958397090435,0.0,0.0,0.0,0.0,0.0,0.0,0.004766758996993303,0.013870742172002792,-0.0,0.0,0.0,0.0,-0.0011114315129816532,0.003664135467261076,0.002665554406121373,15346.0,12956.0,14716.0,13346.0,0.5331389904022217,0.37246376276016235,0.48798543214797974,0.39667797088623047,0.0,0.0,0.0,0.0,0.0,0.0,0.0,0.0,1.790704607963562,0.016074093989541214,-0.1481625708384524,-0.0600070063456085,-0.05984897166490555,0.015821684151887894,0.0,0.0048210895620286465,0.013833828270435333,0.0
143,5,0.00047780165914446115,5.276933734421618e-05,-3.6957596876163734e-06,0.008942029438912868,0.0023902214597910643,-0.0018620246555656195,0.010408206842839718,-0.0007517875055782497,0.013200679793953896,0.0,0.0,0.0,0.0,0.0,0.0,-0.0027111296076327562,0.008698196150362492,-0.0,0.0,0.0,0.0,-0.0011907304869964719,0.003728457959368825,0.002635491546243429,15381.0,12910.0,14774.0,13293.0,0.5356702208518982,0.36964958906173706,0.49204665422439575,0.393338143825531,0.0,0.0,0.0,0.0,0.0,0.0,0.0,0.0,1.7256420850753784,0.016074093989541214,-0.1481625708384524,-0.0600070063456085,-0.03616802394390106,-0.00867178663611412,0.0,0.004766758996993303,0.013870742172002792,0.0
148,5,0.0005203895270824432,9.658565431891475e-06,3.0113396860542707e-06,0.008687358349561691,0.006129381246864796,-0.00154966174159199,0.010408206842839718,-0.0007517875055782497,0.013200679793953896,0.0,0.0,0.0,0.0,0.0,0.0,-0.0071141403168439865,0.008460105396807194,-0.0,0.0,0.0,0.0,-0.0011907304869964719,0.003728457959368825,0.002635491546243429,15381.0,12910.0,14774.0,13293.0,0.5356702208518982,0.36964958906173706,0.49204665422439575,0.393338143825531,0.0,0.0,0.0,0.0,0.0,0.0,0.0,0.0,1.7389744520187378,0.016050880969203953,-0.14910565525994968,-0.05914071814695236,-0.035449061542749405,-0.02293071150779724,0.0,0.004766758996993303,0.013870742172002792,0.0
153,5,0.0005203895270824432,9.658565431891475e-06,3.0113396860542707e-06,0.008687358349561691,0.006129381246864796,-0.00154966174159199,0.01030857302248478,-0.00038762271287851036,0.013782447203993797,0.0,0.0,0.0,0.0,0.0,0.0,-0.0071141403168439865,0.008460105396807194,-0.0,0.0,0.0,0.0,-0.0026244448963552713,0.0020210365764796734,0.0028168067801743746,15381.0,12910.0,14774.0,13293.0,0.5356702208518982,0.36964958906173706,0.49204665422439575,0.393338143825531,0.0,0.0,0.0,0.0,0.0,0.0,0.0,0.0,1.7389744520187378,0.016050880969203953,-0.14910565525994968,-0.05914071814695236,-0.035449061542749405,-0.02293071150779724,0.0,-0.0027111296076327562,0.008698196150362492,0.0
158,5,0.0005581924924626946,-2.4697250410099514e-05,-3.174239827785641e-05,0.008687358349561691,0.006129381246864796,-0.00154966174159199,0.01030857302248478,-0.00038762271287851036,0.013782447203993797,0.0,0.0,0.0,0.0,0.0,0.0,-0.0071141403168439865,0.008460105396807194,-0.0,0.0,0.0,0.0,-0.0026244448963552713,0.0020210365764796734,0.0028168067801743746,15381.0,12910.0,14774.0,13293.0,0.5356702208518982,0.36964958906173706,0.49204665422439575,0.393338143825531,0.0,0.0,0.0,0.0,0.0,0.0,0.0,0.0,1.7389744520187378,0.016466060624959568,-0.1492879223421276,-0.05851719723637279,-0.035449061542749405,-0.02293071150779724,0.0,-0.0027111296076327562,0.008698196150362492,0.0
163,5,0.0005581924924626946,-2.4697250410099514e-05,-3.174239827785641e-05,0.008687358349561691,0.006129381246864796,-0.00154966174159199,0.010253206826746464,-0.00017215426487382501,0.014233268797397614,0.0,0.0,0.0,0.0,0.0,0.0,-0.007169748656451702,0.008506585843861103,-0.0,0.0,0.0,0.0,-0.0035277039278298616,0.001365958247333765,0.002914592158049345,15162.0,12846.0,14589.0,12768.0,0.5197470188140869,0.3657565712928772,0.47912824153900146,0.36101025342941284,0.0,0.0,0.0,0.0,0.0,0.0,0.0,0.0,1.7397125959396362,0.016466060624959568,-0.1492879223421276,-0.05851719723637279,-0.035658929497003555,-0.02311975508928299,0.0,-0.0071141403168439865,0.008460105396807194,0.0
168,5,0.000569579191505909,-3.838636621367186e-05,3.186918911524117e-05,0.004841347225010395,0.0040944465436041355,-0.008253254927694798,0.010276781395077705,0.0004305227193981409,0.014871099032461643,0.0,0.0,0.0,0.0,0.0,0.0,-0.004887053743004799,0.005144957453012466,-0.0,0.0,0.0,0.0,-0.003498499281704426,0.0007075752364471555,0.0027441633865237236,14875.0,13428.0,14309.0,13059.0,0.49919575452804565,0.4018755555152893,0.45985209941864014,0.37878918647766113,0.0,0.0,0.0,0.0,0.0,0.0,0.0,0.0,1.7181994915008545,0.019956795093955485,-0.14941331910285435,-0.05732192694996171,-0.021301008760929108,-0.015564174391329288,0.0,-0.007169748656451702,0.008506585843861103,0.0
173,5,0.000569579191505909,-3.838636621367186e-05,3.186918911524117e-05,0.004841347225010395,0.0040944465436041355,-0.008253254927694798,0.010276781395077705,0.0004305227193981409,0.014871099032461643,0.0,0.0,0.0,0.0,0.0,0.0,-0.004887053743004799,0.005144957453012466,-0.0,0.0,0.0,0.0,-0.003498499281704426,0.0007075752364471555,0.0027441633865237236,14875.0,13428.0,14309.0,13059.0,0.49919575452804565,0.4018755555152893,0.45985209941864014,0.37878918647766113,0.0,0.0,0.0,0.0,0.0,0.0,0.0,0.0,1.7181994915008545,0.019956795093955485,-0.14941331910285435,-0.05732192694996171,-0.021301008760929108,-0.015564174391329288,0.0,-0.007169748656451702,0.008506585843861103,0.0
178,5,0.0005990269128233194,-0.00011891525355167687,-5.3126200327824336e-06,0.005470264237374067,0.011301244609057903,0.001160514890216291,0.010279517620801926,0.0010737197007983923,0.015401637181639671,0.0,0.0,0.0,0.0,0.0,0.0,-0.01321121584624052,0.005626273341476917,-0.0,0.0,0.0,0.0,-0.003180402796715498,-0.0003683683171402663,0.0033227107487618923,15176.0,12856.0,14844.0,12313.0,0.5207712650299072,0.36636215448379517,0.4969891905784607,0.3340768814086914,0.0,0.0,0.0,0.0,0.0,0.0,0.0,0.0,1.7574102878570557,0.016919267468778795,-0.1497387185711802,-0.05787750315558491,-0.023823507130146027,-0.043032992631196976,0.0,-0.004887053743004799,0.005144957453012466,0.0
185,7,0.0005990269128233194,-0.00011891525355167687,-5.3126200327824336e-06,0.005470264237374067,0.011301244609057903,0.001160514890216291,0.010279517620801926,0.0010737197007983923,0.015401637181639671,0.0,0.0,0.0,0.0,0.0,0.0,-0.01321121584624052,0.005626273341476917,-0.0,0.0,0.0,0.0,-0.003180402796715498,-0.0003683683171402663,0.0033227107487618923,15176.0,12856.0,14844.0,12313.0,0.5207712650299072,0.36636215448379517,0.4969891905784607,0.3340768814086914,0.0,0.0,0.0,0.0,0.0,0.0,0.0,0.0,1.7574102878570557,0.016919267468778795,-0.1497387185711802,-0.05787750315558491,-0.023823507130146027,-0.043032992631196976,0.0,-0.004887053743004799,0.005144957453012466,0.0
190,5,0.0006365737062878907,-0.00015876635734457523,5.476388105307706e-05,0.005470264237374067,0.011301244609057903,0.001160514890216291,0.010427779518067837,0.0019149244762957096,0.01606568694114685,0.0,0.0,0.0,0.0,0.0,0.0,-0.01321121584624052,0.005626273341476917,-0.0,0.0,0.0,0.0,-0.0032569896429777145,-6.507299258373678e-05,0.002667057327926159,15050.0,12987.0,14676.0,12534.0,0.5116406679153442,0.37434107065200806,0.48520541191101074,0.34701234102249146,0.0,0.0,0.0,0.0,0.0,0.0,0.0,0.0,1.7574102878570557,0.01747797838240568,-0.15146761638295905,-0.05724025762403648,-0.023823507130146027,-0.043032992631196976,0.0,-0.004887053743004799,0.005144957453012466,0.0
196,5,0.0006365737062878907,-0.00015876635734457523,5.476388105307706e-05,0.005470264237374067,0.011301244609057903,0.001160514890216291,0.010427779518067837,0.0019149244762957096,0.01606568694114685,0.0,0.0,0.0,0.0,0.0,0.0,-0.013272843323647976,0.005673078820109367,-0.0,0.0,0.0,0.0,-0.0032569896429777145,-6.507299258373678e-05,0.002667057327926159,15050.0,12987.0,14676.0,12534.0,0.5116406679153442,0.37434107065200806,0.48520541191101074,0.34701234102249146,0.0,0.0,0.0,0.0,0.0,0.0,0.0,0.0,1.7581833600997925,0.01747797838240568,-0.15146761638295905,-0.05724025762403648,-0.024032242596149445,-0.04325272887945175,0.0,-0.004887053743004799,0.005144957453012466,0.0
206,11,0.000839094805996865,-0.00024233137082774192,-9.543853957438841e-05,0.00996258296072483,0.008684899657964706,0.005713220685720444,0.010579737834632397,0.002399607328698039,0.01649402268230915,0.0,0.0,0.0,0.0,0.0,0.0,-0.010333914309740067,0.009847222827374935,-0.0,0.0,0.0,0.0,-0.0048173959366977215,0.0004548214201349765,0.0025206475984305143,15050.0,12987.0,14676.0,12534.0,0.5116406679153442,0.37434107065200806,0.48520541191101074,0.34701234102249146,0.0,0.0,0.0,0.0,0.0,0.0,0.0,0.0,1.769964575767517,0.02316982195651116,-0.14906239829994408,-0.055368102146194476,-0.04199523851275444,-0.033901892602443695,0.0,-0.01321121584624052,0.005626273341476917,0.0
211,5,0.000839094805996865,-0.00024233137082774192,-9.543853957438841e-05,0.00996258296072483,0.008684899657964706,0.005713220685720444,0.010579737834632397,0.002399607328698039,0.01649402268230915,0.0,0.0,0.0,0.0,0.0,0.0,-0.010333914309740067,0.009847222827374935,-0.0,0.0,0.0,0.0,-0.0048173959366977215,0.0004548214201349765,0.0025206475984305143,15050.0,12987.0,14676.0,12534.0,0.5116406679153442,0.37434107065200806,0.48520541191101074,0.34701234102249146,0.0,0.0,0.0,0.0,0.0,0.0,0.0,0.0,1.769964575767517,0.02316982195651116,-0.14906239829994408,-0.055368102146194476,-0.04199523851275444,-0.033901892602443695,0.0,-0.01321121584624052,0.005626273341476917,0.0
216,5,0.000972803623881191,-0.00031629487057216465,-0.00019473402062430978,0.00996258296072483,0.008684899657964706,0.005713220685720444,0.010306221432983875,0.0028932555578649044,0.017017649486660957,0.0,0.0,0.0,0.0,0.0,0.0,-0.010421331971883774,0.009985094889998436,-0.0,0.0,0.0,0.0,-0.0048173959366977215,0.0004548214201349765,0.0025206475984305143,15213.0,13201.0,14691.0,12754.0,0.5234056115150452,0.38760611414909363,0.48625245690345764,0.36014607548713684,0.0,0.0,0.0,0.0,0.0,0.0,0.0,0.0,1.7762359380722046,0.01884323898485227,-0.14846070139130135,-0.05691157648497736,-0.042734041810035706,-0.03430979698896408,0.0,-0.01321121584624052,0.005626273341476917,0.0
221,5,0.000972803623881191,-0.00031629487057216465,-0.00019473402062430978,0.00996258296072483,0.008684899657964706,0.005713220685720444,0.010306221432983875,0.0028932555578649044,0.017017649486660957,0.0,0.0,0.0,0.0,0.0,0.0,-0.010421331971883774,0.009985094889998436,-0.0,0.0,0.0,0.0,-0.0048173959366977215,0.0004548214201349765,0.0025206475984305143,15213.0,13201.0,14691.0,12754.0,0.5234056115150452,0.38760611414909363,0.48625245690345764,0.36014607548713684,0.0,0.0,0.0,0.0,0.0,0.0,0.0,0.0,1.7762359380722046,0.01884323898485227,-0.14846070139130135,-0.05691157648497736,-0.042734041810035706,-0.03430979698896408,0.0,-0.01321121584624052,0.005626273341476917,0.0
233,12,0.00103383744135499,-0.00022577597701456398,-3.7195030017755926e-05,0.011309081688523293,-0.007388308644294739,-0.01661938987672329,0.010107330977916718,0.002769174985587597,0.017467746511101723,0.0,0.0,0.0,0.0,0.0,0.0,-0.010395888239145279,0.009961187839508057,-0.0,0.0,0.0,0.0,-0.004414289724081755,0.002165168756619096,0.0006897076382301748,15019.0,13675.0,14200.0,13343.0,0.5094805955886841,0.41773244738578796,0.45248737931251526,0.3965355455875397,0.0,0.0,0.0,0.0,0.0,0.0,0.0,0.0,1.7806402444839478,0.02331390434659878,-0.14752067569280594,-0.05529803189708021,-0.0427374467253685,-0.034310903400182724,0.0,-0.010333914309740067,0.009847222827374935,0.0
238,5,0.0010868135141208768,-0.00013954134192317724,0.00018097111023962498,0.010880766436457634,-0.013303479179739952,-0.03282769396901131,0.010107330977916718,0.002769174985587597,0.017467746511101723,0.0,0.0,0.0,0.0,0.0,0.0,0.01467133965343237,0.010756535455584526,-0.0,0.0,0.0,0.0,-0.004414289724081755,0.002165168756619096,0.0006897076382301748,15019.0,13675.0,14200.0,13343.0,0.5094805955886841,0.41773244738578796,0.45248737931251526,0.3965355455875397,0.0,0.0,0.0,0.0,0.0,0.0,0.0,0.0,1.8062727451324463,0.029951516832268325,-0.1509234792124828,-0.052532853071431435,-0.04681149497628212,0.04911717027425766,0.0,-0.010333914309740067,0.009847222827374935,0.0
244,5,0.0010868135141208768,-0.00013954134192317724,0.00018097111023962498,0.010880766436457634,-0.013303479179739952,-0.03282769396901131,0.010107330977916718,0.002769174985587597,0.017467746511101723,0.0,0.0,0.0,0.0,0.0,0.0,0.01467133965343237,0.010756535455584526,-0.0,0.0,0.0,0.0,-0.004414289724081755,0.002165168756619096,0.0006897076382301748,15019.0,13675.0,14200.0,13343.0,0.5094805955886841,0.41773244738578796,0.45248737931251526,0.3965355455875397,0.0,0.0,0.0,0.0,0.0,0.0,0.0,0.0,1.8062727451324463,0.029951516832268325,-0.1509234792124828,-0.052532853071431435,-0.04681149497628212,0.04911717027425766,0.0,-0.010333914309740067,0.009847222827374935,0.0
249,5,0.0011489838361740112,-0.00010888590622926131,0.00029742292826995254,0.010880766436457634,-0.013303479179739952,-0.03282769396901131,0.010285104624927044,0.002891554031521082,0.017220208421349525,0.0,0.0,0.0,0.0,0.0,0.0,0.01467133965343237,0.010756535455584526,-0.0,0.0,0.0,0.0,-0.004442790988832712,-0.0002433202462270856,0.0013597917277365923,14901.0,13825.0,14443.0,13057.0,0.501035213470459,0.42751607298851013,0.46903738379478455,0.37864723801612854,0.0,0.0,0.0,0.0,0.0,0.0,0.0,0.0,1.8062727451324463,0.031236976603646705,-0.1512618259740977,-0.05248503028048522,-0.04681149497628212,0.04911717027425766,0.0,-0.010421331971883774,0.009985094889998436,0.0
254,5,0.0011489838361740112,-0.00010888590622926131,0.00029742292826995254,0.010880766436457634,-0.013303479179739952,-0.03282769396901131,0.010776964016258717,0.003790927119553089,0.017290834337472916,0.0,0.0,0.0,0.0,0.0,0.0,0.014713951386511326,0.010830414481461048,-0.0,0.0,0.0,0.0,-0.004442790988832712,-0.0002433202462270856,0.0013597917277365923,14901.0,13825.0,14443.0,13057.0,0.501035213470459,0.42751607298851013,0.46903738379478455,0.37864723801612854,0.0,0.0,0.0,0.0,0.0,0.0,0.0,0.0,1.807210922241211,0.031236976603646705,-0.1512618259740977,-0.05248503028048522,-0.04715745151042938,0.0492853969335556,0.0,-0.010421331971883774,0.009985094889998436,0.0
259,5,0.0013014663709327579,-0.00013995681365486234,0.0002831899910233915,0.010880766436457634,-0.013303479179739952,-0.03282769396901131,0.010776964016258717,0.003790927119553089,0.017290834337472916,0.0,0.0,0.0,0.0,0.0,0.0,0.014653023332357407,0.011016733944416046,-0.0,0.0,0.0,0.0,-0.004442790988832712,-0.0002433202462270856,0.0013597917277365923,14901.0,13825.0,14443.0,13057.0,0.501035213470459,0.42751607298851013,0.46903738379478455,0.37864723801612854,0.0,0.0,0.0,0.0,0.0,0.0,0.0,0.0,1.808414101600647,0.029739780956824054,-0.15391696788859946,-0.054457527176570576,-0.04800066351890564,0.04911401495337486,0.0,-0.010421331971883774,0.009985094889998436,0.0
264,5,0.0013014663709327579,-0.00013995681365486234,0.0002831899910233915,0.010880766436457634,-0.013303479179739952,-0.03282769396901131,0.010776964016258717,0.003790927119553089,0.017290834337472916,0.0,0.0,0.0,0.0,0.0,0.0,0.014653023332357407,0.011016733944416046,-0.0,0.0,0.0,0.0,-0.004442790988832712,-0.0002433202462270856,0.0013597917277365923,14901.0,13825.0,14443.0,13057.0,0.501035213470459,0.42751607298851013,0.46903738379478455,0.37864723801612854,0.0,0.0,0.0,0.0,0.0,0.0,0.0,0.0,1.808414101600647,0.029739780956824054,-0.15391696788859946,-0.054457527176570576,-0.04800066351890564,0.04911401495337486,0.0,-0.010421331971883774,0.009985094889998436,0.0
269,5,0.0012512492248788476,-6.969522655708715e-05,0.0002900493564084172,0.010880766436457634,-0.013303479179739952,-0.03282769396901131,0.011348672211170197,0.005205080844461918,0.01740177720785141,0.0,0.0,0.0,0.0,0.0,0.0,0.014653023332357407,0.011016733944416046,-0.0,0.0,0.0,0.0,0.0009437663247808814,-0.003481829073280096,0.002542787464335561,14991.0,13360.0,15285.0,12959.0,0.5074625611305237,0.3975592851638794,0.5286285281181335,0.37262237071990967,0.0,0.0,0.0,0.0,0.0,0.0,0.0,0.0,1.808414101600647,0.025695944678437846,-0.158882319434357,-0.05089310723601236,-0.04800066351890564,0.04911401495337486,0.0,0.01467133965343237,0.010756535455584526,0.0
274,5,0.0012512492248788476,-6.969522655708715e-05,0.0002900493564084172,0.010880766436457634,-0.013303479179739952,-0.03282769396901131,0.011348672211170197,0.005205080844461918,0.01740177720785141,0.0,0.0,0.0,0.0,0.0,0.0,0.014766385778784752,0.01095297560095787,-0.0,0.0,0.0,0.0,0.0009437663247808814,-0.003481829073280096,0.002542787464335561,14991.0,13360.0,15285.0,12959.0,0.5074625611305237,0.3975592851638794,0.5286285281181335,0.37262237071990967,0.0,0.0,0.0,0.0,0.0,0.0,0.0,0.0,1.8086434602737427,0.025695944678437846,-0.158882319434357,-0.05089310723601236,-0.047728847712278366,0.04950021207332611,0.0,0.01467133965343237,0.010756535455584526,0.0
279,5,0.0013527888804674149,-3.397308319108561e-05,0.00030601592152379453,0.016537073999643326,-0.00960804894566536,-0.015047064051032066,0.011479971930384636,0.009340139105916023,0.018077338114380836,0.0,0.0,0.0,0.0,0.0,0.0,0.0105483029037714,0.015736903995275497,-0.0,0.0,0.0,0.0,0.00032387979445047677,-0.002382288221269846,0.0030383169651031494,15124.0,13101.0,15413.0,12930.0,0.5169724822044373,0.38134321570396423,0.5380222797393799,0.3708728849887848,0.0,0.0,0.0,0.0,0.0,0.0,0.0,0.0,1.8330559730529785,0.02759388019131659,-0.15626008931145455,-0.05127156441892157,-0.06950320303440094,0.03583870083093643,0.0,0.014713951386511326,0.010830414481461048,0.0
284,5,0.0013527888804674149,-3.397308319108561e-05,0.00030601592152379453,0.016537073999643326,-0.00960804894566536,-0.015047064051032066,0.011479971930384636,0.009340139105916023,0.018077338114380836,0.0,0.0,0.0,0.0,0.0,0.0,0.0105483029037714,0.015736903995275497,-0.0,0.0,0.0,0.0,0.00032387979445047677,-0.002382288221269846,0.0030383169651031494,15124.0,13101.0,15413.0,12930.0,0.5169724822044373,0.38134321570396423,0.5380222797393799,0.3708728849887848,0.0,0.0,0.0,0.0,0.0,0.0,0.0,0.0,1.8330559730529785,0.02759388019131659,-0.15626008931145455,-0.05127156441892157,-0.06950320303440094,0.03583870083093643,0.0,0.014713951386511326,0.010830414481461048,0.0
289,5,0.0013880558544769883,1.261207307834411e-05,0.0003590826818253845,0.01084685605019331,-0.009433438070118427,-0.012386837974190712,0.011669798754155636,0.009410033002495766,0.018603168427944183,0.0,0.0,0.0,0.0,0.0,0.0,0.010570653714239597,0.011096877045929432,-0.0,0.0,0.0,0.0,0.00035779213067144156,0.0013147935969755054,0.0029418887570500374,15364.0,12905.0,15107.0,13222.0,0.5344424843788147,0.36932599544525146,0.5157745480537415,0.38887107372283936,0.0,0.0,0.0,0.0,0.0,0.0,0.0,0.0,1.8088399171829224,0.024746872416806065,-0.1573485771867329,-0.05183885783688139,-0.048363711684942245,0.035440173000097275,0.0,0.014653023332357407,0.011016733944416046,0.0
295,5,0.0013880558544769883,1.261207307834411e-05,0.0003590826818253845,0.01084685605019331,-0.009433438070118427,-0.012386837974190712,0.011669798754155636,0.009410033002495766,0.018603168427944183,0.0,0.0,0.0,0.0,0.0,0.0,0.010570653714239597,0.011096877045929432,-0.0,0.0,0.0,0.0,0.00035779213067144156,0.0013147935969755054,0.0029418887570500374,15364.0,12905.0,15107.0,13222.0,0.5344424843788147,0.36932599544525146,0.5157745480537415,0.38887107372283936,0.0,0.0,0.0,0.0,0.0,0.0,0.0,0.0,1.8088399171829224,0.024746872416806065,-0.1573485771867329,-0.05183885783688139,-0.048363711684942245,0.035440173000097275,0.0,0.014653023332357407,0.011016733944416046,0.0
300,5,0.0015504765324294567,-1.3101480362820439e-05,0.0001877475151559338,0.023829223588109016,-0.0006877488922327757,0.015605485066771507,0.011972570791840553,0.00796503946185112,0.01888366788625717,0.0,0.0,0.0,0.0,0.0,0.0,0.0007166649447754025,0.021579615771770477,-0.0,0.0,0.0,0.0,0.0001749551884131506,0.005359206814318895,0.0029035641346126795,15543.0,12711.0,14836.0,13509.0,0.5476328730583191,0.35757219791412354,0.496399462223053,0.40703892707824707,0.0,0.0,0.0,0.0,0.0,0.0,0.0,0.0,1.8837635517120361,0.028223188574016678,-0.15338991101475416,-0.05015796850109647,-0.09794633090496063,0.0025023671332746744,-0.0,0.014766385778784752,0.01095297560095787,0.0
305,5,0.0016477659810334444,-1.9113798771286383e-05,0.0002149299398297444,0.021206432953476906,0.000446378777269274,0.0029803027864545584,0.011972570791840553,0.00796503946185112,0.01888366788625717,0.0,0.0,0.0,0.0,0.0,0.0,0.0007166649447754025,0.021579615771770477,-0.0,0.0,0.0,0.0,0.0001749551884131506,0.005359206814318895,0.0029035641346126795,15543.0,12711.0,14836.0,13509.0,0.5476328730583191,0.35757219791412354,0.496399462223053,0.40703892707824707,0.0,0.0,0.0,0.0,0.0,0.0,0.0,0.0,1.8837635517120361,0.03615007807926659,-0.15166566641633525,-0.050312902440311745,-0.09794633090496063,0.0025023671332746744,-0.0,0.014766385778784752,0.01095297560095787,0.0
310,5,0.0016477659810334444,-1.9113798771286383e-05,0.0002149299398297444,0.021206432953476906,0.000446378777269274,0.0029803027864545584,0.011940103955566883,0.004774886649101973,0.01923472061753273,0.0,0.0,0.0,0.0,0.0,0.0,-0.0005173922399990261,0.01978149265050888,-0.0,0.0,0.0,0.0,0.00013435723667498678,0.008882527239620686,0.0026541457045823336,15682.0,12714.0,14530.0,14047.0,0.5580215454101562,0.3577553927898407,0.4750334918498993,0.44224557280540466,0.0,0.0,0.0,0.0,0.0,0.0,0.0,0.0,1.859964370727539,0.03615007807926659,-0.15166566641633525,-0.050312902440311745,-0.08865172415971756,-0.0017837461782619357,-0.0,0.0105483029037714,0.015736903995275497,0.0
315,5,0.0016477659810334444,-1.9113798771286383e-05,0.0002149299398297444,0.021206432953476906,0.000446378777269274,0.0029803027864545584,0.011940103955566883,0.004774886649101973,0.01923472061753273,0.0,0.0,0.0,0.0,0.0,0.0,-0.0005173922399990261,0.01978149265050888,-0.0,0.0,0.0,0.0,0.00013435723667498678,0.008882527239620686,0.0026541457045823336,15682.0,12714.0,14530.0,14047.0,0.5580215454101562,0.3577553927898407,0.4750334918498993,0.44224557280540466,0.0,0.0,0.0,0.0,0.0,0.0,0.0,0.0,1.859964370727539,0.03615007807926659,-0.15166566641633525,-0.050312902440311745,-0.08865172415971756,-0.0017837461782619357,-0.0,0.0105483029037714,0.015736903995275497,0.0
320,5,0.0017572237411513925,2.076713826681953e-05,0.00010474958980921656,0.021206432953476906,0.000446378777269274,0.0029803027864545584,0.011471617966890335,0.0026289361994713545,0.019291697070002556,0.0,0.0,0.0,0.0,0.0,0.0,-0.0005173922399990261,0.01978149265050888,-0.0,0.0,0.0,0.0,-0.0017094520153477788,0.008564078249037266,0.0018700644141063094,15333.0,12948.0,14350.0,14045.0,0.5321411490440369,0.3719615936279297,0.46266114711761475,0.44207602739334106,0.0,0.0,0.0,0.0,0.0,0.0,0.0,0.0,1.859964370727539,0.03023209359493722,-0.14974360724107333,-0.04990325377085045,-0.08865172415971756,-0.0017837461782619357,-0.0,0.0007166649447754025,0.021579615771770477,0.0
325,5,0.0017572237411513925,2.076713826681953e-05,0.00010474958980921656,0.021206432953476906,0.000446378777269274,0.0029803027864545584,0.011471617966890335,0.0026289361994713545,0.019291697070002556,0.0,0.0,0.0,0.0,0.0,0.0,-0.0004533705650828779,0.019900642335414886,-0.0,0.0,0.0,0.0,-0.0017094520153477788,0.008564078249037266,0.0018700644141063094,15333.0,12948.0,14350.0,14045.0,0.5321411490440369,0.3719615936279297,0.46266114711761475,0.44207602739334106,0.0,0.0,0.0,0.0,0.0,0.0,0.0,0.0,1.8615130186080933,0.03023209359493722,-0.14974360724107333,-0.04990325377085045,-0.08925989270210266,-0.0015643283259123564,-0.0,0.0007166649447754025,0.021579615771770477,0.0
330,5,0.0018716781632974744,3.9159283915068954e-05,5.070135375717655e-05,0.021206432953476906,0.000446378777269274,0.0029803027864545584,0.011182183399796486,0.0007520386134274304,0.019224753603339195,0.0,0.0,0.0,0.0,0.0,0.0,-0.0004533705650828779,0.019900642335414886,-0.0,0.0,0.0,0.0,-0.0022576702758669853,0.005769142881035805,0.0013396322028711438,15736.0,13339.0,14491.0,14208.0,0.5620765686035156,0.3962821364402771,0.4723702669143677,0.45303457975387573,0.0,0.0,0.0,0.0,0.0,0.0,0.0,0.0,1.8615130186080933,0.03034819534057242,-0.14889448493284183,-0.04969038577161011,-0.08925989270210266,-0.0015643283259123564,-0.0,-0.0005173922399990261,0.01978149265050888,0.0
335,5,0.0018716781632974744,3.9159283915068954e-05,5.070135375717655e-05,0.021206432953476906,0.000446378777269274,0.0029803027864545584,0.011182183399796486,0.0007520386134274304,0.019224753603339195,0.0,0.0,0.0,0.0,0.0,0.0,-0.00042364379623904824,0.0200249794870615,-0.0,0.0,0.0,0.0,-0.0022576702758669853,0.005769142881035805,0.0013396322028711438,15736.0,13339.0,14491.0,14208.0,0.5620765686035156,0.3962821364402771,0.4723702669143677,0.45303457975387573,0.0,0.0,0.0,0.0,0.0,0.0,0.0,0.0,1.8631386756896973,0.03034819534057242,-0.14889448493284183,-0.04969038577161011,-0.08989594131708145,-0.0014630344230681658,-0.0,-0.0005173922399990261,0.01978149265050888,0.0
340,5,0.0019365189364179969,8.019510278245434e-05,0.0001237085525644943,0.021206432953476906,0.000446378777269274,0.0029803027864545584,0.011111870408058167,0.0005753195146098733,0.01903698407113552,0.0,0.0,0.0,0.0,0.0,0.0,-0.00042364379623904824,0.0200249794870615,-0.0,0.0,0.0,0.0,-0.002403587568551302,0.005072250962257385,0.002092410810291767,15461.0,13521.0,14424.0,14056.0,0.541583776473999,0.40784531831741333,0.4677243232727051,0.44281095266342163,0.0,0.0,0.0,0.0,0.0,0.0,0.0,0.0,1.8631386756896973,0.027717854068306628,-0.14832607600931702,-0.05181191380603068,-0.08989594131708145,-0.0014630344230681658,-0.0,-0.0004533705650828779,0.019900642335414886,0.0
345,5,0.0019596139900386333,1.524108574812999e-05,2.966587089758832e-05,0.01125397626310587,0.00797303393483162,0.012477242387831211,0.011111870408058167,0.0005753195146098733,0.01903698407113552,0.0,0.0,0.0,0.0,0.0,0.0,-0.000358031305950135,0.02009599097073078,-0.0,0.0,0.0,0.0,-0.002403587568551302,0.005072250962257385,0.002092410810291767,15461.0,13521.0,14424.0,14056.0,0.541583776473999,0.40784531831741333,0.4677243232727051,0.44281095266342163,0.0,0.0,0.0,0.0,0.0,0.0,0.0,0.0,1.8640609979629517,0.027078874902566646,-0.150868432162715,-0.048984866492933536,-0.09025934338569641,-0.0012370568001642823,-0.0,-0.0004533705650828779,0.019900642335414886,0.0
350,5,0.0019596139900386333,1.524108574812999e-05,2.966587089758832e-05,0.01125397626310587,0.00797303393483162,0.012477242387831211,0.01097969152033329,0.0006755384965799749,0.019013185054063797,0.0,0.0,0.0,0.0,0.0,0.0,-0.000358031305950135,0.02009599097073078,-0.0,0.0,0.0,0.0,-0.0022535098250955343,0.005209335591644049,0.0018755438504740596,15632.0,13330.0,14682.0,13826.0,0.5542449951171875,0.39571693539619446,0.485577255487442,0.4275995194911957,0.0,0.0,0.0,0.0,0.0,0.0,0.0,0.0,1.8640609979629517,0.027078874902566646,-0.150868432162715,-0.048984866492933536,-0.09025934338569641,-0.0012370568001642823,-0.0,-0.00042364379623904824,0.0200249794870615,0.0
356,5,0.0019596139900386333,1.524108574812999e-05,2.966587089758832e-05,0.01125397626310587,0.00797303393483162,0.012477242387831211,0.01097969152033329,0.0006755384965799749,0.019013185054063797,0.0,0.0,0.0,0.0,0.0,0.0,-0.008853044360876083,0.012120820581912994,-0.0,0.0,0.0,0.0,-0.0022535098250955343,0.005209335591644049,0.0018755438504740596,15632.0,13330.0,14682.0,13826.0,0.5542449951171875,0.39571693539619446,0.485577255487442,0.4275995194911957,0.0,0.0,0.0,0.0,0.0,0.0,0.0,0.0,1.8172104358673096,0.027078874902566646,-0.150868432162715,-0.048984866492933536,-0.0530715137720108,-0.02981920726597309,-0.0,-0.00042364379623904824,0.0200249794870615,0.0
361,5,0.0020309430547058582,2.940201375167817e-05,0.0001110711382352747,0.01125397626310587,0.00797303393483162,0.012477242387831211,0.01097969152033329,0.0006755384965799749,0.019013185054063797,0.0,0.0,0.0,0.0,0.0,0.0,-0.008853044360876083,0.012120820581912994,-0.0,0.0,0.0,0.0,-0.0022535098250955343,0.005209335591644049,0.0018755438504740596,15632.0,13330.0,14682.0,13826.0,0.5542449951171875,0.39571693539619446,0.485577255487442,0.4275995194911957,0.0,0.0,0.0,0.0,0.0,0.0,0.0,0.0,1.8172104358673096,0.02885904969722566,-0.1468589195081986,-0.05104248292998823,-0.0530715137720108,-0.02981920726597309,-0.0,-0.00042364379623904824,0.0200249794870615,0.0
366,5,0.001986021874472499,4.4691641960525885e-05,0.00010457326425239444,-0.0008889377349987626,0.001354458276182413,0.005770642310380936,0.01087634265422821,0.0008066562004387379,0.018929030746221542,0.0,0.0,0.0,0.0,0.0,0.0,-0.008838237263262272,0.012223589234054089,-0.0,0.0,0.0,0.0,-0.0026988268364220858,0.006920721847563982,0.002317878883332014,15632.0,13330.0,14682.0,13826.0,0.5542449951171875,0.39571693539619446,0.485577255487442,0.4275995194911957,0.0,0.0,0.0,0.0,0.0,0.0,0.0,0.0,1.815494179725647,0.02541091119916632,-0.14942189077828885,-0.04959410845437264,-0.05347093194723129,-0.02974122017621994,-0.0,-0.000358031305950135,0.02009599097073078,0.0
371,5,0.001986021874472499,4.4691641960525885e-05,0.00010457326425239444,-0.0008889377349987626,0.001354458276182413,0.005770642310380936,0.01087634265422821,0.0008066562004387379,0.018929030746221542,0.0,0.0,0.0,0.0,0.0,0.0,-0.008838237263262272,0.012223589234054089,-0.0,0.0,0.0,0.0,-0.0026988268364220858,0.006920721847563982,0.002317878883332014,15632.0,13330.0,14682.0,13826.0,0.5542449951171875,0.39571693539619446,0.485577255487442,0.4275995194911957,0.0,0.0,0.0,0.0,0.0,0.0,0.0,0.0,1.815494179725647,0.02541091119916632,-0.14942189077828885,-0.04959410845437264,-0.05347093194723129,-0.02974122017621994,-0.0,-0.000358031305950135,0.02009599097073078,0.0
376,5,0.00206077191978693,3.52764836861752e-05,3.683852628455497e-05,0.008614432066679,0.0016716021345928311,0.010436424985527992,0.011055870912969112,0.0003610759449657053,0.019093934446573257,0.0,0.0,0.0,0.0,0.0,0.0,-0.0014349761186167598,0.0017559012630954385,-0.0,0.0,0.0,0.0,-0.003899879287928343,0.0045004538260400295,0.0022287946194410324,15590.0,13282.0,14545.0,13356.0,0.5511336326599121,0.3926904499530792,0.4760842025279999,0.39730212092399597,0.0,0.0,0.0,0.0,0.0,0.0,0.0,0.0,1.8186581134796143,0.02753932089383567,-0.1493764822434038,-0.05023705589788993,-0.0076948897913098335,-0.004837311338633299,-0.0,-0.008853044360876083,0.012120820581912994,0.0
381,5,0.00206077191978693,3.52764836861752e-05,3.683852628455497e-05,0.008614432066679,0.0016716021345928311,0.010436424985527992,0.011055870912969112,0.0003610759449657053,0.019093934446573257,0.0,0.0,0.0,0.0,0.0,0.0,-0.0014349761186167598,0.0017559012630954385,-0.0,0.0,0.0,0.0,-0.003899879287928343,0.0045004538260400295,0.0022287946194410324,15590.0,13282.0,14545.0,13356.0,0.5511336326599121,0.3926904499530792,0.4760842025279999,0.39730212092399597,0.0,0.0,0.0,0.0,0.0,0.0,0.0,0.0,1.8186581134796143,0.02753932089383567,-0.1493764822434038,-0.05023705589788993,-0.0076948897913098335,-0.004837311338633299,-0.0,-0.008853044360876083,0.012120820581912994,0.0
386,5,0.0021573787089437246,1.3110208101352328e-06,0.00011790489952545613,0.015038583427667618,0.004744496662169695,-0.005553394556045532,0.011122978292405605,-0.00030372568289749324,0.01954914629459381,0.0,0.0,0.0,0.0,0.0,0.0,-0.0017938651144504547,0.009932558983564377,-0.0,0.0,0.0,0.0,-0.00392530532553792,0.003955187741667032,0.002874041674658656,15796.0,13027.0,14813.0,13036.0,0.5665547847747803,0.3767918646335602,0.4948135316371918,0.37733396887779236,0.0,0.0,0.0,0.0,0.0,0.0,0.0,0.0,1.8280220031738281,0.036557042606351814,-0.1443725541277979,-0.05095591205486571,-0.043750863522291183,-0.006078260485082865,-0.0,-0.008853044360876083,0.012120820581912994,0.0
391,5,0.0021573787089437246,1.3110208101352328e-06,0.00011790489952545613,0.015038583427667618,0.004744496662169695,-0.005553394556045532,0.011122978292405605,-0.00030372568289749324,0.01954914629459381,0.0,0.0,0.0,0.0,0.0,0.0,-0.0017938651144504547,0.009932558983564377,-0.0,0.0,0.0,0.0,-0.00392530532553792,0.003955187741667032,0.002874041674658656,15796.0,13027.0,14813.0,13036.0,0.5665547847747803,0.3767918646335602,0.4948135316371918,0.37733396887779236,0.0,0.0,0.0,0.0,0.0,0.0,0.0,0.0,1.8280220031738281,0.036557042606351814,-0.1443725541277979,-0.05095591205486571,-0.043750863522291183,-0.006078260485082865,-0.0,-0.008853044360876083,0.012120820581912994,0.0
396,5,0.0021730619482696056,-3.906413894583238e-06,1.0592275430099107e-05,0.015038583427667618,0.004744496662169695,-0.005553394556045532,0.010862014256417751,-4.269349301466718e-05,0.01976758986711502,0.0,0.0,0.0,0.0,0.0,0.0,-0.0052367388270795345,0.015485704876482487,-0.0,0.0,0.0,0.0,-0.0035535134375095367,0.002612377516925335,0.002714706351980567,15304.0,13446.0,15034.0,12999.0,0.5300345420837402,0.4030294418334961,0.5105499029159546,0.37504422664642334,0.0,0.0,0.0,0.0,0.0,0.0,0.0,0.0,1.8326163291931152,0.030983405531089938,-0.14798224326281378,-0.049413817630671736,-0.06838031858205795,-0.017788421362638474,0.0,-0.008838237263262272,0.012223589234054089,0.0
401,5,0.0021730619482696056,-3.906413894583238e-06,1.0592275430099107e-05,0.015038583427667618,0.004744496662169695,-0.005553394556045532,0.010862014256417751,-4.269349301466718e-05,0.01976758986711502,0.0,0.0,0.0,0.0,0.0,0.0,-0.0052367388270795345,0.015485704876482487,-0.0,0.0,0.0,0.0,-0.0035535134375095367,0.002612377516925335,0.002714706351980567,15304.0,13446.0,15034.0,12999.0,0.5300345420837402,0.4030294418334961,0.5105499029159546,0.37504422664642334,0.0,0.0,0.0,0.0,0.0,0.0,0.0,0.0,1.8326163291931152,0.030983405531089938,-0.14798224326281378,-0.049413817630671736,-0.06838031858205795,-0.017788421362638474,0.0,-0.008838237263262272,0.012223589234054089,0.0
406,5,0.0021730619482696056,-3.906413894583238e-06,1.0592275430099107e-05,0.015038583427667618,0.004744496662169695,-0.005553394556045532,0.011281721293926239,7.535889017162845e-05,0.020016852766275406,0.0,0.0,0.0,0.0,0.0,0.0,-0.0052367388270795345,0.015485704876482487,-0.0,0.0,0.0,0.0,-0.0028599032666534185,0.0006154028233140707,0.0026105644647032022,15506.0,13329.0,14763.0,13338.0,0.5449104309082031,0.39563310146331787,0.4912759065628052,0.39620256423950195,0.0,0.0,0.0,0.0,0.0,0.0,0.0,0.0,1.8326163291931152,0.030983405531089938,-0.14798224326281378,-0.049413817630671736,-0.06838031858205795,-0.017788421362638474,0.0,-0.0014349761186167598,0.0017559012630954385,0.0
411,5,0.0021152696572244167,3.2012285373639315e-05,1.6545052858418785e-05,0.015038583427667618,0.004744496662169695,-0.005553394556045532,0.011296579614281654,8.24152521090582e-05,0.020149193704128265,0.0,0.0,0.0,0.0,0.0,0.0,-0.005230739247053862,0.01546423602849245,-0.0,0.0,0.0,0.0,-0.00210717786103487,0.0026256053242832422,0.002545541152358055,15554.0,13224.0,14712.0,13515.0,0.5484508872032166,0.38903480768203735,0.4876694679260254,0.40746116638183594,0.0,0.0,0.0,0.0,0.0,0.0,0.0,0.0,1.8376792669296265,0.028449412235494666,-0.14953162557840483,-0.04965815796959586,-0.068474180996418,-0.01781713031232357,0.0,-0.0017938651144504547,0.009932558983564377,0.0
416,5,0.0021445706952363253,7.77102104621008e-06,5.611508458969183e-05,0.009531560353934765,0.004806750454008579,-0.006969761569052935,0.011296579614281654,8.24152521090582e-05,0.020149193704128265,0.0,0.0,0.0,0.0,0.0,0.0,-0.005230739247053862,0.01546423602849245,-0.0,0.0,0.0,0.0,-0.00210717786103487,0.0026256053242832422,0.002545541152358055,15554.0,13224.0,14712.0,13515.0,0.5484508872032166,0.38903480768203735,0.4876694679260254,0.40746116638183594,0.0,0.0,0.0,0.0,0.0,0.0,0.0,0.0,1.8376792669296265,0.032545075197523594,-0.1454403379379093,-0.05090932151250468,-0.068474180996418,-0.01781713031232357,0.0,-0.0017938651144504547,0.009932558983564377,0.0
421,5,0.0021445706952363253,7.77102104621008e-06,5.611508458969183e-05,0.009531560353934765,0.004806750454008579,-0.006969761569052935,0.01146669965237379,-0.00010680753621272743,0.020226482301950455,0.0,0.0,0.0,0.0,0.0,0.0,-0.0052730324678123,0.010751367546617985,-0.0,0.0,0.0,0.0,-0.004211185500025749,0.005303932819515467,0.002301235217601061,15679.0,13302.0,14538.0,13481.0,0.5578117966651917,0.3939397931098938,0.4755731225013733,0.4052916169166565,0.0,0.0,0.0,0.0,0.0,0.0,0.0,0.0,1.8402515649795532,0.032545075197523594,-0.1454403379379093,-0.05090932151250468,-0.047673650085926056,-0.017986329272389412,0.0,-0.0052367388270795345,0.015485704876482487,0.0
426,5,0.002130117965862155,8.848145807860419e-05,4.6016408305149525e-05,0.0020782973151654005,-0.007762552239000797,-0.0015760634560137987,0.01146669965237379,-0.00010680753621272743,0.020226482301950455,0.0,0.0,0.0,0.0,0.0,0.0,-0.0052730324678123,0.010751367546617985,-0.0,0.0,0.0,0.0,-0.004211185500025749,0.005303932819515467,0.002301235217601061,15679.0,13302.0,14538.0,13481.0,0.5578117966651917,0.3939397931098938,0.4755731225013733,0.4052916169166565,0.0,0.0,0.0,0.0,0.0,0.0,0.0,0.0,1.8402515649795532,0.033034630483302845,-0.14763306376690977,-0.048568543848750194,-0.047673650085926056,-0.017986329272389412,0.0,-0.0052367388270795345,0.015485704876482487,0.0
431,5,0.002130117965862155,8.848145807860419e-05,4.6016408305149525e-05,0.0020782973151654005,-0.007762552239000797,-0.0015760634560137987,0.01146669965237379,-0.00010680753621272743,0.020226482301950455,0.0,0.0,0.0,0.0,0.0,0.0,0.008668633177876472,0.004428264684975147,-0.0,0.0,0.0,0.0,-0.004211185500025749,0.005303932819515467,0.002301235217601061,15679.0,13302.0,14538.0,13481.0,0.5578117966651917,0.3939397931098938,0.4755731225013733,0.4052916169166565,0.0,0.0,0.0,0.0,0.0,0.0,0.0,0.0,1.8417741060256958,0.033034630483302845,-0.14763306376690977,-0.048568543848750194,-0.019651880487799644,0.02959277294576168,0.0,-0.0052367388270795345,0.015485704876482487,0.0
437,5,0.002091525122523308,8.437998621957377e-05,5.312766006682068e-05,-0.0037998382467776537,-0.0026128445751965046,-0.0014837757917121053,0.011060968972742558,-7.193185592768714e-05,0.020281581208109856,0.0,0.0,0.0,0.0,0.0,0.0,0.008668633177876472,0.004428264684975147,-0.0,0.0,0.0,0.0,-0.0023750311229377985,0.004370795097202063,0.002346659777686,15500.0,13330.0,14660.0,13608.0,0.5444368124008179,0.3957134187221527,0.4841015636920929,0.4134274423122406,0.0,0.0,0.0,0.0,0.0,0.0,0.0,0.0,1.8417741060256958,0.03265160016454188,-0.14838984103346375,-0.049002334421088686,-0.019651880487799644,0.02959277294576168,0.0,-0.005230739247053862,0.01546423602849245,0.0
442,5,0.002091525122523308,8.437998621957377e-05,5.312766006682068e-05,-0.0037998382467776537,-0.0026128445751965046,-0.0014837757917121053,0.011060968972742558,-7.193185592768714e-05,0.020281581208109856,0.0,0.0,0.0,0.0,0.0,0.0,0.0030034545343369246,-0.0005846353014931083,-0.0,0.0,0.0,0.0,-0.0023750311229377985,0.004370795097202063,0.002346659777686,15500.0,13330.0,14660.0,13608.0,0.5444368124008179,0.3957134187221527,0.4841015636920929,0.4134274423122406,0.0,0.0,0.0,0.0,0.0,0.0,0.0,0.0,1.842812418937683,0.03265160016454188,-0.14838984103346375,-0.049002334421088686,0.0025960681959986687,0.010259106755256653,0.0,-0.005230739247053862,0.01546423602849245,0.0
447,5,0.0021269822027534246,0.00013847873196937144,0.00010360901796957478,-0.0037998382467776537,-0.0026128445751965046,-0.0014837757917121053,0.010814398527145386,0.00018874592205975205,0.02041582018136978,0.0,0.0,0.0,0.0,0.0,0.0,0.0030034545343369246,-0.0005846353014931083,-0.0,0.0,0.0,0.0,-0.0034273432102054358,0.0027700969949364662,0.002562425099313259,15529.0,13520.0,14747.0,13331.0,0.5465710759162903,0.40779951214790344,0.49013492465019226,0.39574602246284485,0.0,0.0,0.0,0.0,0.0,0.0,0.0,0.0,1.842812418937683,0.0324123472499047,-0.14501684851273924,-0.050449797384192155,0.0025960681959986687,0.010259106755256653,0.0,-0.0052730324678123,0.010751367546617985,0.0
452,5,0.0021269822027534246,0.00013847873196937144,0.00010360901796957478,-0.0037998382467776537,-0.0026128445751965046,-0.0014837757917121053,0.010814398527145386,0.00018874592205975205,0.02041582018136978,0.0,0.0,0.0,0.0,0.0,0.0,0.0030861501581966877,-0.0005382472882047296,-0.0,0.0,0.0,0.0,-0.0034273432102054358,0.0027700969949364662,0.002562425099313259,15529.0,13520.0,14747.0,13331.0,0.5465710759162903,0.40779951214790344,0.49013492465019226,0.39574602246284485,0.0,0.0,0.0,0.0,0.0,0.0,0.0,0.0,1.8455325365066528,0.0324123472499047,-0.14501684851273924,-0.050449797384192155,0.002393609844148159,0.010557134635746479,0.0,-0.0052730324678123,0.010751367546617985,0.0
457,5,0.0020725594367831945,0.0001603876444278285,2.6634197638486512e-05,-0.008050688542425632,-0.0036742077209055424,0.008643467910587788,0.010815458372235298,0.0005566947511397302,0.020427510142326355,0.0,0.0,0.0,0.0,0.0,0.0,0.0030861501581966877,-0.0005382472882047296,-0.0,0.0,0.0,0.0,-4.9109061365015805e-05,2.438092815282289e-05,0.0021536038257181644,15095.0,13500.0,15072.0,13510.0,0.5148817300796509,0.40649324655532837,0.5132418870925903,0.4071572422981262,0.0,0.0,0.0,0.0,0.0,0.0,0.0,0.0,1.8455325365066528,0.028871836306239188,-0.14863916280129794,-0.04928490264837952,0.018626369535923004,0.0146583067253232,-0.0,0.008668633177876472,0.004428264684975147,0.0
462,5,0.0020725594367831945,0.0001603876444278285,2.6634197638486512e-05,-0.008050688542425632,-0.0036742077209055424,0.008643467910587788,0.010815458372235298,0.0005566947511397302,0.020427510142326355,0.0,0.0,0.0,0.0,0.0,0.0,0.004284445196390152,-0.0041879210621118546,-0.0,0.0,0.0,0.0,-4.9109061365015805e-05,2.438092815282289e-05,0.0021536038257181644,15095.0,13500.0,15072.0,13510.0,0.5148817300796509,0.40649324655532837,0.5132418870925903,0.4071572422981262,0.0,0.0,0.0,0.0,0.0,0.0,0.0,0.0,1.84579336643219,0.028871836306239188,-0.14863916280129794,-0.04928490264837952,0.018626369535923004,0.0146583067253232,-0.0,0.008668633177876472,0.004428264684975147,0.0
467,5,0.0020803790539503098,0.00017582486907485873,6.90270826453343e-06,-0.008050688542425632,-0.0036742077209055424,0.008643467910587788,0.010900424793362617,0.0010569751029834151,0.020457664504647255,0.0,0.0,0.0,0.0,0.0,0.0,0.004284445196390152,-0.0041879210621118546,-0.0,0.0,0.0,0.0,-0.001968472031876445,-0.0010931205470114946,0.002348338020965457,15152.0,13668.0,15083.0,13280.0,0.5189759731292725,0.4172847270965576,0.5140083432197571,0.39254337549209595,0.0,0.0,0.0,0.0,0.0,0.0,0.0,0.0,1.84579336643219,0.02907717960384912,-0.15009522612192142,-0.05057264982879505,0.018626369535923004,0.0146583067253232,-0.0,0.0030034545343369246,-0.0005846353014931083,0.0
472,5,0.0020803790539503098,0.00017582486907485873,6.90270826453343e-06,-0.008050688542425632,-0.0036742077209055424,0.008643467910587788,0.010900424793362617,0.0010569751029834151,0.020457664504647255,0.0,0.0,0.0,0.0,0.0,0.0,0.004308016505092382,-0.004175233189016581,-0.0,0.0,0.0,0.0,-0.001968472031876445,-0.0010931205470114946,0.002348338020965457,15152.0,13668.0,15083.0,13280.0,0.5189759731292725,0.4172847270965576,0.5140083432197571,0.39254337549209595,0.0,0.0,0.0,0.0,0.0,0.0,0.0,0.0,1.8464040756225586,0.02907717960384912,-0.15009522612192142,-0.05057264982879505,0.018576079979538918,0.014743827283382416,-0.0,0.0030034545343369246,-0.0005846353014931083,0.0
477,5,0.0020332904532551765,0.0003589316038414836,0.00020790052076335996,-0.008870922960340977,-0.02344249002635479,-0.020662348717451096,0.010763300582766533,0.0014441371895372868,0.020467692986130714,0.0,0.0,0.0,0.0,0.0,0.0,0.025935903191566467,-0.004862490110099316,-0.0,0.0,0.0,0.0,-0.0013158851070329547,-0.0020742437336593866,0.0017719283932819963,15105.0,13715.0,15092.0,13317.0,0.5156068801879883,0.42036595940589905,0.5147144198417664,0.39484521746635437,0.0,0.0,0.0,0.0,0.0,0.0,0.0,0.0,1.8700671195983887,0.03101449954445649,-0.14851672005629096,-0.04930549534702716,0.021903829649090767,0.0898832306265831,0.0,0.004284445196390152,-0.0041879210621118546,0.0
482,5,0.0020332904532551765,0.0003589316038414836,0.00020790052076335996,-0.008870922960340977,-0.02344249002635479,-0.020662348717451096,0.010763300582766533,0.0014441371895372868,0.020467692986130714,0.0,0.0,0.0,0.0,0.0,0.0,0.025935903191566467,-0.004862490110099316,-0.0,0.0,0.0,0.0,-0.0013158851070329547,-0.0020742437336593866,0.0017719283932819963,15105.0,13715.0,15092.0,13317.0,0.5156068801879883,0.42036595940589905,0.5147144198417664,0.39484521746635437,0.0,0.0,0.0,0.0,0.0,0.0,0.0,0.0,1.8700671195983887,0.03101449954445649,-0.14851672005629096,-0.04930549534702716,0.021903829649090767,0.0898832306265831,0.0,0.004284445196390152,-0.0041879210621118546,0.0
487,5,0.0019889234099537134,0.00039293835288845,8.15299354144372e-05,-0.008872391656041145,-0.013457806780934334,0.006899529602378607,0.010851139202713966,0.0016782301245257258,0.020347105339169502,0.0,0.0,0.0,0.0,0.0,0.0,0.01539570651948452,-0.0049837431870400906,-0.0,0.0,0.0,0.0,-0.002136826515197754,-0.000264390284428373,0.001796872355043888,14979.0,13861.0,14956.0,13466.0,0.5066020488739014,0.42989271879196167,0.5049576759338379,0.404340922832489,0.0,0.0,0.0,0.0,0.0,0.0,0.0,0.0,1.8443729877471924,0.02430874223732453,-0.148687012411226,-0.050967777079939706,0.022146396338939667,0.052629079669713974,-0.0,0.004308016505092382,-0.004175233189016581,0.0
492,5,0.0019889234099537134,0.00039293835288845,8.15299354144372e-05,-0.008872391656041145,-0.013457806780934334,0.006899529602378607,0.010851139202713966,0.0016782301245257258,0.020347105339169502,0.0,0.0,0.0,0.0,0.0,0.0,0.01539570651948452,-0.0049837431870400906,-0.0,0.0,0.0,0.0,-0.002136826515197754,-0.000264390284428373,0.001796872355043888,14979.0,13861.0,14956.0,13466.0,0.5066020488739014,0.42989271879196167,0.5049576759338379,0.404340922832489,0.0,0.0,0.0,0.0,0.0,0.0,0.0,0.0,1.8443729877471924,0.02430874223732453,-0.148687012411226,-0.050967777079939706,0.022146396338939667,0.052629079669713974,-0.0,0.004308016505092382,-0.004175233189016581,0.0
497,5,0.0020539083052426577,0.00043629948049783707,0.0001452907599741593,-0.008872391656041145,-0.013457806780934334,0.006899529602378607,0.011039077304303646,0.0012208584230393171,0.020246265456080437,0.0,0.0,0.0,0.0,0.0,0.0,0.015483073890209198,-0.004907132592052221,-0.0,0.0,0.0,0.0,0.003220041049644351,-0.0007302618469111621,0.0018607426900416613,15102.0,13812.0,14878.0,13476.0,0.5153711438179016,0.42666390538215637,0.49940332770347595,0.40496566891670227,0.0,0.0,0.0,0.0,0.0,0.0,0.0,0.0,1.8423309326171875,0.028964166271411566,-0.14516583594544052,-0.051243793976145896,0.021781789138913155,0.05286909267306328,-0.0,0.025935903191566467,-0.004862490110099316,0.0
502,5,0.0020539083052426577,0.00043629948049783707,0.0001452907599741593,-0.008872391656041145,-0.013457806780934334,0.006899529602378607,0.011039077304303646,0.0012208584230393171,0.020246265456080437,0.0,0.0,0.0,0.0,0.0,0.0,0.015483073890209198,-0.004907132592052221,-0.0,0.0,0.0,0.0,0.003220041049644351,-0.0007302618469111621,0.0018607426900416613,15102.0,13812.0,14878.0,13476.0,0.5153711438179016,0.42666390538215637,0.49940332770347595,0.40496566891670227,0.0,0.0,0.0,0.0,0.0,0.0,0.0,0.0,1.8423309326171875,0.028964166271411566,-0.14516583594544052,-0.051243793976145896,0.021781789138913155,0.05286909267306328,-0.0,0.025935903191566467,-0.004862490110099316,0.0
507,5,0.002043298678472638,0.0005422859103418887,0.00022849906235933304,-0.004822125658392906,-0.018101494759321213,-0.007225184701383114,0.011039077304303646,0.0012208584230393171,0.020246265456080437,0.0,0.0,0.0,0.0,0.0,0.0,0.015483073890209198,-0.004907132592052221,-0.0,0.0,0.0,0.0,0.003220041049644351,-0.0007302618469111621,0.0018607426900416613,15102.0,13812.0,14878.0,13476.0,0.5153711438179016,0.42666390538215637,0.49940332770347595,0.40496566891670227,0.0,0.0,0.0,0.0,0.0,0.0,0.0,0.0,1.8423309326171875,0.029700476586159423,-0.14799755191914282,-0.05124716173658123,0.021781789138913155,0.05286909267306328,-0.0,0.025935903191566467,-0.004862490110099316,0.0
