timestamp,dt,pos_x,pos_y,pos_z,vel_x,vel_y,vel_z,roll,pitch,yaw,agv_x,agv_y,agv_z,x_ref,y_ref,z_ref,roll_ref,pitch_ref,yaw_ref,x_vel_ref,y_vel_ref,z_vel_ref,x_torque,y_torque,z_torque,w0,w1,w2,w3,u0,u1,u2,u3,m0req,m1req,m2req,m3req,thrust0,thrust1,thrust2,thrust3,thrust_ref,roll_vicon,pitch_vicon,yaw_vicon,acc_x,acc_y,acc_z,roll_received,pitch_received,yaw_received
5,5,0.0,0.0,0.0,-0.0033049925696104765,-0.0001260097633348778,-0.0033562916796654463,0.015617397613823414,-0.24308167397975922,0.00515636196359992,0.0,0.0,0.0,0.0,0.0,0.0,0.00015363743295893073,-0.0030997071880847216,-0.0,0.0,0.0,0.0,-0.0031238000374287367,0.07304257899522781,0.0005870619206689298,1495.0,1495.0,1495.0,1495.0,0.0,0.0,0.0,0.0,0.0,0.0,0.0,0.0,0.0,0.0,0.0,0.0,1.6593190431594849,0.008689212484208227,0.09104636789081892,-0.11122514396106684,0.01239372231066227,0.0004725366015918553,0.0,-0.0,-0.0,0.0
28,23,0.0,0.0,0.0,-0.0022176862694323063,0.001974386628717184,-0.0006097521400079131,0.015617397613823414,-0.24308167397975922,0.00515636196359992,0.0,0.0,0.0,0.0,0.0,0.0,0.00015363743295893073,-0.0030997071880847216,-0.0,0.0,0.0,0.0,-0.0031238000374287367,0.07304257899522781,0.0005870619206689298,1495.0,1495.0,1495.0,1495.0,0.0,0.0,0.0,0.0,0.0,0.0,0.0,0.0,0.0,0.0,0.0,0.0,1.6593190431594849,0.00951473974279237,0.0912114768707132,-0.1113838205622654,0.01239372231066227,0.0004725366015918553,0.0,-0.0,-0.0,0.0
33,5,0.0,0.0,0.0,-0.0032526636496186256,-0.0029142715502530336,-0.003982901107519865,0.015609786845743656,-0.24310630559921265,0.0051683662459254265,0.0,0.0,0.0,0.0,0.0,0.0,0.003530456917360425,-0.003031087340787053,-0.0,0.0,0.0,0.0,-0.0031071514822542667,0.07201401889324188,0.0005425118142738938,1495.0,1495.0,1495.0,1495.0,0.0,0.0,0.0,0.0,0.0,0.0,0.0,0.0,0.0,0.0,0.0,0.0,1.6700268983840942,0.00850490133487232,0.09133787054064887,-0.11152592843241539,0.01219748891890049,0.010928518138825893,0.0,0.00015363743295893073,-0.0030997071880847216,0.0
38,5,0.0,0.0,0.0,-0.0032526636496186256,-0.0029142715502530336,-0.003982901107519865,0.015617882832884789,-0.24312441051006317,0.005180431995540857,0.0,0.0,0.0,0.0,0.0,0.0,0.003530456917360425,-0.003031087340787053,-0.0,0.0,0.0,0.0,-0.00309497257694602,0.07195933908224106,0.0005927387974224985,1495.0,1495.0,1495.0,1495.0,0.0,0.0,0.0,0.0,0.0,0.0,0.0,0.0,0.0,0.0,0.0,0.0,1.6700268983840942,0.00850490133487232,0.09133787054064887,-0.11152592843241539,0.01219748891890049,0.010928518138825893,0.0,0.00015363743295893073,-0.0030997071880847216,0.0
43,5,0.0,0.0,0.0,-0.0032526636496186256,-0.0029142715502530336,-0.003982901107519865,0.015617882832884789,-0.24312441051006317,0.005180431995540857,0.0,0.0,0.0,0.0,0.0,0.0,0.003530456917360425,-0.003031087340787053,-0.0,0.0,0.0,0.0,-0.00309497257694602,0.07195933908224106,0.0005927387974224985,1495.0,1495.0,1495.0,1495.0,0.0,0.0,0.0,0.0,0.0,0.0,0.0,0.0,0.0,0.0,0.0,0.0,1.6700268983840942,0.007072915550110892,0.0911947882525286,-0.11107464819465605,0.01219748891890049,0.010928518138825893,0.0,0.00015363743295893073,-0.0030997071880847216,0.0
50,6,0.0,0.0,0.0,-0.0032526636496186256,-0.0029142715502530336,-0.003982901107519865,0.015617882832884789,-0.24312441051006317,0.005180431995540857,0.0,0.0,0.0,0.0,0.0,0.0,0.003530456917360425,-0.003031087340787053,-0.0,0.0,0.0,0.0,-0.00309497257694602,0.07195933908224106,0.0005927387974224985,1495.0,1495.0,1495.0,1495.0,0.0,0.0,0.0,0.0,0.0,0.0,0.0,0.0,0.0,0.0,0.0,0.0,1.6700268983840942,0.007072915550110892,0.0911947882525286,-0.11107464819465605,0.01219748891890049,0.010928518138825893,0.0,0.00015363743295893073,-0.0030997071880847216,0.0
55,5,2.0760116967721842e-05,-1.8594962966744788e-05,-6.059759471099824e-06,0.001190148526802659,0.001065686927177012,-0.0008659893064759672,0.015607445500791073,-0.2431102991104126,0.005217334721237421,0.0,0.0,0.0,0.0,0.0,0.0,0.003530456917360425,-0.003031087340787053,-0.0,0.0,0.0,0.0,-0.002416708506643772,0.07213455438613892,0.0004900798085145652,18258.0,6724.0,6829.0,17741.0,0.7675913572311401,0.08817732334136963,0.09136967360973358,0.7228885293006897,0.0,0.0,0.0,0.0,0.0,0.0,0.0,0.0,1.6700268983840942,0.008259454520606734,0.09148231337847071,-0.11122887923365825,0.01219748891890049,0.010928518138825893,0.0,0.003530456917360425,-0.003031087340787053,0.0
62,8,2.4983155526570044e-05,-1.937811612151563e-05,-9.714088264445309e-06,0.0009828240144997835,0.0005202530883252621,9.212375152856112e-05,0.015607445500791073,-0.2431102991104126,0.005217334721237421,0.0,0.0,0.0,0.0,0.0,0.0,0.003530456917360425,-0.003031087340787053,-0.0,0.0,0.0,0.0,-0.002416708506643772,0.07213455438613892,0.0004900798085145652,18258.0,6724.0,6829.0,17741.0,0.7675913572311401,0.08817732334136963,0.09136967360973358,0.7228885293006897,0.0,0.0,0.0,0.0,0.0,0.0,0.0,0.0,1.6700268983840942,0.008921942937449467,0.09116111889479915,-0.1111773072216873,0.01219748891890049,0.010928518138825893,0.0,0.003530456917360425,-0.003031087340787053,0.0
67,5,2.4983155526570044e-05,-1.937811612151563e-05,-9.714088264445309e-06,0.0009828240144997835,0.0005202530883252621,9.212375152856112e-05,0.015607445500791073,-0.2431102991104126,0.005217334721237421,0.0,0.0,0.0,0.0,0.0,0.0,-0.0006778964889235795,0.0009688885766081512,-0.0,0.0,0.0,0.0,-0.002416708506643772,0.07213455438613892,0.0004900798085145652,18258.0,6724.0,6829.0,17741.0,0.7675913572311401,0.08817732334136963,0.09136967360973358,0.7228885293006897,0.0,0.0,0.0,0.0,0.0,0.0,0.0,0.0,1.6375266313552856,0.008921942937449467,0.09116111889479915,-0.1111773072216873,-0.003823084756731987,-0.0020575965754687786,0.0,0.003530456917360425,-0.003031087340787053,0.0
73,5,-2.4367586775042582e-06,-6.881752142362529e-06,9.567651204633876e-07,-0.0028972600121051073,-0.0012914624530822039,-0.0012436528922989964,0.015597217716276646,-0.24310651421546936,0.005211487412452698,0.0,0.0,0.0,0.0,0.0,0.0,-0.0006778964889235795,0.0009688885766081512,-0.0,0.0,0.0,0.0,-0.002427322557196021,0.07221914827823639,0.0004374195705167949,18258.0,6720.0,6807.0,17749.0,0.7676669955253601,0.08806915581226349,0.09070996940135956,0.7235808372497559,0.0,0.0,0.0,0.0,0.0,0.0,0.0,0.0,1.6375266313552856,0.007860833530226404,0.09103639077312348,-0.11137054324827764,-0.003823084756731987,-0.0020575965754687786,0.0,0.003530456917360425,-0.003031087340787053,0.0
78,5,-2.4367586775042582e-06,-6.881752142362529e-06,9.567651204633876e-07,-0.0028972600121051073,-0.0012914624530822039,-0.0012436528922989964,0.015597217716276646,-0.24310651421546936,0.005211487412452698,0.0,0.0,0.0,0.0,0.0,0.0,0.0015635781455785036,-0.0027228936087340117,-0.0,0.0,0.0,0.0,-0.002427322557196021,0.07221914827823639,0.0004374195705167949,18258.0,6720.0,6807.0,17749.0,0.7676669955253601,0.08806915581226349,0.09070996940135956,0.7235808372497559,0.0,0.0,0.0,0.0,0.0,0.0,0.0,0.0,1.657942533493042,0.007860833530226404,0.09103639077312348,-0.11137054324827764,0.010878047905862331,0.004805042874068022,0.0,0.003530456917360425,-0.003031087340787053,0.0
83,5,8.700060902810947e-07,4.568907115753973e-06,-4.404809715197189e-06,-0.0028972600121051073,-0.0012914624530822039,-0.0012436528922989964,0.015599455684423447,-0.24307969212532043,0.005221960600465536,0.0,0.0,0.0,0.0,0.0,0.0,0.0015635781455785036,-0.0027228936087340117,-0.0,0.0,0.0,0.0,-0.0033005699515342712,0.07339954376220703,0.0005635643028654158,18290.0,6328.0,6255.0,17656.0,0.7704402804374695,0.07671079784631729,0.07467983663082123,0.7156956791877747,0.0,0.0,0.0,0.0,0.0,0.0,0.0,0.0,1.657942533493042,0.00858503539847635,0.0911526776094779,-0.11149157658751034,0.010878047905862331,0.004805042874068022,0.0,-0.0006778964889235795,0.0009688885766081512,0.0
88,5,8.700060902810947e-07,4.568907115753973e-06,-4.404809715197189e-06,-0.0028972600121051073,-0.0012914624530822039,-0.0012436528922989964,0.015599455684423447,-0.24307969212532043,0.005221960600465536,0.0,0.0,0.0,0.0,0.0,0.0,0.0015840535052120686,-0.0027183007914572954,-0.0,0.0,0.0,0.0,-0.0033005699515342712,0.07339954376220703,0.0005635643028654158,18290.0,6328.0,6255.0,17656.0,0.7704402804374695,0.07671079784631729,0.07467983663082123,0.7156956791877747,0.0,0.0,0.0,0.0,0.0,0.0,0.0,0.0,1.6579667329788208,0.00858503539847635,0.0911526776094779,-0.11149157658751034,0.010859855450689793,0.004868053365498781,0.0,-0.0006778964889235795,0.0009688885766081512,0.0
101,13,2.2282698409981094e-05,-1.2479231372708455e-05,-1.1854261174448766e-05,0.0014106191229075193,0.0015291916206479073,0.0003964729548897594,0.015599455684423447,-0.24307969212532043,0.005221960600465536,0.0,0.0,0.0,0.0,0.0,0.0,0.0015840587439015508,-0.0027183000929653645,-0.0,0.0,0.0,0.0,-0.0033005699515342712,0.07339954376220703,0.0005635643028654158,18290.0,6328.0,6255.0,17656.0,0.7704402804374695,0.07671079784631729,0.07467983663082123,0.7156956791877747,0.0,0.0,0.0,0.0,0.0,0.0,0.0,0.0,1.6579667329788208,0.008762214687496078,0.09123252494619018,-0.11126448370986174,0.010859855450689793,0.004868053365498781,0.0,-0.0006778964889235795,0.0009688885766081512,0.0
109,9,4.9018246500054374e-05,-2.454926652717404e-05,-3.3841202821349725e-05,0.003772513475269079,0.0020600808784365654,0.0027970222290605307,0.015599455684423447,-0.24307969212532043,0.005221960600465536,0.0,0.0,0.0,0.0,0.0,0.0,0.0015840587439015508,-0.0027183000929653645,-0.0,0.0,0.0,0.0,-0.0033005699515342712,0.07339954376220703,0.0005635643028654158,18290.0,6328.0,6255.0,17656.0,0.7704402804374695,0.07671079784631729,0.07467983663082123,0.7156956791877747,0.0,0.0,0.0,0.0,0.0,0.0,0.0,0.0,1.6579667329788208,0.00902498061252051,0.09089029474466917,-0.11097815218232798,0.010859855450689793,0.004868053365498781,0.0,-0.0006778964889235795,0.0009688885766081512,0.0
114,5,5.580435390584171e-05,-9.117894478549715e-06,-4.1621955460868776e-05,0.003772513475269079,0.0020600808784365654,0.0027970222290605307,0.01562175340950489,-0.24310711026191711,0.005249000620096922,0.0,0.0,0.0,0.0,0.0,0.0,-0.0025391459930688143,0.0035823299549520016,-0.0,0.0,0.0,0.0,-0.002862693276256323,0.07238850742578506,0.0005196077399887145,18262.0,6639.0,6634.0,17693.0,0.7680140137672424,0.08566094934940338,0.08550113439559937,0.7187663912773132,0.0,0.0,0.0,0.0,0.0,0.0,0.0,0.0,1.6701412200927734,0.008951597263953082,0.09060899142956337,-0.11104276399345131,-0.014416782185435295,-0.007860470563173294,0.0,0.0015635781455785036,-0.0027228936087340117,0.0
119,5,5.580435390584171e-05,-9.117894478549715e-06,-4.1621955460868776e-05,0.003772513475269079,0.0020600808784365654,0.0027970222290605307,0.01562175340950489,-0.24310711026191711,0.005249000620096922,0.0,0.0,0.0,0.0,0.0,0.0,-0.0025391459930688143,0.0035823299549520016,-0.0,0.0,0.0,0.0,-0.002862693276256323,0.07238850742578506,0.0005196077399887145,18262.0,6639.0,6634.0,17693.0,0.7680140137672424,0.08566094934940338,0.08550113439559937,0.7187663912773132,0.0,0.0,0.0,0.0,0.0,0.0,0.0,0.0,1.6701412200927734,0.008951597263953082,0.09060899142956337,-0.11104276399345131,-0.014416782185435295,-0.007860470563173294,0.0,0.0015635781455785036,-0.0027228936087340117,0.0
125,5,-4.852320216741646e-07,-8.896063263819087e-08,1.2684218745562248e-05,-0.0052457451820373535,-0.0002594397228676826,-0.0053979321382939816,0.015605324879288673,-0.24304205179214478,0.00523363845422864,0.0,0.0,0.0,0.0,0.0,0.0,-0.0025117697659879923,0.0035916955675929785,-0.0,0.0,0.0,0.0,-0.0036399420350790024,0.07430410385131836,0.0005011734901927412,18437.0,6547.0,6319.0,17793.0,0.7834461331367493,0.0829504132270813,0.07644818723201752,0.7272965312004089,0.0,0.0,0.0,0.0,0.0,0.0,0.0,0.0,1.670121192932129,0.008358817454515135,0.09118947885292462,-0.1114047197955108,-0.014454301446676254,-0.0077756294049322605,0.0,-0.0025391459930688143,0.0035823299549520016,0.0
130,5,-4.852320216741646e-07,-8.896063263819087e-08,1.2684218745562248e-05,-0.0052457451820373535,-0.0002594397228676826,-0.0053979321382939816,0.015605324879288673,-0.24304205179214478,0.00523363845422864,0.0,0.0,0.0,0.0,0.0,0.0,-0.0025117697659879923,0.0035916955675929785,-0.0,0.0,0.0,0.0,-0.0036399420350790024,0.07430410385131836,0.0005011734901927412,18437.0,6547.0,6319.0,17793.0,0.7834461331367493,0.0829504132270813,0.07644818723201752,0.7272965312004089,0.0,0.0,0.0,0.0,0.0,0.0,0.0,0.0,1.670121192932129,0.008358817454515135,0.09118947885292462,-0.1114047197955108,-0.014454301446676254,-0.0077756294049322605,0.0,-0.0025391459930688143,0.0035823299549520016,0.0
135,5,1.0284337804478128e-05,-1.0279089110554196e-05,-8.918414096115157e-06,-0.0008059496176429093,0.0011190396035090089,0.0004331431700848043,0.015612892806529999,-0.2430223971605301,0.005216524004936218,0.0,0.0,0.0,0.0,0.0,0.0,0.0003124099166598171,-0.004862961824983358,-0.0,0.0,0.0,0.0,-0.0036690728738904,0.07439801841974258,0.0005577525007538497,18453.0,6500.0,6339.0,17784.0,0.7848946452140808,0.08159592747688293,0.07703432440757751,0.7265962958335876,0.0,0.0,0.0,0.0,0.0,0.0,0.0,0.0,1.678944706916809,0.009154892574960806,0.09150169040778154,-0.11147285347707903,0.01967376284301281,0.0009722316171973944,0.0,-0.0025391459930688143,0.0035823299549520016,0.0
140,5,1.0284337804478128e-05,-1.0279089110554196e-05,-8.918414096115157e-06,-0.0008059496176429093,0.0011190396035090089,0.0004331431700848043,0.015612892806529999,-0.2430223971605301,0.005216524004936218,0.0,0.0,0.0,0.0,0.0,0.0,0.0003124099166598171,-0.004862961824983358,-0.0,0.0,0.0,0.0,-0.0036690728738904,0.07439801841974258,0.0005577525007538497,18453.0,6500.0,6339.0,17784.0,0.7848946452140808,0.08159592747688293,0.07703432440757751,0.7265962958335876,0.0,0.0,0.0,0.0,0.0,0.0,0.0,0.0,1.678944706916809,0.009154892574960806,0.09150169040778154,-0.11147285347707903,0.01967376284301281,0.0009722316171973944,0.0,-0.0025391459930688143,0.0035823299549520016,0.0
145,5,5.614570000034291e-06,-5.058387614553794e-06,9.248574315279257e-06,-0.0008059496176429093,0.0011190396035090089,0.0004331431700848043,0.015604544430971146,-0.24301530420780182,0.005214089993387461,0.0,0.0,0.0,0.0,0.0,0.0,-0.0013992914464324713,-0.000750442617572844,-0.0,0.0,0.0,0.0,-0.0036507018376141787,0.07442376017570496,0.0004901833599433303,18436.0,6552.0,6291.0,17801.0,0.7833635210990906,0.08309528231620789,0.07566791772842407,0.7279945015907288,0.0,0.0,0.0,0.0,0.0,0.0,0.0,0.0,1.6398117542266846,0.0077987679397020305,0.09110361654519931,-0.11112057327522214,0.0029652609955519438,-0.0042531476356089115,0.0,-0.0025391459930688143,0.0035823299549520016,0.0
150,5,5.614570000034291e-06,-5.058387614553794e-06,9.248574315279257e-06,-0.0008059496176429093,0.0011190396035090089,0.0004331431700848043,0.015604544430971146,-0.24301530420780182,0.005214089993387461,0.0,0.0,0.0,0.0,0.0,0.0,-0.0013992914464324713,-0.000750442617572844,-0.0,0.0,0.0,0.0,-0.0036507018376141787,0.07442376017570496,0.0004901833599433303,18436.0,6552.0,6291.0,17801.0,0.7833635210990906,0.08309528231620789,0.07566791772842407,0.7279945015907288,0.0,0.0,0.0,0.0,0.0,0.0,0.0,0.0,1.6398117542266846,0.0077987679397020305,0.09110361654519931,-0.11112057327522214,0.0029652609955519438,-0.0042531476356089115,0.0,-0.0025391459930688143,0.0035823299549520016,0.0
155,5,3.5556513466872275e-05,-1.0653144272509962e-05,-1.4510048458760139e-05,0.003270653309300542,0.0011189866345375776,0.0030242919456213713,0.015604544430971146,-0.24301530420780182,0.005214089993387461,0.0,0.0,0.0,0.0,0.0,0.0,-0.001389870303682983,-0.0007569485460408032,-0.0,0.0,0.0,0.0,-0.00286700832657516,0.0719275251030922,0.00030209781834855676,18216.0,7118.0,6617.0,17819.0,0.7639212012290955,0.10040664672851562,0.08502422273159027,0.7295926213264465,0.0,0.0,0.0,0.0,0.0,0.0,0.0,0.0,1.639788031578064,0.008888448138877519,0.09232363803530737,-0.1112753003082142,0.002990924986079335,-0.004224451258778572,0.0,0.0003124099166598171,-0.004862961824983358,0.0
160,5,3.5556513466872275e-05,-1.0653144272509962e-05,-1.4510048458760139e-05,0.003270653309300542,0.0011189866345375776,0.0030242919456213713,0.015604544430971146,-0.24301530420780182,0.005214089993387461,0.0,0.0,0.0,0.0,0.0,0.0,-0.001389870303682983,-0.0007569485460408032,-0.0,0.0,0.0,0.0,-0.00286700832657516,0.0719275251030922,0.00030209781834855676,18216.0,7118.0,6617.0,17819.0,0.7639212012290955,0.10040664672851562,0.08502422273159027,0.7295926213264465,0.0,0.0,0.0,0.0,0.0,0.0,0.0,0.0,1.639788031578064,0.008888448138877519,0.09232363803530737,-0.1112753003082142,0.002990924986079335,-0.004224451258778572,0.0,0.0003124099166598171,-0.004862961824983358,0.0
165,5,3.5427174225333147e-06,-1.2908425560453907e-05,-5.071281520940829e-06,0.003270653309300542,0.0011189866345375776,0.0030242919456213713,0.015462037175893784,-0.24293112754821777,0.0053194668143987656,0.0,0.0,0.0,0.0,0.0,0.0,-0.0013817455619573593,0.0031127023976296186,-0.0,0.0,0.0,0.0,-0.002955017378553748,0.07187268137931824,0.0014280943432822824,18453.0,5855.0,6809.0,17473.0,0.7848169803619385,0.0640326738357544,0.09075438976287842,0.7002077102661133,0.0,0.0,0.0,0.0,0.0,0.0,0.0,0.0,1.6613816022872925,0.007897718850009169,0.0913842765218952,-0.11156770574913223,-0.012461140751838684,-0.004255061037838459,0.0,0.0003124099166598171,-0.004862961824983358,0.0
171,5,3.5427174225333147e-06,-1.2908425560453907e-05,-5.071281520940829e-06,0.003270653309300542,0.0011189866345375776,0.0030242919456213713,0.015462037175893784,-0.24293112754821777,0.0053194668143987656,0.0,0.0,0.0,0.0,0.0,0.0,-0.0013817455619573593,0.0031127023976296186,-0.0,0.0,0.0,0.0,-0.002955017378553748,0.07187268137931824,0.0014280943432822824,18453.0,5855.0,6809.0,17473.0,0.7848169803619385,0.0640326738357544,0.09075438976287842,0.7002077102661133,0.0,0.0,0.0,0.0,0.0,0.0,0.0,0.0,1.6613816022872925,0.007897718850009169,0.0913842765218952,-0.11156770574913223,-0.012461140751838684,-0.004255061037838459,0.0,0.0003124099166598171,-0.004862961824983358,0.0
176,5,8.597258783993311e-06,-2.6103209165739827e-05,-1.1968129911110736e-05,0.0019148063147440553,0.00203096866607666,0.0020373386796563864,0.015272621996700764,-0.24292537569999695,0.005197389516979456,0.0,0.0,0.0,0.0,0.0,0.0,-0.0013861535117030144,0.0030695318710058928,-0.0,0.0,0.0,0.0,-0.0028941964264959097,0.07303424924612045,0.0009790156036615372,18490.0,5581.0,7099.0,17407.0,0.7881444096565247,0.0571901760995388,0.09979201853275299,0.6946614384651184,0.0,0.0,0.0,0.0,0.0,0.0,0.0,0.0,1.660943865776062,0.00979227641061017,0.092201510273787,-0.11172382726612756,-0.012285077944397926,-0.004267510492354631,0.0,-0.0013992914464324713,-0.000750442617572844,0.0
181,5,8.597258783993311e-06,-2.6103209165739827e-05,-1.1968129911110736e-05,0.0019148063147440553,0.00203096866607666,0.0020373386796563864,0.015272621996700764,-0.24292537569999695,0.005197389516979456,0.0,0.0,0.0,0.0,0.0,0.0,-0.0013861535117030144,0.0030695318710058928,-0.0,0.0,0.0,0.0,-0.0028941964264959097,0.07303424924612045,0.0009790156036615372,18490.0,5581.0,7099.0,17407.0,0.7881444096565247,0.0571901760995388,0.09979201853275299,0.6946614384651184,0.0,0.0,0.0,0.0,0.0,0.0,0.0,0.0,1.660943865776062,0.00979227641061017,0.092201510273787,-0.11172382726612756,-0.012285077944397926,-0.004267510492354631,0.0,-0.0013992914464324713,-0.000750442617572844,0.0
186,5,9.680947550805286e-05,8.022634574444965e-05,6.445970211643726e-05,0.0019148063147440553,0.00203096866607666,0.0020373386796563864,0.015300316736102104,-0.24281468987464905,0.005304613616317511,0.0,0.0,0.0,0.0,0.0,0.0,-0.0025304669979959726,0.0018131659599021077,-0.0,0.0,0.0,0.0,-0.0030960238073021173,0.07329856604337692,-4.7418554459000006e-05,18187.0,6936.0,5598.0,18029.0,0.7614268660545349,0.09466387331485748,0.0576031357049942,0.7476876974105835,0.0,0.0,0.0,0.0,0.0,0.0,0.0,0.0,1.6544712781906128,0.010535191782255328,0.0963966731593988,-0.11454607823623476,-0.007228481583297253,-0.007760105654597282,0.0,-0.001389870303682983,-0.0007569485460408032,0.0
191,5,9.680947550805286e-05,8.022634574444965e-05,6.445970211643726e-05,0.0019148063147440553,0.00203096866607666,0.0020373386796563864,0.015300316736102104,-0.24281468987464905,0.005304613616317511,0.0,0.0,0.0,0.0,0.0,0.0,-0.0025304669979959726,0.0018131659599021077,-0.0,0.0,0.0,0.0,-0.0030960238073021173,0.07329856604337692,-4.7418554459000006e-05,18187.0,6936.0,5598.0,18029.0,0.7614268660545349,0.09466387331485748,0.0576031357049942,0.7476876974105835,0.0,0.0,0.0,0.0,0.0,0.0,0.0,0.0,1.6544712781906128,0.010535191782255328,0.0963966731593988,-0.11454607823623476,-0.007228481583297253,-0.007760105654597282,0.0,-0.001389870303682983,-0.0007569485460408032,0.0
196,5,7.313882088055834e-05,-7.1786057560530026e-06,-5.2470455557340756e-05,-0.00207455619238317,0.011300981044769287,0.014846554957330227,0.015055161900818348,-0.24302099645137787,0.005708890501409769,0.0,0.0,0.0,0.0,0.0,0.0,-0.002339943777769804,0.0019351697992533445,-0.0,0.0,0.0,0.0,-0.003063193755224347,0.07458090782165527,0.0026701902970671654,18981.0,4039.0,7897.0,17181.0,0.8324191570281982,0.025775335729122162,0.1268259882926941,0.6759234070777893,0.0,0.0,0.0,0.0,0.0,0.0,0.0,0.0,1.654281497001648,0.011546167186132706,0.09313522180058874,-0.11207896229449602,-0.0077139874920248985,-0.007175012491643429,0.0,-0.0013817455619573593,0.0031127023976296186,0.0
201,5,7.313882088055834e-05,-7.1786057560530026e-06,-5.2470455557340756e-05,-0.00207455619238317,0.011300981044769287,0.014846554957330227,0.015055161900818348,-0.24302099645137787,0.005708890501409769,0.0,0.0,0.0,0.0,0.0,0.0,-0.002339943777769804,0.0019351697992533445,-0.0,0.0,0.0,0.0,-0.003063193755224347,0.07458090782165527,0.0026701902970671654,18981.0,4039.0,7897.0,17181.0,0.8324191570281982,0.025775335729122162,0.1268259882926941,0.6759234070777893,0.0,0.0,0.0,0.0,0.0,0.0,0.0,0.0,1.654281497001648,0.011546167186132706,0.09313522180058874,-0.11207896229449602,-0.0077139874920248985,-0.007175012491643429,0.0,-0.0013817455619573593,0.0031127023976296186,0.0
206,5,4.867679308517836e-05,-2.200889866799116e-05,-8.466222789138556e-05,-0.00207455619238317,0.011300981044769287,0.014846554957330227,0.015047180466353893,-0.24325478076934814,0.005151671357452869,0.0,0.0,0.0,0.0,0.0,0.0,-0.013143526390194893,-0.0017581434221938252,-0.0,0.0,0.0,0.0,-0.002960680751129985,0.0752815455198288,-0.001441964297555387,18105.0,7121.0,5077.0,18103.0,0.7542387843132019,0.10049639642238617,0.045623697340488434,0.7541124224662781,0.0,0.0,0.0,0.0,0.0,0.0,0.0,0.0,1.7412281036376953,0.01040474205085484,0.0912561247530459,-0.1108634129719559,0.007376054767519236,-0.04241831228137016,0.0,-0.0013861535117030144,0.0030695318710058928,0.0
211,5,4.867679308517836e-05,-2.200889866799116e-05,-8.466222789138556e-05,-0.00207455619238317,0.011300981044769287,0.014846554957330227,0.015047180466353893,-0.24325478076934814,0.005151671357452869,0.0,0.0,0.0,0.0,0.0,0.0,-0.013143526390194893,-0.0017581434221938252,-0.0,0.0,0.0,0.0,-0.002960680751129985,0.0752815455198288,-0.001441964297555387,18105.0,7121.0,5077.0,18103.0,0.7542387843132019,0.10049639642238617,0.045623697340488434,0.7541124224662781,0.0,0.0,0.0,0.0,0.0,0.0,0.0,0.0,1.7412281036376953,0.01040474205085484,0.0912561247530459,-0.1108634129719559,0.007376054767519236,-0.04241831228137016,0.0,-0.0013861535117030144,0.0030695318710058928,0.0
216,5,9.622191282687709e-05,-1.3030952686676756e-05,-7.95362502685748e-05,0.0048755924217402935,0.0034430392552167177,0.005323504563421011,0.01554409135133028,-0.2436719834804535,0.005147980991750956,0.0,0.0,0.0,0.0,0.0,0.0,-0.013166752643883228,-0.0017898905789479613,-0.0,0.0,0.0,0.0,-0.004586030263453722,0.07523848861455917,-0.0010340249864384532,17850.0,8074.0,2657.0,18412.0,0.7322417497634888,0.1332266628742218,0.0077441297471523285,0.7812587022781372,0.0,0.0,0.0,0.0,0.0,0.0,0.0,0.0,1.741502285003662,0.011876888969664181,0.09260156558010228,-0.1116931420120105,0.0075104255229234695,-0.042499955743551254,0.0,-0.0025304669979959726,0.0018131659599021077,0.0
221,5,9.622191282687709e-05,-1.3030952686676756e-05,-7.95362502685748e-05,0.0048755924217402935,0.0034430392552167177,0.005323504563421011,0.01554409135133028,-0.2436719834804535,0.005147980991750956,0.0,0.0,0.0,0.0,0.0,0.0,-0.013166752643883228,-0.0017898905789479613,-0.0,0.0,0.0,0.0,-0.004586030263453722,0.07523848861455917,-0.0010340249864384532,17850.0,8074.0,2657.0,18412.0,0.7322417497634888,0.1332266628742218,0.0077441297471523285,0.7812587022781372,0.0,0.0,0.0,0.0,0.0,0.0,0.0,0.0,1.741502285003662,0.011876888969664181,0.09260156558010228,-0.1116931420120105,0.0075104255229234695,-0.042499955743551254,0.0,-0.0025304669979959726,0.0018131659599021077,0.0
226,5,0.0001130363525589928,1.8256208932143636e-05,-3.067568832193501e-05,0.0048755924217402935,0.0034430392552167177,0.005323504563421011,0.015284636989235878,-0.24396710097789764,0.004925956949591637,0.0,0.0,0.0,0.0,0.0,0.0,-0.004151021130383015,0.0046272194012999535,-0.0,0.0,0.0,0.0,-0.003484889632090926,0.07516809552907944,0.0009047279017977417,18543.0,5948.0,6380.0,17669.0,0.792894721031189,0.06643495708703995,0.0781732127070427,0.716778576374054,0.0,0.0,0.0,0.0,0.0,0.0,0.0,0.0,1.6874278783798218,0.011607714004485811,0.09278508738346407,-0.11175054453699317,-0.018814466893672943,-0.012983339838683605,0.0,-0.002339943777769804,0.0019351697992533445,0.0
231,5,0.0001130363525589928,1.8256208932143636e-05,-3.067568832193501e-05,0.0048755924217402935,0.0034430392552167177,0.005323504563421011,0.015284636989235878,-0.24396710097789764,0.004925956949591637,0.0,0.0,0.0,0.0,0.0,0.0,-0.004151021130383015,0.0046272194012999535,-0.0,0.0,0.0,0.0,-0.003484889632090926,0.07516809552907944,0.0009047279017977417,18543.0,5948.0,6380.0,17669.0,0.792894721031189,0.06643495708703995,0.0781732127070427,0.716778576374054,0.0,0.0,0.0,0.0,0.0,0.0,0.0,0.0,1.6874278783798218,0.011607714004485811,0.09278508738346407,-0.11175054453699317,-0.018814466893672943,-0.012983339838683605,0.0,-0.002339943777769804,0.0019351697992533445,0.0
237,5,5.941938070463948e-05,-3.656185799627565e-05,-2.153312607333646e-06,-0.0044837999157607555,0.007955383509397507,-0.0012932830723002553,0.014942163601517677,-0.24309857189655304,0.0045324284583330154,0.0,0.0,0.0,0.0,0.0,0.0,-0.004096116870641708,0.00465021189302206,-0.0,0.0,0.0,0.0,-0.005188256502151489,0.07078735530376434,-0.0009421025170013309,18094.0,8795.0,6169.0,18112.0,0.7532917857170105,0.16102491319179535,0.07233001291751862,0.7548555135726929,0.0,0.0,0.0,0.0,0.0,0.0,0.0,0.0,1.6873728036880493,0.00776675215747598,0.08905355744556909,-0.11107516219171076,-0.018907342106103897,-0.012811196967959404,0.0,-0.013166752643883228,-0.0017898905789479613,0.0
242,5,5.941938070463948e-05,-3.656185799627565e-05,-2.153312607333646e-06,-0.0044837999157607555,0.007955383509397507,-0.0012932830723002553,0.014942163601517677,-0.24309857189655304,0.0045324284583330154,0.0,0.0,0.0,0.0,0.0,0.0,-0.004096116870641708,0.00465021189302206,-0.0,0.0,0.0,0.0,-0.005188256502151489,0.07078735530376434,-0.0009421025170013309,18094.0,8795.0,6169.0,18112.0,0.7532917857170105,0.16102491319179535,0.07233001291751862,0.7548555135726929,0.0,0.0,0.0,0.0,0.0,0.0,0.0,0.0,1.6873728036880493,0.00776675215747598,0.08905355744556909,-0.11107516219171076,-0.018907342106103897,-0.012811196967959404,0.0,-0.013166752643883228,-0.0017898905789479613,0.0
247,5,0.0002099917473969981,-3.180655767209828e-05,0.00021850169287063181,-0.0044837999157607555,0.007955383509397507,-0.0012932830723002553,0.014622499234974384,-0.2405651956796646,0.00448196055367589,0.0,0.0,0.0,0.0,0.0,0.0,-0.009432457387447357,-0.003982594236731529,-0.0,0.0,0.0,0.0,-0.00267981830984354,0.05440054088830948,0.0008590500219725072,18042.0,7976.0,7746.0,17321.0,0.7487820386886597,0.1296471804380417,0.12145489454269409,0.6875438094139099,0.0,0.0,0.0,0.0,0.0,0.0,0.0,0.0,1.7178813219070435,0.024792089739445904,0.08507185962528949,-0.11684551911230974,0.0164850652217865,-0.03003411553800106,0.0,-0.004096116870641708,0.00465021189302206,0.0
252,5,0.0002099917473969981,-3.180655767209828e-05,0.00021850169287063181,-0.0044837999157607555,0.007955383509397507,-0.0012932830723002553,0.014622499234974384,-0.2405651956796646,0.00448196055367589,0.0,0.0,0.0,0.0,0.0,0.0,-0.009432457387447357,-0.003982594236731529,-0.0,0.0,0.0,0.0,-0.00267981830984354,0.05440054088830948,0.0008590500219725072,18042.0,7976.0,7746.0,17321.0,0.7487820386886597,0.1296471804380417,0.12145489454269409,0.6875438094139099,0.0,0.0,0.0,0.0,0.0,0.0,0.0,0.0,1.7178813219070435,0.024792089739445904,0.08507185962528949,-0.11684551911230974,0.0164850652217865,-0.03003411553800106,0.0,-0.004096116870641708,0.00465021189302206,0.0
257,5,4.3679974623955786e-05,8.81690539245028e-06,0.000490287784487009,-0.0044837999157607555,0.007955383509397507,-0.0012932830723002553,0.014622499234974384,-0.2405651956796646,0.00448196055367589,0.0,0.0,0.0,0.0,0.0,0.0,-0.009430323727428913,-0.003784771542996168,-0.0,0.0,0.0,0.0,-0.00267981830984354,0.05440054088830948,0.0008590500219725072,18042.0,7976.0,7746.0,17321.0,0.7487820386886597,0.1296471804380417,0.12145489454269409,0.6875438094139099,0.0,0.0,0.0,0.0,0.0,0.0,0.0,0.0,1.7167799472808838,0.014214356772044742,0.07119349045027544,-0.11069248162043703,0.015656182542443275,-0.030008072033524513,0.0,-0.004096116870641708,0.00465021189302206,0.0
262,5,1.0213107998424675e-05,1.4140827261144295e-05,0.0007839055033400655,-0.005809543654322624,0.0025432829279452562,-0.03575143963098526,0.014066648669540882,-0.23165257275104523,0.004376944154500961,0.0,0.0,0.0,0.0,0.0,0.0,-0.009430323727428913,-0.003784771542996168,-0.0,0.0,0.0,0.0,-0.004603053443133831,0.031048104166984558,0.0014840771909803152,17539.0,8819.0,9919.0,16361.0,0.7057660818099976,0.1620127260684967,0.2095983922481537,0.6099956631660461,0.0,0.0,0.0,0.0,0.0,0.0,0.0,0.0,1.7167799472808838,0.00659825738366186,0.05117460151976436,-0.1117060889368784,0.015656182542443275,-0.030008072033524513,0.0,-0.009432457387447357,-0.003982594236731529,0.0
267,5,1.0213107998424675e-05,1.4140827261144295e-05,0.0007839055033400655,-0.005809543654322624,0.0025432829279452562,-0.03575143963098526,0.014066648669540882,-0.23165257275104523,0.004376944154500961,0.0,0.0,0.0,0.0,0.0,0.0,-0.003020505653694272,-0.005336298141628504,-0.0,0.0,0.0,0.0,-0.004603053443133831,0.031048104166984558,0.0014840771909803152,17539.0,8819.0,9919.0,16361.0,0.7057660818099976,0.1620127260684967,0.2095983922481537,0.6099956631660461,0.0,0.0,0.0,0.0,0.0,0.0,0.0,0.0,1.6896671056747437,0.00659825738366186,0.05117460151976436,-0.1117060889368784,0.021726466715335846,-0.009459935128688812,0.0,-0.009432457387447357,-0.003982594236731529,0.0
272,5,-9.05049528228119e-05,-8.301520574605092e-05,0.0014194454997777939,-0.014409984461963177,0.012676036916673183,-0.09056537598371506,0.014359239488840103,-0.22017677128314972,0.004887579474598169,0.0,0.0,0.0,0.0,0.0,0.0,-0.003020505653694272,-0.005336298141628504,-0.0,0.0,0.0,0.0,-0.00427651172503829,0.0064819627441465855,0.003680272027850151,15557.0,12584.0,14856.0,12072.0,0.5486571788787842,0.35000327229499817,0.49785032868385315,0.3202691972255707,0.0,0.0,0.0,0.0,0.0,0.0,0.0,0.0,1.6896671056747437,0.010950744917448898,0.02230597919245127,-0.1116054284215264,0.021726466715335846,-0.009459935128688812,0.0,-0.009430323727428913,-0.003784771542996168,0.0
277,5,-9.05049528228119e-05,-8.301520574605092e-05,0.0014194454997777939,-0.014409984461963177,0.012676036916673183,-0.09056537598371506,0.014359239488840103,-0.22017677128314972,0.004887579474598169,0.0,0.0,0.0,0.0,0.0,0.0,-0.003020505653694272,-0.005336298141628504,-0.0,0.0,0.0,0.0,-0.00427651172503829,0.0064819627441465855,0.003680272027850151,15557.0,12584.0,14856.0,12072.0,0.5486571788787842,0.35000327229499817,0.49785032868385315,0.3202691972255707,0.0,0.0,0.0,0.0,0.0,0.0,0.0,0.0,1.6896671056747437,0.010950744917448898,0.02230597919245127,-0.1116054284215264,0.021726466715335846,-0.009459935128688812,0.0,-0.009430323727428913,-0.003784771542996168,0.0
282,5,-0.0002328463742742315,-0.00011673397966660559,0.002023021224886179,-0.014409984461963177,0.012676036916673183,-0.09056537598371506,0.013389375060796738,-0.1916671097278595,0.005600539036095142,0.0,0.0,0.0,0.0,0.0,0.0,-0.014237268827855587,-0.012444970197975636,-0.0,0.0,0.0,0.0,-0.004102662671357393,-0.024971790611743927,0.004129132255911827,13829.0,14194.0,16717.0,9051.0,0.42783212661743164,0.45207443833351135,0.6382056474685669,0.17155486345291138,0.0,0.0,0.0,0.0,0.0,0.0,0.0,0.0,1.8187122344970703,-0.005160016618016145,-0.016957241242401524,-0.11095910902391977,0.05453238636255264,-0.047992412000894547,0.0,-0.003020505653694272,-0.005336298141628504,0.0
287,5,-0.0002328463742742315,-0.00011673397966660559,0.002023021224886179,-0.014409984461963177,0.012676036916673183,-0.09056537598371506,0.013389375060796738,-0.1916671097278595,0.005600539036095142,0.0,0.0,0.0,0.0,0.0,0.0,-0.014237268827855587,-0.012444970197975636,-0.0,0.0,0.0,0.0,-0.004102662671357393,-0.024971790611743927,0.004129132255911827,13829.0,14194.0,16717.0,9051.0,0.42783212661743164,0.45207443833351135,0.6382056474685669,0.17155486345291138,0.0,0.0,0.0,0.0,0.0,0.0,0.0,0.0,1.8187122344970703,-0.005160016618016145,-0.016957241242401524,-0.11095910902391977,0.05453238636255264,-0.047992412000894547,0.0,-0.003020505653694272,-0.005336298141628504,0.0
293,5,-0.0004946835106238723,-0.0001593992201378569,0.0029764575883746147,-0.014409984461963177,0.012676036916673183,-0.09056537598371506,0.012965955771505833,-0.11272548884153366,0.007360103540122509,0.0,0.0,0.0,0.0,0.0,0.0,-0.014277917332947254,-0.012611032463610172,-0.0,0.0,0.0,0.0,-0.0069979773834347725,-0.05638096109032631,0.004392649047076702,11797.0,17061.0,18848.0,4140.0,0.3048238754272461,0.6660950183868408,0.8203308582305908,0.027462467551231384,0.0,0.0,0.0,0.0,0.0,0.0,0.0,0.0,1.8205584287643433,-0.0027013582873661847,-0.0697784443433482,-0.1057880588997593,0.055316079407930374,-0.04817827418446541,0.0,-0.014237268827855587,-0.012444970197975636,0.0
298,5,-0.0004946835106238723,-0.0001593992201378569,0.0029764575883746147,-0.014409984461963177,0.012676036916673183,-0.09056537598371506,0.012965955771505833,-0.11272548884153366,0.007360103540122509,0.0,0.0,0.0,0.0,0.0,0.0,-0.014277917332947254,-0.012611032463610172,-0.0,0.0,0.0,0.0,-0.0069979773834347725,-0.05638096109032631,0.004392649047076702,11797.0,17061.0,18848.0,4140.0,0.3048238754272461,0.6660950183868408,0.8203308582305908,0.027462467551231384,0.0,0.0,0.0,0.0,0.0,0.0,0.0,0.0,1.8205584287643433,-0.0027013582873661847,-0.0697784443433482,-0.1057880588997593,0.055316079407930374,-0.04817827418446541,0.0,-0.014237268827855587,-0.012444970197975636,0.0
303,5,-0.0008927997550927103,-0.00015583472850266844,0.003906917292624712,-0.053537942469120026,0.004642677027732134,-0.14788129925727844,0.012764235027134418,-0.07197100669145584,0.008349688723683357,0.0,0.0,0.0,0.0,0.0,0.0,-0.014322240836918354,-0.012916871346533298,-0.0,0.0,0.0,0.0,-0.007247817236930132,-0.08708932250738144,0.0062212408520281315,10449.0,17903.0,20461.0,1495.0,0.2346716672182083,0.7367702722549438,0.9733258485794067,-0.12420935928821564,0.0,0.0,0.0,0.0,0.0,0.0,0.0,0.0,1.8237857818603516,-0.007910952827945359,-0.12326336509675768,-0.10435531195501978,0.05675791576504707,-0.048413489013910294,0.0,-0.014277917332947254,-0.012611032463610172,0.0
308,5,-0.0008927997550927103,-0.00015583472850266844,0.003906917292624712,-0.053537942469120026,0.004642677027732134,-0.14788129925727844,0.012764235027134418,-0.07197100669145584,0.008349688723683357,0.0,0.0,0.0,0.0,0.0,0.0,-0.014322240836918354,-0.012916871346533298,-0.0,0.0,0.0,0.0,-0.007247817236930132,-0.08708932250738144,0.0062212408520281315,10449.0,17903.0,20461.0,1495.0,0.2346716672182083,0.7367702722549438,0.9733258485794067,-0.12420935928821564,0.0,0.0,0.0,0.0,0.0,0.0,0.0,0.0,1.8237857818603516,-0.007910952827945359,-0.12326336509675768,-0.10435531195501978,0.05675791576504707,-0.048413489013910294,0.0,-0.014277917332947254,-0.012611032463610172,0.0
313,5,-0.0013924682280048728,-0.00014975658268667758,0.004953187424689531,-0.053537942469120026,0.004642677027732134,-0.14788129925727844,0.012497354298830032,-0.006125303916633129,0.00980160292237997,0.0,0.0,0.0,0.0,0.0,0.0,-0.004584318492561579,-0.03971164673566818,-0.0,0.0,0.0,0.0,-0.008334953337907791,-0.10498779267072678,0.0063331457786262035,8310.0,19094.0,21555.0,1495.0,0.14203901588916779,0.8427795171737671,1.0845087766647339,-0.245541512966156,0.0,0.0,0.0,0.0,0.0,0.0,0.0,0.0,2.150017738342285,-0.01965099521623828,-0.1764971824755082,-0.10485268540537314,0.20568051934242249,-0.018269330263137817,0.0,-0.014322240836918354,-0.012916871346533298,0.0
318,5,-0.0013924682280048728,-0.00014975658268667758,0.004953187424689531,-0.053537942469120026,0.004642677027732134,-0.14788129925727844,0.012497354298830032,-0.006125303916633129,0.00980160292237997,0.0,0.0,0.0,0.0,0.0,0.0,-0.004584318492561579,-0.03971164673566818,-0.0,0.0,0.0,0.0,-0.008334953337907791,-0.10498779267072678,0.0063331457786262035,8310.0,19094.0,21555.0,1495.0,0.14203901588916779,0.8427795171737671,1.0845087766647339,-0.245541512966156,0.0,0.0,0.0,0.0,0.0,0.0,0.0,0.0,2.150017738342285,-0.01965099521623828,-0.1764971824755082,-0.10485268540537314,0.20568051934242249,-0.018269330263137817,0.0,-0.014322240836918354,-0.012916871346533298,0.0
323,5,-0.0022686992306262255,0.00012179777695564553,0.005782261025160551,-0.053537942469120026,0.004642677027732134,-0.14788129925727844,0.012585449032485485,0.03774218633770943,0.010878541506826878,0.0,0.0,0.0,0.0,0.0,0.0,-0.00456236582249403,-0.04012296721339226,-0.0,0.0,0.0,0.0,-0.006099432706832886,-0.13015957176685333,0.0064020296558737755,8004.0,20680.0,23165.0,1495.0,0.13068841397762299,0.9950916767120361,1.2590687274932861,-0.2348310351371765,0.0,0.0,0.0,0.0,0.0,0.0,0.0,0.0,2.1564717292785645,-0.04554670477105823,-0.2359947101087655,-0.11750527221169733,0.20843356847763062,-0.018236424773931503,0.0,-0.004584318492561579,-0.03971164673566818,0.0
328,5,-0.0022686992306262255,0.00012179777695564553,0.005782261025160551,-0.053537942469120026,0.004642677027732134,-0.14788129925727844,0.012585449032485485,0.03774218633770943,0.010878541506826878,0.0,0.0,0.0,0.0,0.0,0.0,-0.00456236582249403,-0.04012296721339226,-0.0,0.0,0.0,0.0,-0.006099432706832886,-0.13015957176685333,0.0064020296558737755,8004.0,20680.0,23165.0,1495.0,0.13068841397762299,0.9950916767120361,1.2590687274932861,-0.2348310351371765,0.0,0.0,0.0,0.0,0.0,0.0,0.0,0.0,2.1564717292785645,-0.04554670477105823,-0.2359947101087655,-0.11750527221169733,0.20843356847763062,-0.018236424773931503,0.0,-0.004584318492561579,-0.03971164673566818,0.0
333,5,-0.002777791116386652,0.00031384348403662443,0.006593751721084118,-0.053537942469120026,0.004642677027732134,-0.14788129925727844,0.012039244174957275,0.09930252283811569,0.01269454788416624,0.0,0.0,0.0,0.0,0.0,0.0,-0.004167323932051659,-0.040843989700078964,-0.0,0.0,0.0,0.0,-0.006135948002338409,-0.133419468998909,0.007081114687025547,7585.0,20885.0,23697.0,1495.0,0.11587037891149521,1.0156590938568115,1.3195477724075317,-0.294605553150177,0.0,0.0,0.0,0.0,0.0,0.0,0.0,0.0,2.1674818992614746,-0.04710558973501512,-0.2781834593277074,-0.12331889104099586,0.21326078474521637,-0.01674244925379753,0.0,-0.004584318492561579,-0.03971164673566818,0.0
338,5,-0.002777791116386652,0.00031384348403662443,0.006593751721084118,-0.053537942469120026,0.004642677027732134,-0.14788129925727844,0.012039244174957275,0.09930252283811569,0.01269454788416624,0.0,0.0,0.0,0.0,0.0,0.0,-0.004167323932051659,-0.040843989700078964,-0.0,0.0,0.0,0.0,-0.006135948002338409,-0.133419468998909,0.007081114687025547,7585.0,20885.0,23697.0,1495.0,0.11587037891149521,1.0156590938568115,1.3195477724075317,-0.294605553150177,0.0,0.0,0.0,0.0,0.0,0.0,0.0,0.0,2.1674818992614746,-0.04710558973501512,-0.2781834593277074,-0.12331889104099586,0.21326078474521637,-0.01674244925379753,0.0,-0.004584318492561579,-0.03971164673566818,0.0
343,5,-0.0035260296426713467,0.0003006652113981545,0.006804273929446936,-0.053537942469120026,0.004642677027732134,-0.14788129925727844,0.011650839820504189,0.13555093109607697,0.014009464532136917,0.0,0.0,0.0,0.0,0.0,0.0,-0.004167323932051659,-0.040843989700078964,-0.0,0.0,0.0,0.0,-0.004955206997692585,-0.13715848326683044,0.006508388090878725,7201.0,20901.0,23463.0,1495.0,0.10306882858276367,1.017332911491394,1.292712926864624,-0.25664299726486206,0.0,0.0,0.0,0.0,0.0,0.0,0.0,0.0,2.1674818992614746,-0.06853943784214059,-0.33858504798169275,-0.12860277597273687,0.2201884388923645,-0.015757625922560692,0.0,-0.00456236582249403,-0.04012296721339226,0.0
348,5,-0.0035260296426713467,0.0003006652113981545,0.006804273929446936,-0.053537942469120026,0.004642677027732134,-0.14788129925727844,0.011650839820504189,0.13555093109607697,0.014009464532136917,0.0,0.0,0.0,0.0,0.0,0.0,-0.003893474815413356,-0.041862569749355316,-0.0,0.0,0.0,0.0,-0.004955206997692585,-0.13715848326683044,0.006508388090878725,7201.0,20901.0,23463.0,1495.0,0.10306882858276367,1.017332911491394,1.292712926864624,-0.25664299726486206,0.0,0.0,0.0,0.0,0.0,0.0,0.0,0.0,2.1834681034088135,-0.06853943784214059,-0.33858504798169275,-0.12860277597273687,0.2201884388923645,-0.015757625922560692,0.0,-0.00456236582249403,-0.04012296721339226,0.0
353,5,-0.0037763931322842836,0.000395823793951422,0.00661124661564827,-0.053537942469120026,0.004642677027732134,-0.14788129925727844,0.010926981456577778,0.18041817843914032,0.016031473875045776,0.0,0.0,0.0,0.0,0.0,0.0,-0.003893474815413356,-0.041862569749355316,-0.0,0.0,0.0,0.0,-0.004604673478752375,-0.1300562024116516,0.007012736983597279,8123.0,20591.0,23557.0,1495.0,0.13503307104110718,0.9861489534378052,1.3034663200378418,-0.2571665644645691,0.0,0.0,0.0,0.0,0.0,0.0,0.0,0.0,2.1834681034088135,-0.08012793146098891,-0.39373976429116375,-0.13308042915423055,0.2201884388923645,-0.015757625922560692,0.0,-0.00456236582249403,-0.04012296721339226,0.0
359,5,-0.0037763931322842836,0.000395823793951422,0.00661124661564827,-0.053537942469120026,0.004642677027732134,-0.14788129925727844,0.010926981456577778,0.18041817843914032,0.016031473875045776,0.0,0.0,0.0,0.0,0.0,0.0,-0.003758395789191127,-0.04206633195281029,-0.0,0.0,0.0,0.0,-0.004604673478752375,-0.1300562024116516,0.007012736983597279,8123.0,20591.0,23557.0,1495.0,0.13503307104110718,0.9861489534378052,1.3034663200378418,-0.2571665644645691,0.0,0.0,0.0,0.0,0.0,0.0,0.0,0.0,2.1866159439086914,-0.08012793146098891,-0.39373976429116375,-0.13308042915423055,0.2215786576271057,-0.015232869423925877,0.0,-0.00456236582249403,-0.04012296721339226,0.0
364,5,-0.0041566574946045876,0.0004661896964535117,0.006941590923815966,-0.06704691797494888,-0.006586837582290173,-0.0987938791513443,0.010426758788526058,0.20321866869926453,0.01753636635839939,0.0,0.0,0.0,0.0,0.0,0.0,-0.003758395789191127,-0.04206633195281029,-0.0,0.0,0.0,0.0,-0.004351639188826084,-0.12256322056055069,0.006959668360650539,9295.0,20180.0,23043.0,1495.0,0.18186824023723602,0.9457474946975708,1.245302438735962,-0.18945001065731049,0.0,0.0,0.0,0.0,0.0,0.0,0.0,0.0,2.1866159439086914,-0.07652183398657388,-0.41114769205212615,-0.13108200994666588,0.2215786576271057,-0.015232869423925877,0.0,-0.004167323932051659,-0.040843989700078964,0.0
369,5,-0.0041566574946045876,0.0004661896964535117,0.006941590923815966,-0.06704691797494888,-0.006586837582290173,-0.0987938791513443,0.010426758788526058,0.20321866869926453,0.01753636635839939,0.0,0.0,0.0,0.0,0.0,0.0,0.006370896939188242,-0.04932902380824089,-0.0,0.0,0.0,0.0,-0.004351639188826084,-0.12256322056055069,0.006959668360650539,9295.0,20180.0,23043.0,1495.0,0.18186824023723602,0.9457474946975708,1.245302438735962,-0.18945001065731049,0.0,0.0,0.0,0.0,0.0,0.0,0.0,0.0,2.3090052604675293,-0.07652183398657388,-0.41114769205212615,-0.13108200994666588,0.2743433117866516,0.027266455814242363,0.0,-0.004167323932051659,-0.040843989700078964,0.0
374,5,-0.0044168815948069096,0.0004548040742520243,0.007136956788599491,-0.06704691797494888,-0.006586837582290173,-0.0987938791513443,0.010426758788526058,0.20321866869926453,0.01753636635839939,0.0,0.0,0.0,0.0,0.0,0.0,0.006370896939188242,-0.04932902380824089,-0.0,0.0,0.0,0.0,-0.004351639188826084,-0.12256322056055069,0.006959668360650539,9295.0,20180.0,23043.0,1495.0,0.18186824023723602,0.9457474946975708,1.245302438735962,-0.18945001065731049,0.0,0.0,0.0,0.0,0.0,0.0,0.0,0.0,2.3090052604675293,-0.07045151738762206,-0.4190800099335106,-0.12794033193468585,0.2743433117866516,0.027266455814242363,0.0,-0.004167323932051659,-0.040843989700078964,0.0
379,5,-0.0044168815948069096,0.0004548040742520243,0.007136956788599491,-0.06704691797494888,-0.006586837582290173,-0.0987938791513443,0.010130856186151505,0.22603580355644226,0.019250158220529556,0.0,0.0,0.0,0.0,0.0,0.0,0.006347829010337591,-0.0495205894112587,-0.0,0.0,0.0,0.0,-0.003847322892397642,-0.1088394746184349,0.0056126839481294155,9798.0,19922.0,22279.0,1495.0,0.20404380559921265,0.9207373261451721,1.1613305807113647,-0.10264356434345245,0.0,0.0,0.0,0.0,0.0,0.0,0.0,0.0,2.312208890914917,-0.07045151738762206,-0.4190800099335106,-0.12794033193468585,0.2757900059223175,0.02720542624592781,0.0,-0.003893474815413356,-0.041862569749355316,0.0
384,5,-0.00467783585190773,0.0004709069326054305,0.007198500446975231,-0.058133285492658615,-0.004567078780382872,-0.04690276086330414,0.010130856186151505,0.22603580355644226,0.019250158220529556,0.0,0.0,0.0,0.0,0.0,0.0,0.006347829010337591,-0.0495205894112587,-0.0,0.0,0.0,0.0,-0.003847322892397642,-0.1088394746184349,0.0056126839481294155,9798.0,19922.0,22279.0,1495.0,0.20404380559921265,0.9207373261451721,1.1613305807113647,-0.10264356434345245,0.0,0.0,0.0,0.0,0.0,0.0,0.0,0.0,2.312208890914917,-0.07029186857020427,-0.4224147489660492,-0.1265571782381749,0.2757900059223175,0.02720542624592781,0.0,-0.003893474815413356,-0.041862569749355316,0.0
389,5,-0.00467783585190773,0.0004709069326054305,0.007198500446975231,-0.058133285492658615,-0.004567078780382872,-0.04690276086330414,0.009892304427921772,0.23411549627780914,0.020075811073184013,0.0,0.0,0.0,0.0,0.0,0.0,0.004752819892019033,-0.045214563608169556,-0.0,0.0,0.0,0.0,-0.0026099930983036757,-0.09606416523456573,0.0043235220946371555,10418.0,19514.0,21397.0,2153.0,0.233173668384552,0.8818647861480713,1.068023920059204,0.0035535097122192383,0.0,0.0,0.0,0.0,0.0,0.0,0.0,0.0,2.238638401031494,-0.07029186857020427,-0.4224147489660492,-0.1265571782381749,0.24381551146507263,0.019721543416380882,0.0,-0.003758395789191127,-0.04206633195281029,0.0
394,5,-0.004684675019234419,0.0006137665477581322,0.006909018848091364,-0.0240740105509758,-0.018969988450407982,0.01597670651972294,0.009892304427921772,0.23411549627780914,0.020075811073184013,0.0,0.0,0.0,0.0,0.0,0.0,0.004752819892019033,-0.045214563608169556,-0.0,0.0,0.0,0.0,-0.0026099930983036757,-0.09606416523456573,0.0043235220946371555,10418.0,19514.0,21397.0,2153.0,0.233173668384552,0.8818647861480713,1.068023920059204,0.0035535097122192383,0.0,0.0,0.0,0.0,0.0,0.0,0.0,0.0,2.238638401031494,-0.061249928200621785,-0.4313521098963852,-0.1301205009231934,0.24381551146507263,0.019721543416380882,0.0,-0.003758395789191127,-0.04206633195281029,0.0
399,5,-0.004684675019234419,0.0006137665477581322,0.006909018848091364,-0.0240740105509758,-0.018969988450407982,0.01597670651972294,0.009562063030898571,0.2358190268278122,0.020988134667277336,0.0,0.0,0.0,0.0,0.0,0.0,0.02026113122701645,-0.024295862764120102,-0.0,0.0,0.0,0.0,-0.0008458986412733793,-0.06959259510040283,0.0036876907106488943,11995.0,19152.0,21122.0,7266.0,0.3159112334251404,0.8481631875038147,1.039764404296875,0.10516641288995743,0.0,0.0,0.0,0.0,0.0,0.0,0.0,0.0,1.9845248460769653,-0.061249928200621785,-0.4313521098963852,-0.1301205009231934,0.1161472424864769,0.07452033460140228,-0.0,0.006347829010337591,-0.0495205894112587,0.0
404,5,-0.005023203324526548,0.0005289676482789218,0.006750467699021101,-0.0240740105509758,-0.018969988450407982,0.01597670651972294,0.009562063030898571,0.2358190268278122,0.020988134667277336,0.0,0.0,0.0,0.0,0.0,0.0,0.02026113122701645,-0.024295862764120102,-0.0,0.0,0.0,0.0,-0.0008458986412733793,-0.06959259510040283,0.0036876907106488943,11995.0,19152.0,21122.0,7266.0,0.3159112334251404,0.8481631875038147,1.039764404296875,0.10516641288995743,0.0,0.0,0.0,0.0,0.0,0.0,0.0,0.0,1.9845248460769653,-0.06695500154166338,-0.4204242531443478,-0.12287607931809164,0.1161472424864769,0.07452033460140228,-0.0,0.006347829010337591,-0.0495205894112587,0.0
409,5,-0.005023203324526548,0.0005289676482789218,0.006750467699021101,-0.0240740105509758,-0.018969988450407982,0.01597670651972294,0.009741167537868023,0.23151816427707672,0.02162553183734417,0.0,0.0,0.0,0.0,0.0,0.0,0.02026113122701645,-0.024295862764120102,-0.0,0.0,0.0,0.0,-0.0016417286824434996,-0.057586248964071274,0.0030880344565957785,12682.0,18707.0,20450.0,9171.0,0.3558622896671295,0.807592511177063,0.9721823930740356,0.17657169699668884,0.0,0.0,0.0,0.0,0.0,0.0,0.0,0.0,1.9845248460769653,-0.06695500154166338,-0.4204242531443478,-0.12287607931809164,0.1180267259478569,0.07405579090118408,-0.0,0.004752819892019033,-0.045214563608169556,0.0
414,5,-0.005212784744799137,0.0004944064421579242,0.00657280208542943,-0.0240740105509758,-0.018969988450407982,0.01597670651972294,0.009741167537868023,0.23151816427707672,0.02162553183734417,0.0,0.0,0.0,0.0,0.0,0.0,0.020101232454180717,-0.02464786171913147,-0.0,0.0,0.0,0.0,-0.0016417286824434996,-0.057586248964071274,0.0030880344565957785,12682.0,18707.0,20450.0,9171.0,0.3558622896671295,0.807592511177063,0.9721823930740356,0.17657169699668884,0.0,0.0,0.0,0.0,0.0,0.0,0.0,0.0,1.9878376722335815,-0.06032723254199295,-0.40794188023330574,-0.11766869281527967,0.1180267259478569,0.07405579090118408,-0.0,0.004752819892019033,-0.045214563608169556,0.0
420,5,-0.005212784744799137,0.0004944064421579242,0.00657280208542943,-0.0240740105509758,-0.018969988450407982,0.01597670651972294,0.010067970491945744,0.21965919435024261,0.0221644826233387,0.0,0.0,0.0,0.0,0.0,0.0,0.020101232454180717,-0.02464786171913147,-0.0,0.0,0.0,0.0,0.0012988029047846794,-0.04229988530278206,0.0021232597064226866,13290.0,17947.0,19538.0,10158.0,0.39318346977233887,0.740586519241333,0.8841290473937988,0.22073936462402344,0.0,0.0,0.0,0.0,0.0,0.0,0.0,0.0,1.9898182153701782,-0.06032723254199295,-0.40794188023330574,-0.11766869281527967,0.11908766627311707,0.07386743277311325,-0.0,0.02026113122701645,-0.024295862764120102,0.0
425,5,-0.005420864559710026,0.0006137124728411436,0.006729064974933863,-0.0240740105509758,-0.018969988450407982,0.01597670651972294,0.010067970491945744,0.21965919435024261,0.0221644826233387,0.0,0.0,0.0,0.0,0.0,0.0,0.020030131563544273,-0.02484467253088951,-0.0,0.0,0.0,0.0,0.0012988029047846794,-0.04229988530278206,0.0021232597064226866,13290.0,17947.0,19538.0,10158.0,0.39318346977233887,0.740586519241333,0.8841290473937988,0.22073936462402344,0.0,0.0,0.0,0.0,0.0,0.0,0.0,0.0,1.9898182153701782,-0.03663396527256054,-0.3871240140285739,-0.10830268118301406,0.11908766627311707,0.07386743277311325,-0.0,0.02026113122701645,-0.024295862764120102,0.0
430,5,-0.005420864559710026,0.0006137124728411436,0.006729064974933863,-0.0240740105509758,-0.018969988450407982,0.01597670651972294,0.010387922637164593,0.20933273434638977,0.022312097251415253,0.0,0.0,0.0,0.0,0.0,0.0,0.020030131563544273,-0.02484467253088951,-0.0,0.0,0.0,0.0,0.001744327717460692,-0.037496261298656464,0.00211543426848948,13148.0,16185.0,17758.0,11394.0,0.38429659605026245,0.5963273048400879,0.7243399024009705,0.28287389874458313,0.0,0.0,0.0,0.0,0.0,0.0,0.0,0.0,1.9898182153701782,-0.03663396527256054,-0.3871240140285739,-0.10830268118301406,0.11908766627311707,0.07386743277311325,-0.0,0.020101232454180717,-0.02464786171913147,0.0
435,5,-0.005312531720846891,0.0009772080229595304,0.00670198630541563,0.0033703562803566456,-0.05120746046304703,0.009640080854296684,0.010387922637164593,0.20933273434638977,0.022312097251415253,0.0,0.0,0.0,0.0,0.0,0.0,0.020175155252218246,-0.025045882910490036,-0.0,0.0,0.0,0.0,0.001744327717460692,-0.037496261298656464,0.00211543426848948,13148.0,16185.0,17758.0,11394.0,0.38429659605026245,0.5963273048400879,0.7243399024009705,0.28287389874458313,0.0,0.0,0.0,0.0,0.0,0.0,0.0,0.0,1.993125081062317,-0.025466715791595592,-0.3750650735943791,-0.1212233378547771,0.12025108188390732,0.07452576607465744,-0.0,0.020101232454180717,-0.02464786171913147,0.0
440,5,-0.005312531720846891,0.0009772080229595304,0.00670198630541563,0.0033703562803566456,-0.05120746046304703,0.009640080854296684,0.010328883305191994,0.19245736300945282,0.02260376140475273,0.0,0.0,0.0,0.0,0.0,0.0,0.020175155252218246,-0.025045882910490036,-0.0,0.0,0.0,0.0,0.001811571535654366,-0.034625351428985596,0.0025770743377506733,13148.0,16185.0,17758.0,11394.0,0.38429659605026245,0.5963273048400879,0.7243399024009705,0.28287389874458313,0.0,0.0,0.0,0.0,0.0,0.0,0.0,0.0,1.993125081062317,-0.025466715791595592,-0.3750650735943791,-0.1212233378547771,0.12025108188390732,0.07452576607465744,-0.0,0.020030131563544273,-0.02484467253088951,0.0
445,5,-0.005902592092752457,0.0008338168263435364,0.0065221600234508514,-0.06945914775133133,-0.003276045434176922,0.02543521299958229,0.010328883305191994,0.19245736300945282,0.02260376140475273,0.0,0.0,0.0,0.0,0.0,0.0,0.050010498613119125,-0.0032670258078724146,-0.0,0.0,0.0,0.0,0.001811571535654366,-0.034625351428985596,0.0025770743377506733,13148.0,16185.0,17758.0,11394.0,0.38429659605026245,0.5963273048400879,0.7243399024009705,0.28287389874458313,0.0,0.0,0.0,0.0,0.0,0.0,0.0,0.0,2.131317138671875,-0.03655639729813358,-0.3619392786615375,-0.11061908231934776,0.01675746962428093,0.1974189281463623,-0.0,0.020030131563544273,-0.02484467253088951,0.0
450,5,-0.005902592092752457,0.0008338168263435364,0.0065221600234508514,-0.06945914775133133,-0.003276045434176922,0.02543521299958229,0.010328883305191994,0.19245736300945282,0.02260376140475273,0.0,0.0,0.0,0.0,0.0,0.0,0.050010498613119125,-0.0032670258078724146,-0.0,0.0,0.0,0.0,0.001811571535654366,-0.034625351428985596,0.0025770743377506733,13148.0,16185.0,17758.0,11394.0,0.38429659605026245,0.5963273048400879,0.7243399024009705,0.28287389874458313,0.0,0.0,0.0,0.0,0.0,0.0,0.0,0.0,2.131317138671875,-0.03655639729813358,-0.3619392786615375,-0.11061908231934776,0.01675746962428093,0.1974189281463623,-0.0,0.020030131563544273,-0.02484467253088951,0.0
455,5,-0.006039131432771683,0.0008993492228910327,0.006450531538575888,-0.06945914775133133,-0.003276045434176922,0.02543521299958229,0.011313031427562237,0.16686968505382538,0.022380542010068893,0.0,0.0,0.0,0.0,0.0,0.0,0.0038796160370111465,-0.05181645601987839,-0.0,0.0,0.0,0.0,0.0005983193987049162,-0.03662917762994766,3.311668479000218e-05,12414.0,16854.0,17154.0,12245.0,0.34000352025032043,0.6492182612419128,0.6737327575683594,0.33017048239707947,0.0,0.0,0.0,0.0,0.0,0.0,0.0,0.0,2.3487908840179443,-0.024615425674259256,-0.351646312155514,-0.11390696518425898,0.29313409328460693,0.0168903898447752,-0.0,0.020175155252218246,-0.025045882910490036,0.0
460,5,-0.006039131432771683,0.0008993492228910327,0.006450531538575888,-0.06945914775133133,-0.003276045434176922,0.02543521299958229,0.011313031427562237,0.16686968505382538,0.022380542010068893,0.0,0.0,0.0,0.0,0.0,0.0,0.0038796160370111465,-0.05181645601987839,-0.0,0.0,0.0,0.0,0.0005983193987049162,-0.03662917762994766,3.311668479000218e-05,12414.0,16854.0,17154.0,12245.0,0.34000352025032043,0.6492182612419128,0.6737327575683594,0.33017048239707947,0.0,0.0,0.0,0.0,0.0,0.0,0.0,0.0,2.3487908840179443,-0.024615425674259256,-0.351646312155514,-0.11390696518425898,0.29313409328460693,0.0168903898447752,-0.0,0.020175155252218246,-0.025045882910490036,0.0
465,5,-0.006483033299446106,0.0008249367238022387,0.006018244661390781,-0.08105184882879257,0.007619083859026432,0.06204848736524582,0.011228933930397034,0.15978805720806122,0.022982250899076462,0.0,0.0,0.0,0.0,0.0,0.0,0.003960184752941132,-0.05191446840763092,-0.0,0.0,0.0,0.0,0.008116494864225388,-0.03358159959316254,0.004516682121902704,13952.0,15718.0,18799.0,12046.0,0.4359062910079956,0.5607090592384338,0.8159257769584656,0.3187759518623352,0.0,0.0,0.0,0.0,0.0,0.0,0.0,0.0,2.350536346435547,-0.03477407251353082,-0.3570234456737497,-0.10878234129907219,0.29390621185302734,0.017253965139389038,-0.0,0.050010498613119125,-0.0032670258078724146,0.0
470,5,-0.006483033299446106,0.0008249367238022387,0.006018244661390781,-0.08105184882879257,0.007619083859026432,0.06204848736524582,0.011228933930397034,0.15978805720806122,0.022982250899076462,0.0,0.0,0.0,0.0,0.0,0.0,0.003960184752941132,-0.05191446840763092,-0.0,0.0,0.0,0.0,0.008116494864225388,-0.03358159959316254,0.004516682121902704,13952.0,15718.0,18799.0,12046.0,0.4359062910079956,0.5607090592384338,0.8159257769584656,0.3187759518623352,0.0,0.0,0.0,0.0,0.0,0.0,0.0,0.0,2.350536346435547,-0.03477407251353082,-0.3570234456737497,-0.10878234129907219,0.29390621185302734,0.017253965139389038,-0.0,0.050010498613119125,-0.0032670258078724146,0.0
475,5,-0.0070390477776527405,0.0009425881435163319,0.006292018573731184,-0.08105184882879257,0.007619083859026432,0.06204848736524582,0.011755813844501972,0.15370506048202515,0.022577771916985512,0.0,0.0,0.0,0.0,0.0,0.0,-0.0052856807596981525,-0.05758396163582802,-0.0,0.0,0.0,0.0,-0.002119170967489481,-0.05492137745022774,0.0017175811808556318,13393.0,18527.0,19584.0,11134.0,0.39969050884246826,0.7913967370986938,0.8885020017623901,0.26920169591903687,0.0,0.0,0.0,0.0,0.0,0.0,0.0,0.0,2.450591802597046,-0.033516299951520556,-0.3463821184052558,-0.1145698418009356,0.3398429751396179,-0.02400914952158928,-0.0,0.0038796160370111465,-0.05181645601987839,0.0
480,5,-0.0070390477776527405,0.0009425881435163319,0.006292018573731184,-0.08105184882879257,0.007619083859026432,0.06204848736524582,0.011755813844501972,0.15370506048202515,0.022577771916985512,0.0,0.0,0.0,0.0,0.0,0.0,-0.0052856807596981525,-0.05758396163582802,-0.0,0.0,0.0,0.0,-0.002119170967489481,-0.05492137745022774,0.0017175811808556318,13393.0,18527.0,19584.0,11134.0,0.39969050884246826,0.7913967370986938,0.8885020017623901,0.26920169591903687,0.0,0.0,0.0,0.0,0.0,0.0,0.0,0.0,2.450591802597046,-0.033516299951520556,-0.3463821184052558,-0.1145698418009356,0.3398429751396179,-0.02400914952158928,-0.0,0.0038796160370111465,-0.05181645601987839,0.0
486,5,-0.007743363734334707,0.0009057707502506673,0.006454224232584238,-0.11693862825632095,0.007465720176696777,0.005354703404009342,0.011397679336369038,0.15361371636390686,0.022521648555994034,0.0,0.0,0.0,0.0,0.0,0.0,-0.005129062104970217,-0.05795489251613617,-0.0,0.0,0.0,0.0,-0.0008167342166416347,-0.06415347754955292,0.0018486754270270467,12422.0,19105.0,19963.0,10590.0,0.3404397666454315,0.8438560962677002,0.9246416091918945,0.24159881472587585,0.0,0.0,0.0,0.0,0.0,0.0,0.0,0.0,2.457009792327881,-0.04082013896495159,-0.3462558727250054,-0.11106428725855326,0.34292569756507874,-0.023358767852187157,-0.0,0.0038796160370111465,-0.05181645601987839,0.0
491,5,-0.007743363734334707,0.0009057707502506673,0.006454224232584238,-0.11693862825632095,0.007465720176696777,0.005354703404009342,0.011397679336369038,0.15361371636390686,0.022521648555994034,0.0,0.0,0.0,0.0,0.0,0.0,-0.005129062104970217,-0.05795489251613617,-0.0,0.0,0.0,0.0,-0.0008167342166416347,-0.06415347754955292,0.0018486754270270467,12422.0,19105.0,19963.0,10590.0,0.3404397666454315,0.8438560962677002,0.9246416091918945,0.24159881472587585,0.0,0.0,0.0,0.0,0.0,0.0,0.0,0.0,2.457009792327881,-0.04082013896495159,-0.3462558727250054,-0.11106428725855326,0.34292569756507874,-0.023358767852187157,-0.0,0.0038796160370111465,-0.05181645601987839,0.0
496,5,-0.008199510164558887,0.0008975134114734828,0.0064955516718328,-0.11693862825632095,0.007465720176696777,0.005354703404009342,0.010632879100739956,0.1583634316921234,0.022441701963543892,0.0,0.0,0.0,0.0,0.0,0.0,-0.0045377956703305244,-0.07318002730607986,-0.0,0.0,0.0,0.0,0.00015973017434589565,-0.07203658670186996,0.0025610458105802536,12470.0,19659.0,20791.0,9830.0,0.3432671129703522,0.8956292867660522,1.0062024593353271,0.2054930031299591,0.0,0.0,0.0,0.0,0.0,0.0,0.0,0.0,2.732470989227295,-0.03558750506003081,-0.348348493536992,-0.1110614195124212,0.4814019501209259,-0.02298297919332981,-0.0,0.003960184752941132,-0.05191446840763092,0.0
