timestamp,dt,pos_x,pos_y,pos_z,vel_x,vel_y,vel_z,roll,pitch,yaw,agv_x,agv_y,agv_z,x_ref,y_ref,z_ref,roll_ref,pitch_ref,yaw_ref,x_vel_ref,y_vel_ref,z_vel_ref,x_torque,y_torque,z_torque,w0,w1,w2,w3,u0,u1,u2,u3,m0req,m1req,m2req,m3req,thrust0,thrust1,thrust2,thrust3,thrust_ref,roll_vicon,pitch_vicon,yaw_vicon,acc_x,acc_y,acc_z,roll_received,pitch_received,yaw_received
5,5,0.0,0.0,0.0,9.632675937609747e-05,-0.0007856134325265884,-0.004320771899074316,0.01872745156288147,-0.3055904507637024,-0.0037002700846642256,0.0,0.0,0.0,0.0,0.0,0.0,0.0009728193399496377,9.175440936814994e-05,-0.0,0.0,0.0,0.0,-0.003747221315279603,0.09169571101665497,-0.0004179070529062301,1495.0,1495.0,1495.0,1495.0,0.0,0.0,0.0,0.0,0.0,0.0,0.0,0.0,0.0,0.0,0.0,0.0,1.6338025331497192,0.018928139432643012,0.14294973441745595,-0.016983196625726022,-0.0003612253349274397,0.0029460503719747066,0.0,-0.0,-0.0,0.0
28,23,0.0,0.0,0.0,9.632675937609747e-05,-0.0007856134325265884,-0.004320771899074316,0.01872745156288147,-0.3055904507637024,-0.0037002700846642256,0.0,0.0,0.0,0.0,0.0,0.0,0.0009728193399496377,9.175440936814994e-05,-0.0,0.0,0.0,0.0,-0.003747221315279603,0.09169571101665497,-0.0004179070529062301,1495.0,1495.0,1495.0,1495.0,0.0,0.0,0.0,0.0,0.0,0.0,0.0,0.0,0.0,0.0,0.0,0.0,1.6338025331497192,0.010974854404652745,0.14139667439231163,-0.014342348674773249,-0.0003612253349274397,0.0029460503719747066,0.0,-0.0,-0.0,0.0
33,5,0.0,0.0,0.0,9.632675937609747e-05,-0.0007856134325265884,-0.004320771899074316,0.01874566078186035,-0.30564039945602417,-0.0036837980151176453,0.0,0.0,0.0,0.0,0.0,0.0,0.0009728193399496377,9.175440936814994e-05,-0.0,0.0,0.0,0.0,-0.0035611577332019806,0.09184014797210693,-0.0003888046776410192,1495.0,1495.0,1495.0,1495.0,0.0,0.0,0.0,0.0,0.0,0.0,0.0,0.0,0.0,0.0,0.0,0.0,1.6338025331497192,0.009302733395655205,0.14040605595806643,-0.011985617662190329,-0.0003612253349274397,0.0029460503719747066,0.0,0.0009728193399496377,9.175440936814994e-05,0.0
41,8,0.0,0.0,0.0,9.632675937609747e-05,-0.0007856134325265884,-0.004320771899074316,0.01874566078186035,-0.30564039945602417,-0.0036837980151176453,0.0,0.0,0.0,0.0,0.0,0.0,0.0009728193399496377,9.175440936814994e-05,-0.0,0.0,0.0,0.0,-0.0035611577332019806,0.09184014797210693,-0.0003888046776410192,1495.0,1495.0,1495.0,1495.0,0.0,0.0,0.0,0.0,0.0,0.0,0.0,0.0,0.0,0.0,0.0,0.0,1.6338025331497192,0.009302733395655205,0.14040605595806643,-0.011985617662190329,-0.0003612253349274397,0.0029460503719747066,0.0,0.0009728193399496377,9.175440936814994e-05,0.0
49,8,0.0,0.0,0.0,0.000581851345486939,0.001396200037561357,-9.002837759908289e-05,0.01874566078186035,-0.30564039945602417,-0.0036837980151176453,0.0,0.0,0.0,0.0,0.0,0.0,-0.0017211835365742445,0.0005517578101716936,-0.0,0.0,0.0,0.0,-0.0035611577332019806,0.09184014797210693,-0.0003888046776410192,1495.0,1495.0,1495.0,1495.0,0.0,0.0,0.0,0.0,0.0,0.0,0.0,0.0,0.0,0.0,0.0,0.0,1.6411322355270386,0.009459648742504389,0.14057370442247705,-0.012048414017895854,-0.0021819425746798515,-0.00523575022816658,0.0,0.0009728193399496377,9.175440936814994e-05,0.0
57,8,0.0,0.0,0.0,0.000581851345486939,0.001396200037561357,-9.002837759908289e-05,0.01874566078186035,-0.30564039945602417,-0.0036837980151176453,0.0,0.0,0.0,0.0,0.0,0.0,-0.0017211835365742445,0.0005517578101716936,-0.0,0.0,0.0,0.0,-0.0035611577332019806,0.09184014797210693,-0.0003888046776410192,1495.0,1495.0,1495.0,1495.0,0.0,0.0,0.0,0.0,0.0,0.0,0.0,0.0,0.0,0.0,0.0,0.0,1.6411322355270386,0.009459648742504389,0.14057370442247705,-0.012048414017895854,-0.0021819425746798515,-0.00523575022816658,0.0,0.0009728193399496377,9.175440936814994e-05,0.0
62,5,0.0,0.0,0.0,0.0005757276085205376,0.0009902255842462182,-0.00021514044783543795,0.01873735897243023,-0.30561748147010803,-0.003683483460918069,0.0,0.0,0.0,0.0,0.0,0.0,-0.0017211835365742445,0.0005517578101716936,-0.0,0.0,0.0,0.0,-0.0035158423706889153,0.09154848754405975,-0.0003265265258960426,1495.0,1495.0,1495.0,1495.0,0.0,0.0,0.0,0.0,0.0,0.0,0.0,0.0,0.0,0.0,0.0,0.0,1.6411322355270386,0.009067064982109817,0.14026941872148693,-0.012117796577875204,-0.0021819425746798515,-0.00523575022816658,0.0,0.0009728193399496377,9.175440936814994e-05,0.0
67,5,0.0,0.0,0.0,0.0005757276085205376,0.0009902255842462182,-0.00021514044783543795,0.01873735897243023,-0.30561748147010803,-0.003683483460918069,0.0,0.0,0.0,0.0,0.0,0.0,-0.0017211835365742445,0.0005517578101716936,-0.0,0.0,0.0,0.0,-0.0035158423706889153,0.09154848754405975,-0.0003265265258960426,1495.0,1495.0,1495.0,1495.0,0.0,0.0,0.0,0.0,0.0,0.0,0.0,0.0,0.0,0.0,0.0,0.0,1.6411322355270386,0.009067064982109817,0.14026941872148693,-0.012117796577875204,-0.0021819425746798515,-0.00523575022816658,0.0,0.0009728193399496377,9.175440936814994e-05,0.0
72,5,-1.2217707080708351e-05,9.557829798723105e-06,-8.007000360521488e-06,0.0005757276085205376,0.0009902255842462182,-0.00021514044783543795,0.01872088387608528,-0.30559083819389343,-0.0036676370073109865,0.0,0.0,0.0,0.0,0.0,0.0,-0.001223494065925479,0.0005471942713484168,-0.0,0.0,0.0,0.0,-0.004094945266842842,0.09192873537540436,-0.0003327741869725287,19031.0,3579.0,1495.0,18834.0,0.8370599150657654,0.018711518496274948,-0.033691633492708206,0.8190524578094482,0.0,0.0,0.0,0.0,0.0,0.0,0.0,0.0,1.6374015808105469,0.008273075599800792,0.14030673774271427,-0.01182173862315211,-0.0021589784882962704,-0.003713345853611827,0.0,-0.0017211835365742445,0.0005517578101716936,0.0
77,5,-1.2217707080708351e-05,9.557829798723105e-06,-8.007000360521488e-06,0.0005757276085205376,0.0009902255842462182,-0.00021514044783543795,0.01872088387608528,-0.30559083819389343,-0.0036676370073109865,0.0,0.0,0.0,0.0,0.0,0.0,-0.001223494065925479,0.0005471942713484168,-0.0,0.0,0.0,0.0,-0.004094945266842842,0.09192873537540436,-0.0003327741869725287,19031.0,3579.0,1495.0,18834.0,0.8370599150657654,0.018711518496274948,-0.033691633492708206,0.8190524578094482,0.0,0.0,0.0,0.0,0.0,0.0,0.0,0.0,1.6374015808105469,0.008273075599800792,0.14030673774271427,-0.01182173862315211,-0.0021589784882962704,-0.003713345853611827,0.0,-0.0017211835365742445,0.0005517578101716936,0.0
82,5,-2.0555613446049392e-05,8.44791611598339e-06,-2.5451850888202898e-05,0.0005757276085205376,0.0009902255842462182,-0.00021514044783543795,0.018719691783189774,-0.30557650327682495,-0.0036988542415201664,0.0,0.0,0.0,0.0,0.0,0.0,-0.0012063207104802132,0.0005302217323333025,-0.0,0.0,0.0,0.0,-0.0041559115052223206,0.09198128432035446,-0.00041022771620191634,19040.0,3578.0,1495.0,18837.0,0.8378473520278931,0.01869521476328373,-0.034713469445705414,0.8193031549453735,0.0,0.0,0.0,0.0,0.0,0.0,0.0,0.0,1.6371870040893555,0.010030075614564767,0.14089167124593413,-0.012297949392015247,-0.0020917383953928947,-0.003660744521766901,0.0,-0.0017211835365742445,0.0005517578101716936,0.0
87,5,-2.0555613446049392e-05,8.44791611598339e-06,-2.5451850888202898e-05,0.0005757276085205376,0.0009902255842462182,-0.00021514044783543795,0.018719691783189774,-0.30557650327682495,-0.0036988542415201664,0.0,0.0,0.0,0.0,0.0,0.0,-0.0012063207104802132,0.0005302217323333025,-0.0,0.0,0.0,0.0,-0.0041559115052223206,0.09198128432035446,-0.00041022771620191634,19040.0,3578.0,1495.0,18837.0,0.8378473520278931,0.01869521476328373,-0.034713469445705414,0.8193031549453735,0.0,0.0,0.0,0.0,0.0,0.0,0.0,0.0,1.6371870040893555,0.010030075614564767,0.14089167124593413,-0.012297949392015247,-0.0020917383953928947,-0.003660744521766901,0.0,-0.0017211835365742445,0.0005517578101716936,0.0
92,5,-2.252025115012657e-05,1.0775966984510887e-05,1.2489316759456415e-05,-5.465632057166658e-06,0.00011672414984786883,-0.004638995975255966,0.01874765381217003,-0.30559682846069336,-0.003665063763037324,0.0,0.0,0.0,0.0,0.0,0.0,-0.0001253541122423485,-3.681933958432637e-05,-0.0,0.0,0.0,0.0,-0.004101621452718973,0.09203708171844482,-0.00030987264472059906,19037.0,3356.0,1495.0,18819.0,0.8375442624092102,0.015662195160984993,-0.033517397940158844,0.8177125453948975,0.0,0.0,0.0,0.0,0.0,0.0,0.0,0.0,1.6284600496292114,0.00870769473085688,0.14046502016762527,-0.01169549598113585,0.00014447908324655145,-0.00037837657146155834,0.0,-0.0017211835365742445,0.0005517578101716936,0.0
98,5,-2.252025115012657e-05,1.0775966984510887e-05,1.2489316759456415e-05,-5.465632057166658e-06,0.00011672414984786883,-0.004638995975255966,0.01874765381217003,-0.30559682846069336,-0.003665063763037324,0.0,0.0,0.0,0.0,0.0,0.0,-0.0001253541122423485,-3.681933958432637e-05,-0.0,0.0,0.0,0.0,-0.004101621452718973,0.09203708171844482,-0.00030987264472059906,19037.0,3356.0,1495.0,18819.0,0.8375442624092102,0.015662195160984993,-0.033517397940158844,0.8177125453948975,0.0,0.0,0.0,0.0,0.0,0.0,0.0,0.0,1.6284600496292114,0.00870769473085688,0.14046502016762527,-0.01169549598113585,0.00014447908324655145,-0.00037837657146155834,0.0,-0.0017211835365742445,0.0005517578101716936,0.0
103,5,-2.017528095166199e-05,-1.3462356491800165e-06,1.4084602298680693e-05,-5.465632057166658e-06,0.00011672414984786883,-0.004638995975255966,0.018757052719593048,-0.3056044280529022,-0.0036536352708935738,0.0,0.0,0.0,0.0,0.0,0.0,-0.00014744378859177232,-3.355055014253594e-05,-0.0,0.0,0.0,0.0,-0.004028528928756714,0.09209898114204407,-0.00037255685310810804,19021.0,3477.0,1495.0,18840.0,0.8361251950263977,0.017295341938734055,-0.035618845373392105,0.8195998668670654,0.0,0.0,0.0,0.0,0.0,0.0,0.0,0.0,1.6284600496292114,0.00760704226059811,0.14032465504520034,-0.011619623146928987,0.0001316523557761684,-0.00044505338883027434,0.0,-0.001223494065925479,0.0005471942713484168,0.0
108,5,8.593802704126574e-06,1.6620479073026218e-05,1.944424911926035e-05,0.0034501038026064634,-0.0021093161776661873,-0.002498755929991603,0.018757052719593048,-0.3056044280529022,-0.0036536352708935738,0.0,0.0,0.0,0.0,0.0,0.0,-0.00014744378859177232,-3.355055014253594e-05,-0.0,0.0,0.0,0.0,-0.004028528928756714,0.09209898114204407,-0.00037255685310810804,19021.0,3477.0,1495.0,18840.0,0.8361251950263977,0.017295341938734055,-0.035618845373392105,0.8195998668670654,0.0,0.0,0.0,0.0,0.0,0.0,0.0,0.0,1.6284600496292114,0.00884640159854983,0.14038511395991465,-0.01204405652151002,0.0001316523557761684,-0.00044505338883027434,0.0,-0.001223494065925479,0.0005471942713484168,0.0
113,5,8.593802704126574e-06,1.6620479073026218e-05,1.944424911926035e-05,0.0034501038026064634,-0.0021093161776661873,-0.002498755929991603,0.018757052719593048,-0.3056044280529022,-0.0036536352708935738,0.0,0.0,0.0,0.0,0.0,0.0,-0.00014744378859177232,-3.355055014253594e-05,-0.0,0.0,0.0,0.0,-0.004028528928756714,0.09209898114204407,-0.00037255685310810804,19021.0,3477.0,1495.0,18840.0,0.8361251950263977,0.017295341938734055,-0.035618845373392105,0.8195998668670654,0.0,0.0,0.0,0.0,0.0,0.0,0.0,0.0,1.6284600496292114,0.00884640159854983,0.14038511395991465,-0.01204405652151002,0.0001316523557761684,-0.00044505338883027434,0.0,-0.001223494065925479,0.0005471942713484168,0.0
118,5,8.593802704126574e-06,1.6620479073026218e-05,1.944424911926035e-05,0.0034501038026064634,-0.0021093161776661873,-0.002498755929991603,0.018743960186839104,-0.3055958151817322,-0.0036687077954411507,0.0,0.0,0.0,0.0,0.0,0.0,0.002589566633105278,0.0032326364889740944,-0.0,0.0,0.0,0.0,-0.003988068550825119,0.09216830134391785,-0.0004236581444274634,19009.0,3518.0,1495.0,18864.0,0.8349663019180298,0.01785244047641754,-0.037435904145240784,0.8218041658401489,0.0,0.0,0.0,0.0,0.0,0.0,0.0,0.0,1.6669983863830566,0.00884640159854983,0.14038511395991465,-0.01204405652151002,-0.012984992936253548,0.008001472800970078,0.0,-0.0012063207104802132,0.0005302217323333025,0.0
123,5,-3.7839427022845484e-06,1.86698014204012e-06,9.143112038145773e-06,0.0034501038026064634,-0.0021093161776661873,-0.002498755929991603,0.018743960186839104,-0.3055958151817322,-0.0036687077954411507,0.0,0.0,0.0,0.0,0.0,0.0,0.002589566633105278,0.0032326364889740944,-0.0,0.0,0.0,0.0,-0.003988068550825119,0.09216830134391785,-0.0004236581444274634,19009.0,3518.0,1495.0,18864.0,0.8349663019180298,0.01785244047641754,-0.037435904145240784,0.8218041658401489,0.0,0.0,0.0,0.0,0.0,0.0,0.0,0.0,1.6669983863830566,0.009145819912524559,0.14014927564070995,-0.011911241674107322,-0.012984992936253548,0.008001472800970078,0.0,-0.0012063207104802132,0.0005302217323333025,0.0
128,5,-5.655039785779081e-06,1.1525125046318863e-05,-1.2841524039686192e-05,0.0011555098462849855,-0.002002703957259655,0.0016386539209634066,0.01874421164393425,-0.30559173226356506,-0.0036671983543783426,0.0,0.0,0.0,0.0,0.0,0.0,0.0025637235958129168,0.003216206794604659,-0.0,0.0,0.0,0.0,-0.003760612104088068,0.0916866883635521,-0.00035565465805120766,18969.0,3324.0,1495.0,18807.0,0.8313211798667908,0.015254057012498379,-0.03475259616971016,0.8166374564170837,0.0,0.0,0.0,0.0,0.0,0.0,0.0,0.0,1.6667277812957764,0.01060509941299934,0.1405428349389814,-0.012349622581656268,-0.01291690208017826,0.007920335046947002,0.0,-0.0001253541122423485,-3.681933958432637e-05,0.0
133,5,-5.655039785779081e-06,1.1525125046318863e-05,-1.2841524039686192e-05,0.0011555098462849855,-0.002002703957259655,0.0016386539209634066,0.01874421164393425,-0.30559173226356506,-0.0036671983543783426,0.0,0.0,0.0,0.0,0.0,0.0,0.0025637235958129168,0.003216206794604659,-0.0,0.0,0.0,0.0,-0.003760612104088068,0.0916866883635521,-0.00035565465805120766,18969.0,3324.0,1495.0,18807.0,0.8313211798667908,0.015254057012498379,-0.03475259616971016,0.8166374564170837,0.0,0.0,0.0,0.0,0.0,0.0,0.0,0.0,1.6667277812957764,0.01060509941299934,0.1405428349389814,-0.012349622581656268,-0.01291690208017826,0.007920335046947002,0.0,-0.0001253541122423485,-3.681933958432637e-05,0.0
139,5,-1.3418243725027423e-05,2.3833448722143658e-05,1.9506535409163916e-06,-0.00046938052400946617,-0.0022780802100896835,-0.00111959979403764,0.018733464181423187,-0.30562692880630493,-0.003650939092040062,0.0,0.0,0.0,0.0,0.0,0.0,0.0024773473851382732,0.0010824124328792095,-0.0,0.0,0.0,0.0,-0.003804821288213134,0.09175903350114822,-0.00031530551495961845,18979.0,3285.0,1495.0,18804.0,0.8322784304618835,0.014755789190530777,-0.03491939231753349,0.81634521484375,0.0,0.0,0.0,0.0,0.0,0.0,0.0,0.0,1.6493523120880127,0.011130861581085923,0.14104278364543754,-0.012871914676896516,-0.004301864188164473,0.007573699578642845,0.0,-0.00014744378859177232,-3.355055014253594e-05,0.0
144,5,-1.3418243725027423e-05,2.3833448722143658e-05,1.9506535409163916e-06,-0.00046938052400946617,-0.0022780802100896835,-0.00111959979403764,0.018733464181423187,-0.30562692880630493,-0.003650939092040062,0.0,0.0,0.0,0.0,0.0,0.0,0.0024773473851382732,0.0010824124328792095,-0.0,0.0,0.0,0.0,-0.003804821288213134,0.09175903350114822,-0.00031530551495961845,18979.0,3285.0,1495.0,18804.0,0.8322784304618835,0.014755789190530777,-0.03491939231753349,0.81634521484375,0.0,0.0,0.0,0.0,0.0,0.0,0.0,0.0,1.6493523120880127,0.011130861581085923,0.14104278364543754,-0.012871914676896516,-0.004301864188164473,0.007573699578642845,0.0,-0.00014744378859177232,-3.355055014253594e-05,0.0
149,5,-1.3418243725027423e-05,2.3833448722143658e-05,1.9506535409163916e-06,-0.00046938052400946617,-0.0022780802100896835,-0.00111959979403764,0.018706031143665314,-0.3056388199329376,-0.0036688516847789288,0.0,0.0,0.0,0.0,0.0,0.0,0.0028365764301270247,-0.00046139906044118106,-0.0,0.0,0.0,0.0,-0.0032080267556011677,0.09268632531166077,-0.00046125880908221006,19063.0,3756.0,1495.0,19019.0,0.8399189114570618,0.02130255103111267,-0.03013571724295616,0.8359126448631287,0.0,0.0,0.0,0.0,0.0,0.0,0.0,0.0,1.6497739553451538,0.011130861581085923,0.14104278364543754,-0.012871914676896516,0.0018342194380238652,0.008674140088260174,0.0,0.002589566633105278,0.0032326364889740944,0.0
154,5,-1.607058038644027e-05,4.0239974623546004e-05,2.806318116199691e-05,-0.00046938052400946617,-0.0022780802100896835,-0.00111959979403764,0.018706031143665314,-0.3056388199329376,-0.0036688516847789288,0.0,0.0,0.0,0.0,0.0,0.0,0.0028365764301270247,-0.00046139906044118106,-0.0,0.0,0.0,0.0,-0.0032080267556011677,0.09268632531166077,-0.00046125880908221006,19063.0,3756.0,1495.0,19019.0,0.8399189114570618,0.02130255103111267,-0.03013571724295616,0.8359126448631287,0.0,0.0,0.0,0.0,0.0,0.0,0.0,0.0,1.6497739553451538,0.009887570727735792,0.14067351470429643,-0.01249425737634697,0.0018342194380238652,0.008674140088260174,0.0,0.002589566633105278,0.0032326364889740944,0.0
159,5,-2.2073409127187915e-05,4.7396064474014565e-05,1.2072852769051678e-05,-0.0009080915478989482,-0.0017699629534035921,0.0014709995593875647,0.0186987966299057,-0.30560868978500366,-0.003679706249386072,0.0,0.0,0.0,0.0,0.0,0.0,0.0028657016810029745,-0.0004650131450034678,-0.0,0.0,0.0,0.0,-0.003237291472032666,0.09270747750997543,-0.0003176339087076485,19123.0,3359.0,1495.0,18966.0,0.8454651832580566,0.015711689367890358,-0.025538327172398567,0.831089198589325,0.0,0.0,0.0,0.0,0.0,0.0,0.0,0.0,1.6500211954116821,0.011398368229380278,0.14141532463243606,-0.013041018351455155,0.001848863554187119,0.008764516562223434,0.0,0.0025637235958129168,0.003216206794604659,0.0
164,5,-2.2073409127187915e-05,4.7396064474014565e-05,1.2072852769051678e-05,-0.0009080915478989482,-0.0017699629534035921,0.0014709995593875647,0.0186987966299057,-0.30560868978500366,-0.003679706249386072,0.0,0.0,0.0,0.0,0.0,0.0,0.0028657016810029745,-0.0004650131450034678,-0.0,0.0,0.0,0.0,-0.003237291472032666,0.09270747750997543,-0.0003176339087076485,19123.0,3359.0,1495.0,18966.0,0.8454651832580566,0.015711689367890358,-0.025538327172398567,0.831089198589325,0.0,0.0,0.0,0.0,0.0,0.0,0.0,0.0,1.6500211954116821,0.011398368229380278,0.14141532463243606,-0.013041018351455155,0.001848863554187119,0.008764516562223434,0.0,0.0025637235958129168,0.003216206794604659,0.0
169,5,-2.2073409127187915e-05,4.7396064474014565e-05,1.2072852769051678e-05,-0.0009080915478989482,-0.0017699629534035921,0.0014709995593875647,0.01869603432714939,-0.30564430356025696,-0.003695187158882618,0.0,0.0,0.0,0.0,0.0,0.0,0.002260087989270687,-0.0008888777229003608,-0.0,0.0,0.0,0.0,-0.003215688280761242,0.09222324937582016,-0.0004894737503491342,18984.0,3643.0,1495.0,18956.0,0.8326825499534607,0.019626706838607788,-0.03313130885362625,0.8301743865013123,0.0,0.0,0.0,0.0,0.0,0.0,0.0,0.0,1.646750569343567,0.011398368229380278,0.14141532463243606,-0.013041018351455155,0.0035271227825433016,0.006898601073771715,-0.0,0.0024773473851382732,0.0010824124328792095,0.0
174,5,-2.2073409127187915e-05,4.7396064474014565e-05,1.2072852769051678e-05,-0.0009080915478989482,-0.0017699629534035921,0.0014709995593875647,0.01869603432714939,-0.30564430356025696,-0.003695187158882618,0.0,0.0,0.0,0.0,0.0,0.0,0.002260087989270687,-0.0008888777229003608,-0.0,0.0,0.0,0.0,-0.003215688280761242,0.09222324937582016,-0.0004894737503491342,18984.0,3643.0,1495.0,18956.0,0.8326825499534607,0.019626706838607788,-0.03313130885362625,0.8301743865013123,0.0,0.0,0.0,0.0,0.0,0.0,0.0,0.0,1.646750569343567,0.011398368229380278,0.14141532463243606,-0.013041018351455155,0.0035271227825433016,0.006898601073771715,-0.0,0.0024773473851382732,0.0010824124328792095,0.0
179,5,1.496740765105642e-06,9.284613042837009e-06,-1.7916843717102893e-05,0.004075190518051386,0.006445828825235367,0.008722454309463501,0.01871679164469242,-0.30556797981262207,-0.003721012733876705,0.0,0.0,0.0,0.0,0.0,0.0,0.0022601415403187275,-0.0008888968732208014,-0.0,0.0,0.0,0.0,-0.0032677375711500645,0.09156970679759979,-0.00033666795934550464,18970.0,3778.0,1495.0,18913.0,0.8314566612243652,0.021638944745063782,-0.02956065535545349,0.8262389898300171,0.0,0.0,0.0,0.0,0.0,0.0,0.0,0.0,1.646751046180725,0.008856750847442361,0.14013892671040565,-0.012006810564285314,0.003527199849486351,0.006898766849189997,-0.0,0.0028365764301270247,-0.00046139906044118106,0.0
184,5,1.496740765105642e-06,9.284613042837009e-06,-1.7916843717102893e-05,0.004075190518051386,0.006445828825235367,0.008722454309463501,0.01871679164469242,-0.30556797981262207,-0.003721012733876705,0.0,0.0,0.0,0.0,0.0,0.0,0.0022601415403187275,-0.0008888968732208014,-0.0,0.0,0.0,0.0,-0.0032677375711500645,0.09156970679759979,-0.00033666795934550464,18970.0,3778.0,1495.0,18913.0,0.8314566612243652,0.021638944745063782,-0.02956065535545349,0.8262389898300171,0.0,0.0,0.0,0.0,0.0,0.0,0.0,0.0,1.646751046180725,0.008856750847442361,0.14013892671040565,-0.012006810564285314,0.003527199849486351,0.006898766849189997,-0.0,0.0028365764301270247,-0.00046139906044118106,0.0
189,5,9.464473805564921e-06,1.6059067320384202e-06,-3.869015199597925e-05,0.004075190518051386,0.006445828825235367,0.008722454309463501,0.01865871250629425,-0.30555522441864014,-0.0036884124856442213,0.0,0.0,0.0,0.0,0.0,0.0,-0.007642657961696386,0.003726743860170245,-0.0,0.0,0.0,0.0,-0.0031927209347486496,0.09172367304563522,0.0003392342186998576,19175.0,2030.0,1495.0,18719.0,0.8503167629241943,0.0027278526686131954,-0.01167028397321701,0.8086468577384949,0.0,0.0,0.0,0.0,0.0,0.0,0.0,0.0,1.7026783227920532,0.009206695328011074,0.14007906236961232,-0.012005172186503642,-0.015289749018847942,-0.024120032787322998,0.0,0.0028657016810029745,-0.0004650131450034678,0.0
194,5,9.464473805564921e-06,1.6059067320384202e-06,-3.869015199597925e-05,0.004075190518051386,0.006445828825235367,0.008722454309463501,0.01865871250629425,-0.30555522441864014,-0.0036884124856442213,0.0,0.0,0.0,0.0,0.0,0.0,-0.007642657961696386,0.003726743860170245,-0.0,0.0,0.0,0.0,-0.0031927209347486496,0.09172367304563522,0.0003392342186998576,19175.0,2030.0,1495.0,18719.0,0.8503167629241943,0.0027278526686131954,-0.01167028397321701,0.8086468577384949,0.0,0.0,0.0,0.0,0.0,0.0,0.0,0.0,1.7026783227920532,0.009206695328011074,0.14007906236961232,-0.012005172186503642,-0.015289749018847942,-0.024120032787322998,0.0,0.0028657016810029745,-0.0004650131450034678,0.0
199,5,5.6382646107522305e-06,6.822992145316675e-05,-2.4210428819060326e-05,0.004075190518051386,0.006445828825235367,0.008722454309463501,0.018600398674607277,-0.30556729435920715,-0.0036781225353479385,0.0,0.0,0.0,0.0,0.0,0.0,-0.00765532860532403,0.0037370871286839247,-0.0,0.0,0.0,0.0,-0.003187034744769335,0.09191695600748062,-6.086874782340601e-05,19202.0,1495.0,1495.0,18680.0,0.8528122305870056,-0.0024961940944194794,-0.008725550025701523,0.8051600456237793,0.0,0.0,0.0,0.0,0.0,0.0,0.0,0.0,1.702836275100708,0.008645802308496731,0.13884318326173717,-0.013423201241487524,-0.015333604998886585,-0.024162260815501213,0.0,0.0022601415403187275,-0.0008888968732208014,0.0
204,5,5.6382646107522305e-06,6.822992145316675e-05,-2.4210428819060326e-05,0.004075190518051386,0.006445828825235367,0.008722454309463501,0.018600398674607277,-0.30556729435920715,-0.0036781225353479385,0.0,0.0,0.0,0.0,0.0,0.0,-0.00765532860532403,0.0037370871286839247,-0.0,0.0,0.0,0.0,-0.003187034744769335,0.09191695600748062,-6.086874782340601e-05,19202.0,1495.0,1495.0,18680.0,0.8528122305870056,-0.0024961940944194794,-0.008725550025701523,0.8051600456237793,0.0,0.0,0.0,0.0,0.0,0.0,0.0,0.0,1.702836275100708,0.008645802308496731,0.13884318326173717,-0.013423201241487524,-0.015333604998886585,-0.024162260815501213,0.0,0.0022601415403187275,-0.0008888968732208014,0.0
209,5,4.046126559842378e-05,-1.713724668661598e-05,-0.00010870747064473107,0.005808836314827204,0.012822391465306282,0.013628626242280006,0.018570559099316597,-0.30559054017066956,-0.0037609327118843794,0.0,0.0,0.0,0.0,0.0,0.0,-0.007542941719293594,0.0037338356487452984,-0.0,0.0,0.0,0.0,-0.005313254427164793,0.09340570867061615,-1.0006307093135547e-05,19092.0,2654.0,1495.0,18800.0,0.8426069617271423,0.00772145576775074,-0.019579647108912468,0.8160023093223572,0.0,0.0,0.0,0.0,0.0,0.0,0.0,0.0,1.7019808292388916,0.0016747320802738795,0.1403210863112916,-0.010847335468419851,-0.01531258039176464,-0.023795589804649353,0.0,-0.00765532860532403,0.0037370871286839247,0.0
214,5,4.046126559842378e-05,-1.713724668661598e-05,-0.00010870747064473107,0.005808836314827204,0.012822391465306282,0.013628626242280006,0.018570559099316597,-0.30559054017066956,-0.0037609327118843794,0.0,0.0,0.0,0.0,0.0,0.0,-0.007542941719293594,0.0037338356487452984,-0.0,0.0,0.0,0.0,-0.005313254427164793,0.09340570867061615,-1.0006307093135547e-05,19092.0,2654.0,1495.0,18800.0,0.8426069617271423,0.00772145576775074,-0.019579647108912468,0.8160023093223572,0.0,0.0,0.0,0.0,0.0,0.0,0.0,0.0,1.7019808292388916,0.0016747320802738795,0.1403210863112916,-0.010847335468419851,-0.01531258039176464,-0.023795589804649353,0.0,-0.00765532860532403,0.0037370871286839247,0.0
220,5,7.183716661529616e-05,-1.621260162210092e-05,-5.795227480120957e-05,0.006088642403483391,0.005017999093979597,-0.0006391724455170333,0.01857389509677887,-0.30557718873023987,-0.0035552557092159986,0.0,0.0,0.0,0.0,0.0,0.0,-0.014707435853779316,0.005167749710381031,-0.0,0.0,0.0,0.0,-0.004409509710967541,0.09231621772050858,0.00132888148073107,19297.0,4616.0,1495.0,19058.0,0.8615700602531433,0.036141812801361084,-0.03437649831175804,0.8395008444786072,0.0,0.0,0.0,0.0,0.0,0.0,0.0,0.0,1.7673606872558594,0.007831224515430583,0.14196256819256672,-0.012863486318520469,-0.022005420178174973,-0.04817727953195572,0.0,-0.00765532860532403,0.0037370871286839247,0.0
225,5,7.183716661529616e-05,-1.621260162210092e-05,-5.795227480120957e-05,0.006088642403483391,0.005017999093979597,-0.0006391724455170333,0.01857389509677887,-0.30557718873023987,-0.0035552557092159986,0.0,0.0,0.0,0.0,0.0,0.0,-0.014707435853779316,0.005167749710381031,-0.0,0.0,0.0,0.0,-0.004409509710967541,0.09231621772050858,0.00132888148073107,19297.0,4616.0,1495.0,19058.0,0.8615700602531433,0.036141812801361084,-0.03437649831175804,0.8395008444786072,0.0,0.0,0.0,0.0,0.0,0.0,0.0,0.0,1.7673606872558594,0.007831224515430583,0.14196256819256672,-0.012863486318520469,-0.022005420178174973,-0.04817727953195572,0.0,-0.00765532860532403,0.0037370871286839247,0.0
230,5,5.60881344426889e-05,-1.362923467240762e-05,-6.251732702367008e-05,0.006088642403483391,0.005017999093979597,-0.0006391724455170333,0.018281210213899612,-0.3054273724555969,-0.0033558073919266462,0.0,0.0,0.0,0.0,0.0,0.0,-0.005977430380880833,0.005649170838296413,-0.0,0.0,0.0,0.0,-0.006432052701711655,0.09125152230262756,-0.00011632328823907301,19694.0,4808.0,3507.0,18743.0,0.8989074230194092,0.03995945304632187,0.01770699955523014,0.810786783695221,0.0,0.0,0.0,0.0,0.0,0.0,0.0,0.0,1.7063815593719482,0.008690247813606779,0.14033601731758638,-0.012385608584202588,-0.02322751097381115,-0.018905777484178543,0.0,-0.014707435853779316,0.005167749710381031,0.0
235,5,5.60881344426889e-05,-1.362923467240762e-05,-6.251732702367008e-05,0.006088642403483391,0.005017999093979597,-0.0006391724455170333,0.018281210213899612,-0.3054273724555969,-0.0033558073919266462,0.0,0.0,0.0,0.0,0.0,0.0,-0.005977430380880833,0.005649170838296413,-0.0,0.0,0.0,0.0,-0.006432052701711655,0.09125152230262756,-0.00011632328823907301,19694.0,4808.0,3507.0,18743.0,0.8989074230194092,0.03995945304632187,0.01770699955523014,0.810786783695221,0.0,0.0,0.0,0.0,0.0,0.0,0.0,0.0,1.7063815593719482,0.008690247813606779,0.14033601731758638,-0.012385608584202588,-0.02322751097381115,-0.018905777484178543,0.0,-0.014707435853779316,0.005167749710381031,0.0
240,5,4.004041329608299e-05,5.940210030530579e-06,-3.88379203286604e-06,0.0005097307148389518,-0.0003411336801946163,-0.007291692774742842,0.018371833488345146,-0.30425551533699036,-0.003314427100121975,0.0,0.0,0.0,0.0,0.0,0.0,-0.0059736622497439384,0.005628819111734629,-0.0,0.0,0.0,0.0,-0.004417826887220144,0.0859113559126854,-0.00023290130775421858,18737.0,6463.0,1495.0,18809.0,0.810321569442749,0.08054431527853012,-0.0012735147029161453,0.8167892098426819,0.0,0.0,0.0,0.0,0.0,0.0,0.0,0.0,1.7061790227890015,0.008373130496062982,0.136736621907114,-0.012120073842935567,-0.02314108796417713,-0.01889161765575409,0.0,-0.005977430380880833,0.005649170838296413,0.0
245,5,4.004041329608299e-05,5.940210030530579e-06,-3.88379203286604e-06,0.0005097307148389518,-0.0003411336801946163,-0.007291692774742842,0.018371833488345146,-0.30425551533699036,-0.003314427100121975,0.0,0.0,0.0,0.0,0.0,0.0,-0.0059736622497439384,0.005628819111734629,-0.0,0.0,0.0,0.0,-0.004417826887220144,0.0859113559126854,-0.00023290130775421858,18737.0,6463.0,1495.0,18809.0,0.810321569442749,0.08054431527853012,-0.0012735147029161453,0.8167892098426819,0.0,0.0,0.0,0.0,0.0,0.0,0.0,0.0,1.7061790227890015,0.008373130496062982,0.136736621907114,-0.012120073842935567,-0.02314108796417713,-0.01889161765575409,0.0,-0.005977430380880833,0.005649170838296413,0.0
250,5,1.0534333341638558e-05,3.5284490877529606e-05,0.0002530381316319108,0.0005097307148389518,-0.0003411336801946163,-0.007291692774742842,0.018248425796628,-0.30219659209251404,-0.002766001271083951,0.0,0.0,0.0,0.0,0.0,0.0,0.00043383039883337915,0.0005419765366241336,-0.0,0.0,0.0,0.0,-0.004658808000385761,0.07295902073383331,0.0020555867813527584,18856.0,6158.0,8369.0,17094.0,0.8210546970367432,0.07203980535268784,0.144282728433609,0.6688017845153809,0.0,0.0,0.0,0.0,0.0,0.0,0.0,0.0,1.6325424909591675,0.014052437607244731,0.129912009274379,-0.013853611184047182,-0.002132047200575471,0.001312783220782876,0.0,-0.0059736622497439384,0.005628819111734629,0.0
255,5,1.0534333341638558e-05,3.5284490877529606e-05,0.0002530381316319108,0.0005097307148389518,-0.0003411336801946163,-0.007291692774742842,0.018248425796628,-0.30219659209251404,-0.002766001271083951,0.0,0.0,0.0,0.0,0.0,0.0,0.00043383039883337915,0.0005419765366241336,-0.0,0.0,0.0,0.0,-0.004658808000385761,0.07295902073383331,0.0020555867813527584,18856.0,6158.0,8369.0,17094.0,0.8210546970367432,0.07203980535268784,0.144282728433609,0.6688017845153809,0.0,0.0,0.0,0.0,0.0,0.0,0.0,0.0,1.6325424909591675,0.014052437607244731,0.129912009274379,-0.013853611184047182,-0.002132047200575471,0.001312783220782876,0.0,-0.0059736622497439384,0.005628819111734629,0.0
260,5,-9.329688327852637e-05,7.38498565624468e-05,0.0004698996199294925,-0.012255853973329067,-0.004764297045767307,-0.028940055519342422,0.01794925145804882,-0.29359447956085205,-0.002530736615881324,0.0,0.0,0.0,0.0,0.0,0.0,0.0004872414574492723,0.0005007687723264098,-0.0,0.0,0.0,0.0,-0.002407373394817114,0.04571617767214775,0.0005172131932340562,16675.0,9771.0,10159.0,15895.0,0.6349012851715088,0.20281189680099487,0.2207452356815338,0.5740840435028076,0.0,0.0,0.0,0.0,0.0,0.0,0.0,0.0,1.6324248313903809,0.01718657173836727,0.11064682700993152,-0.01296995790054381,-0.001969800563529134,0.0014743002830073237,0.0,0.00043383039883337915,0.0005419765366241336,0.0
265,5,-9.329688327852637e-05,7.38498565624468e-05,0.0004698996199294925,-0.012255853973329067,-0.004764297045767307,-0.028940055519342422,0.01794925145804882,-0.29359447956085205,-0.002530736615881324,0.0,0.0,0.0,0.0,0.0,0.0,0.0004872414574492723,0.0005007687723264098,-0.0,0.0,0.0,0.0,-0.002407373394817114,0.04571617767214775,0.0005172131932340562,16675.0,9771.0,10159.0,15895.0,0.6349012851715088,0.20281189680099487,0.2207452356815338,0.5740840435028076,0.0,0.0,0.0,0.0,0.0,0.0,0.0,0.0,1.6324248313903809,0.01718657173836727,0.11064682700993152,-0.01296995790054381,-0.001969800563529134,0.0014743002830073237,0.0,0.00043383039883337915,0.0005419765366241336,0.0
270,5,-0.00026889648870564997,0.00011033127520931885,0.001166905858553946,-0.012255853973329067,-0.004764297045767307,-0.028940055519342422,0.017369788140058517,-0.2808818817138672,-0.0024633342400193214,0.0,0.0,0.0,0.0,0.0,0.0,0.00560364592820406,-0.01096257846802473,-0.0,0.0,0.0,0.0,-0.004492665641009808,0.012285144068300724,0.001263030688278377,14507.0,13049.0,13221.0,13273.0,0.47343552112579346,0.37816911935806274,0.3888508081436157,0.39208704233169556,0.0,0.0,0.0,0.0,0.0,0.0,0.0,0.0,1.759330153465271,0.030745239552796337,0.08468877366107018,-0.016843688115734938,0.046472541987895966,0.018273530527949333,0.0,0.00043383039883337915,0.0005419765366241336,0.0
275,5,-0.00026889648870564997,0.00011033127520931885,0.001166905858553946,-0.012255853973329067,-0.004764297045767307,-0.028940055519342422,0.017369788140058517,-0.2808818817138672,-0.0024633342400193214,0.0,0.0,0.0,0.0,0.0,0.0,0.00560364592820406,-0.01096257846802473,-0.0,0.0,0.0,0.0,-0.004492665641009808,0.012285144068300724,0.001263030688278377,14507.0,13049.0,13221.0,13273.0,0.47343552112579346,0.37816911935806274,0.3888508081436157,0.39208704233169556,0.0,0.0,0.0,0.0,0.0,0.0,0.0,0.0,1.759330153465271,0.030745239552796337,0.08468877366107018,-0.016843688115734938,0.046472541987895966,0.018273530527949333,0.0,0.00043383039883337915,0.0005419765366241336,0.0
281,5,-0.0004395817522890866,9.130221587838605e-05,0.001881155651062727,-0.025384571403265,0.0003777686506509781,-0.09728600084781647,0.01743275858461857,-0.24647919833660126,-0.0022287964820861816,0.0,0.0,0.0,0.0,0.0,0.0,0.005657057743519545,-0.011174367740750313,-0.0,0.0,0.0,0.0,-0.003387212986126542,-0.03339984640479088,0.0037971138954162598,13108.0,15270.0,17207.0,9058.0,0.38179874420166016,0.5275881290435791,0.6781130433082581,0.1718301773071289,0.0,0.0,0.0,0.0,0.0,0.0,0.0,0.0,1.7618918418884277,0.03834280497780609,0.04027093503983227,-0.0173428560988981,0.04743928089737892,0.01847456395626068,0.0,0.00560364592820406,-0.01096257846802473,0.0
286,5,-0.0004395817522890866,9.130221587838605e-05,0.001881155651062727,-0.025384571403265,0.0003777686506509781,-0.09728600084781647,0.01743275858461857,-0.24647919833660126,-0.0022287964820861816,0.0,0.0,0.0,0.0,0.0,0.0,0.005657057743519545,-0.011174367740750313,-0.0,0.0,0.0,0.0,-0.003387212986126542,-0.03339984640479088,0.0037971138954162598,13108.0,15270.0,17207.0,9058.0,0.38179874420166016,0.5275881290435791,0.6781130433082581,0.1718301773071289,0.0,0.0,0.0,0.0,0.0,0.0,0.0,0.0,1.7618918418884277,0.03834280497780609,0.04027093503983227,-0.0173428560988981,0.04743928089737892,0.01847456395626068,0.0,0.00560364592820406,-0.01096257846802473,0.0
291,5,-0.000696827657520771,0.00014944314898457378,0.003048165701329708,-0.025384571403265,0.0003777686506509781,-0.09728600084781647,0.017422359436750412,-0.1464294046163559,-0.0014467824948951602,0.0,0.0,0.0,0.0,0.0,0.0,-0.00026146945310756564,-0.02151653543114662,-0.0,0.0,0.0,0.0,-0.00508096581324935,-0.06881064176559448,0.0036014383658766747,9881.0,17691.0,19377.0,1495.0,0.20785823464393616,0.718605637550354,0.8690885305404663,-0.03366062790155411,0.0,0.0,0.0,0.0,0.0,0.0,0.0,0.0,1.8828413486480713,0.03574833946473196,-0.023828867393372966,-0.012414933223407932,0.09761227667331696,-0.0009125217329710722,0.0,0.005657057743519545,-0.011174367740750313,0.0
296,5,-0.000696827657520771,0.00014944314898457378,0.003048165701329708,-0.025384571403265,0.0003777686506509781,-0.09728600084781647,0.017422359436750412,-0.1464294046163559,-0.0014467824948951602,0.0,0.0,0.0,0.0,0.0,0.0,-0.00026146945310756564,-0.02151653543114662,-0.0,0.0,0.0,0.0,-0.00508096581324935,-0.06881064176559448,0.0036014383658766747,9881.0,17691.0,19377.0,1495.0,0.20785823464393616,0.718605637550354,0.8690885305404663,-0.03366062790155411,0.0,0.0,0.0,0.0,0.0,0.0,0.0,0.0,1.8828413486480713,0.03574833946473196,-0.023828867393372966,-0.012414933223407932,0.09761227667331696,-0.0009125217329710722,0.0,0.005657057743519545,-0.011174367740750313,0.0
301,5,-0.0011035066563636065,0.00011755611194530502,0.004197206348180771,-0.025384571403265,0.0003777686506509781,-0.09728600084781647,0.017422359436750412,-0.1464294046163559,-0.0014467824948951602,0.0,0.0,0.0,0.0,0.0,0.0,-0.0001693685189820826,-0.02178727649152279,-0.0,0.0,0.0,0.0,-0.00508096581324935,-0.06881064176559448,0.0036014383658766747,9881.0,17691.0,19377.0,1495.0,0.20785823464393616,0.718605637550354,0.8690885305404663,-0.03366062790155411,0.0,0.0,0.0,0.0,0.0,0.0,0.0,0.0,1.886446237564087,0.024845177057139407,-0.08847771833445418,-0.010021891389802211,0.09902957081794739,-0.0005922235432080925,0.0,0.005657057743519545,-0.011174367740750313,0.0
306,5,-0.0011035066563636065,0.00011755611194530502,0.004197206348180771,-0.025384571403265,0.0003777686506509781,-0.09728600084781647,0.01690732128918171,-0.09476456791162491,-0.0010262408759444952,0.0,0.0,0.0,0.0,0.0,0.0,-0.0001693685189820826,-0.02178727649152279,-0.0,0.0,0.0,0.0,-0.004453695844858885,-0.11093207448720932,0.0034323299769312143,5974.0,19837.0,21183.0,1495.0,0.06710889935493469,0.9126170873641968,1.0459657907485962,-0.14285041391849518,0.0,0.0,0.0,0.0,0.0,0.0,0.0,0.0,1.886446237564087,0.024845177057139407,-0.08847771833445418,-0.010021891389802211,0.09902957081794739,-0.0005922235432080925,0.0,-0.00026146945310756564,-0.02151653543114662,0.0
311,5,-0.0018482757732272148,0.00019439139578025788,0.005692037288099527,-0.025384571403265,0.0003777686506509781,-0.09728600084781647,0.01690732128918171,-0.09476456791162491,-0.0010262408759444952,0.0,0.0,0.0,0.0,0.0,0.0,-0.00021874548110645264,-0.022213120013475418,-0.0,0.0,0.0,0.0,-0.004453695844858885,-0.11093207448720932,0.0034323299769312143,5974.0,19837.0,21183.0,1495.0,0.06710889935493469,0.9126170873641968,1.0459657907485962,-0.14285041391849518,0.0,0.0,0.0,0.0,0.0,0.0,0.0,0.0,1.89215087890625,0.023680608090656065,-0.1525208277795066,-0.006503412618219556,0.1012701615691185,-0.0007671908242627978,0.0,-0.00026146945310756564,-0.02151653543114662,0.0
316,5,-0.0018482757732272148,0.00019439139578025788,0.005692037288099527,-0.025384571403265,0.0003777686506509781,-0.09728600084781647,0.016498640179634094,-0.01291524339467287,-3.979149187216535e-05,0.0,0.0,0.0,0.0,0.0,0.0,-0.00021874548110645264,-0.022213120013475418,-0.0,0.0,0.0,0.0,-0.006872914731502533,-0.13020552694797516,0.005246660206466913,1539.0,20738.0,22652.0,1495.0,0.00016932189464569092,1.0009347200393677,1.2020186185836792,-0.31667643785476685,0.0,0.0,0.0,0.0,0.0,0.0,0.0,0.0,1.89215087890625,0.023680608090656065,-0.1525208277795066,-0.006503412618219556,0.1012701615691185,-0.0007671908242627978,0.0,-0.00026146945310756564,-0.02151653543114662,0.0
321,5,-0.0026611946523189545,0.0003509635862428695,0.00656883604824543,-0.025384571403265,0.0003777686506509781,-0.09728600084781647,0.016498640179634094,-0.01291524339467287,-3.979149187216535e-05,0.0,0.0,0.0,0.0,0.0,0.0,-9.752261394169182e-05,-0.022986674681305885,-0.0,0.0,0.0,0.0,-0.006872914731502533,-0.13020552694797516,0.005246660206466913,1539.0,20738.0,22652.0,1495.0,0.00016932189464569092,1.0009347200393677,1.2020186185836792,-0.31667643785476685,0.0,0.0,0.0,0.0,0.0,0.0,0.0,0.0,1.9025627374649048,0.01249166954436692,-0.23039753871469748,-0.015399050527825149,0.10537286102771759,-0.000343916384736076,0.0,-0.00026146945310756564,-0.02151653543114662,0.0
326,5,-0.0026611946523189545,0.0003509635862428695,0.00656883604824543,-0.025384571403265,0.0003777686506509781,-0.09728600084781647,0.016229059547185898,0.04103073477745056,0.0007574548944830894,0.0,0.0,0.0,0.0,0.0,0.0,-9.752261394169182e-05,-0.022986674681305885,-0.0,0.0,0.0,0.0,-0.006910083349794149,-0.1498682200908661,0.005432248581200838,1495.0,21096.0,23167.0,1495.0,-0.030501574277877808,1.0370562076568604,1.2592211961746216,-0.3793295919895172,0.0,0.0,0.0,0.0,0.0,0.0,0.0,0.0,1.9025627374649048,0.01249166954436692,-0.23039753871469748,-0.015399050527825149,0.10537286102771759,-0.000343916384736076,0.0,-0.0001693685189820826,-0.02178727649152279,0.0
331,5,-0.0031391028314828873,0.00046159076737239957,0.007445042487233877,-0.025384571403265,0.0003777686506509781,-0.09728600084781647,0.016229059547185898,0.04103073477745056,0.0007574548944830894,0.0,0.0,0.0,0.0,0.0,0.0,0.00014614532119594514,-0.023822154849767685,-0.0,0.0,0.0,0.0,-0.006910083349794149,-0.1498682200908661,0.005432248581200838,1495.0,21096.0,23167.0,1495.0,-0.030501574277877808,1.0370562076568604,1.2592211961746216,-0.3793295919895172,0.0,0.0,0.0,0.0,0.0,0.0,0.0,0.0,1.9139076471328735,0.013756641543967623,-0.2917392742187579,-0.014454379803419747,0.10985323041677475,0.0005184590118005872,0.0,-0.0001693685189820826,-0.02178727649152279,0.0
337,5,-0.0031391028314828873,0.00046159076737239957,0.007445042487233877,-0.025384571403265,0.0003777686506509781,-0.09728600084781647,0.01607271283864975,0.11563953012228012,0.002769569866359234,0.0,0.0,0.0,0.0,0.0,0.0,0.00014614532119594514,-0.023822154849767685,-0.0,0.0,0.0,0.0,-0.00742719043046236,-0.15257909893989563,0.007151558995246887,1495.0,21188.0,23835.0,1495.0,-0.037202924489974976,1.0465033054351807,1.3354823589324951,-0.45263177156448364,0.0,0.0,0.0,0.0,0.0,0.0,0.0,0.0,1.9139076471328735,0.013756641543967623,-0.2917392742187579,-0.014454379803419747,0.10985323041677475,0.0005184590118005872,0.0,-0.00021874548110645264,-0.022213120013475418,0.0
342,5,-0.0037343224976211786,0.0006220884970389307,0.00826217606663704,-0.025384571403265,0.0003777686506509781,-0.09728600084781647,0.01607271283864975,0.11563953012228012,0.002769569866359234,0.0,0.0,0.0,0.0,0.0,0.0,0.0003170069248881191,-0.02430982142686844,-0.0,0.0,0.0,0.0,-0.00742719043046236,-0.15257909893989563,0.007151558995246887,1495.0,21188.0,23835.0,1495.0,-0.037202924489974976,1.0465033054351807,1.3354823589324951,-0.45263177156448364,0.0,0.0,0.0,0.0,0.0,0.0,0.0,0.0,1.920585036277771,-0.005926453972502439,-0.34489196426890295,-0.020273803721885857,0.11249271780252457,0.001128524076193571,0.0,-0.00021874548110645264,-0.022213120013475418,0.0
347,5,-0.0037343224976211786,0.0006220884970389307,0.00826217606663704,-0.025384571403265,0.0003777686506509781,-0.09728600084781647,0.015662722289562225,0.15929566323757172,0.004226600751280785,0.0,0.0,0.0,0.0,0.0,0.0,0.0003170069248881191,-0.02430982142686844,-0.0,0.0,0.0,0.0,-0.0059148166328668594,-0.15709000825881958,0.007516184356063604,1495.0,20921.0,23908.0,1495.0,-0.018266335129737854,1.0192815065383911,1.3439373970031738,-0.4423898756504059,0.0,0.0,0.0,0.0,0.0,0.0,0.0,0.0,1.920585036277771,-0.005926453972502439,-0.34489196426890295,-0.020273803721885857,0.11249271780252457,0.001128524076193571,0.0,-9.752261394169182e-05,-0.022986674681305885,0.0
352,5,-0.004486228339374065,0.0004682002472691238,0.007686087395995855,-0.025384571403265,0.0003777686506509781,-0.09728600084781647,0.015662722289562225,0.15929566323757172,0.004226600751280785,0.0,0.0,0.0,0.0,0.0,0.0,0.0003245212137699127,-0.025664931163191795,-0.0,0.0,0.0,0.0,-0.0059148166328668594,-0.15709000825881958,0.007516184356063604,1495.0,20921.0,23908.0,1495.0,-0.018266335129737854,1.0192815065383911,1.3439373970031738,-0.4423898756504059,0.0,0.0,0.0,0.0,0.0,0.0,0.0,0.0,1.9392716884613037,-0.0236330968703228,-0.44453158750682165,-0.018899030787147088,0.1199176087975502,0.0011665149359032512,0.0,-9.752261394169182e-05,-0.022986674681305885,0.0
357,5,-0.004486228339374065,0.0004682002472691238,0.007686087395995855,-0.025384571403265,0.0003777686506509781,-0.09728600084781647,0.01505107432603836,0.21392688155174255,0.006705043371766806,0.0,0.0,0.0,0.0,0.0,0.0,0.0003245212137699127,-0.025664931163191795,-0.0,0.0,0.0,0.0,-0.0058473218232393265,-0.1490810513496399,0.0070018768310546875,1495.0,21001.0,23618.0,1495.0,-0.02211970090866089,1.0274066925048828,1.3104965686798096,-0.40187570452690125,0.0,0.0,0.0,0.0,0.0,0.0,0.0,0.0,1.9392716884613037,-0.0236330968703228,-0.44453158750682165,-0.018899030787147088,0.1199176087975502,0.0011665149359032512,0.0,0.00014614532119594514,-0.023822154849767685,0.0
362,5,-0.004731368739157915,0.0007379819871857762,0.008184663020074368,-0.025384571403265,0.0003777686506509781,-0.09728600084781647,0.01505107432603836,0.21392688155174255,0.006705043371766806,0.0,0.0,0.0,0.0,0.0,0.0,0.0003245212137699127,-0.025664931163191795,-0.0,0.0,0.0,0.0,-0.0058473218232393265,-0.1490810513496399,0.0070018768310546875,1495.0,21001.0,23618.0,1495.0,-0.02211970090866089,1.0274066925048828,1.3104965686798096,-0.40187570452690125,0.0,0.0,0.0,0.0,0.0,0.0,0.0,0.0,1.9392716884613037,-0.040339696036296877,-0.47442241803005497,-0.030900555298591374,0.1212824359536171,0.002652897499501705,0.0,0.00014614532119594514,-0.023822154849767685,0.0
367,5,-0.004731368739157915,0.0007379819871857762,0.008184663020074368,-0.025384571403265,0.0003777686506509781,-0.09728600084781647,0.014907465316355228,0.2422460913658142,0.007841636426746845,0.0,0.0,0.0,0.0,0.0,0.0,0.0007367056095972657,-0.025910554453730583,-0.0,0.0,0.0,0.0,-0.004670168738812208,-0.12852874398231506,0.004201073199510574,1495.0,20713.0,22994.0,1495.0,-9.907782077789307e-05,0.9983383417129517,1.2398717403411865,-0.31752604246139526,0.0,0.0,0.0,0.0,0.0,0.0,0.0,0.0,1.942754864692688,-0.040339696036296877,-0.47442241803005497,-0.030900555298591374,0.1212824359536171,0.002652897499501705,0.0,0.0003245212137699127,-0.025664931163191795,0.0
372,5,-0.004731368739157915,0.0007379819871857762,0.008184663020074368,-0.025384571403265,0.0003777686506509781,-0.09728600084781647,0.014907465316355228,0.2422460913658142,0.007841636426746845,0.0,0.0,0.0,0.0,0.0,0.0,0.000737407011911273,-0.02591353841125965,-0.0,0.0,0.0,0.0,-0.004670168738812208,-0.12852874398231506,0.004201073199510574,1495.0,20713.0,22994.0,1495.0,-9.907782077789307e-05,0.9983383417129517,1.2398717403411865,-0.31752604246139526,0.0,0.0,0.0,0.0,0.0,0.0,0.0,0.0,1.9427965879440308,-0.040339696036296877,-0.47442241803005497,-0.030900555298591374,0.12129899859428406,0.0026554802898317575,0.0,0.0003245212137699127,-0.025664931163191795,0.0
377,5,-0.004943436477333307,0.0006930400268174708,0.00866460520774126,-0.025384571403265,0.0003777686506509781,-0.09728600084781647,0.014697770588099957,0.27227696776390076,0.00939241237938404,0.0,0.0,0.0,0.0,0.0,0.0,0.000737407011911273,-0.02591353841125965,-0.0,0.0,0.0,0.0,-0.0036704151425510645,-0.11424865573644638,0.0036319170612841845,3683.0,20628.0,22197.0,1495.0,0.020211048424243927,0.9898978471755981,1.1525028944015503,-0.22334003448486328,0.0,0.0,0.0,0.0,0.0,0.0,0.0,0.0,1.9427965879440308,-0.04037324988933492,-0.4916648179973882,-0.03181372888734376,0.12129899859428406,0.0026554802898317575,0.0,0.0007367056095972657,-0.025910554453730583,0.0
382,5,-0.005205572582781315,0.0007744997856207192,0.008780344389379025,-0.041610173881053925,-0.009624066762626171,-0.05280299857258797,0.014697770588099957,0.27227696776390076,0.00939241237938404,0.0,0.0,0.0,0.0,0.0,0.0,0.0006684241234324872,-0.026126734912395477,-0.0,0.0,0.0,0.0,-0.0036704151425510645,-0.11424865573644638,0.0036319170612841845,3683.0,20628.0,22197.0,1495.0,0.020211048424243927,0.9898978471755981,1.1525028944015503,-0.22334003448486328,0.0,0.0,0.0,0.0,0.0,0.0,0.0,0.0,1.94575035572052,-0.029441251317884564,-0.4939561932163532,-0.02696056375566948,0.12248267233371735,0.002410725224763155,0.0,0.0007367056095972657,-0.025910554453730583,0.0
387,5,-0.005205572582781315,0.0007744997856207192,0.008780344389379025,-0.041610173881053925,-0.009624066762626171,-0.05280299857258797,0.014711057767271996,0.2840123474597931,0.010156168602406979,0.0,0.0,0.0,0.0,0.0,0.0,0.0006684241234324872,-0.026126734912395477,-0.0,0.0,0.0,0.0,-0.004211645107716322,-0.09121671319007874,0.0017908619483932853,6456.0,19965.0,21356.0,1495.0,0.08034645020961761,0.9248396158218384,1.0638165473937988,-0.1262478083372116,0.0,0.0,0.0,0.0,0.0,0.0,0.0,0.0,1.94575035572052,-0.029441251317884564,-0.4939561932163532,-0.02696056375566948,0.12248267233371735,0.002410725224763155,0.0,0.000737407011911273,-0.02591353841125965,0.0
392,5,-0.0053222631104290485,0.0007900312193669379,0.008794204331934452,-0.030646925792098045,-0.0057134004309773445,-0.02278447151184082,0.014711057767271996,0.2840123474597931,0.010156168602406979,0.0,0.0,0.0,0.0,0.0,0.0,0.010327444411814213,-0.0363738015294075,-0.0,0.0,0.0,0.0,-0.004211645107716322,-0.09121671319007874,0.0017908619483932853,6456.0,19965.0,21356.0,1495.0,0.08034645020961761,0.9248396158218384,1.0638165473937988,-0.1262478083372116,0.0,0.0,0.0,0.0,0.0,0.0,0.0,0.0,2.1088883876800537,-0.03174085147378018,-0.4931067705909955,-0.026797849148179544,0.18478864431381226,0.040368348360061646,0.0,0.000737407011911273,-0.02591353841125965,0.0
397,5,-0.0053222631104290485,0.0007900312193669379,0.008794204331934452,-0.030646925792098045,-0.0057134004309773445,-0.02278447151184082,0.01584893837571144,0.2874407470226288,0.010768536478281021,0.0,0.0,0.0,0.0,0.0,0.0,0.010327444411814213,-0.0363738015294075,-0.0,0.0,0.0,0.0,-0.004334942903369665,-0.06622113287448883,-0.0005786643596366048,8188.0,19386.0,19806.0,4038.0,0.13747239112854004,0.86993408203125,0.909634530544281,0.025755610316991806,0.0,0.0,0.0,0.0,0.0,0.0,0.0,0.0,2.1088883876800537,-0.03174085147378018,-0.4931067705909955,-0.026797849148179544,0.18478864431381226,0.040368348360061646,0.0,0.0006684241234324872,-0.026126734912395477,0.0
403,5,-0.005311934743076563,0.0007217077072709799,0.008425622247159481,-0.030646925792098045,-0.0057134004309773445,-0.02278447151184082,0.01584893837571144,0.2874407470226288,0.010768536478281021,0.0,0.0,0.0,0.0,0.0,0.0,0.006937625352293253,-0.02987007610499859,-0.0,0.0,0.0,0.0,-0.004334942903369665,-0.06622113287448883,-0.0005786643596366048,8188.0,19386.0,19806.0,4038.0,0.13747239112854004,0.86993408203125,0.909634530544281,0.025755610316991806,0.0,0.0,0.0,0.0,0.0,0.0,0.0,0.0,2.0056915283203125,-0.0378538015856874,-0.4902445957135921,-0.025246545974504445,0.14433689415454865,0.025791537016630173,0.0,0.0006684241234324872,-0.026126734912395477,0.0
408,5,-0.005311934743076563,0.0007217077072709799,0.008425622247159481,-0.030646925792098045,-0.0057134004309773445,-0.02278447151184082,0.01584893837571144,0.2874407470226288,0.010768536478281021,0.0,0.0,0.0,0.0,0.0,0.0,0.006937625352293253,-0.02987007610499859,-0.0,0.0,0.0,0.0,-0.004334942903369665,-0.06622113287448883,-0.0005786643596366048,8188.0,19386.0,19806.0,4038.0,0.13747239112854004,0.86993408203125,0.909634530544281,0.025755610316991806,0.0,0.0,0.0,0.0,0.0,0.0,0.0,0.0,2.0056915283203125,-0.0378538015856874,-0.4902445957135921,-0.025246545974504445,0.14433689415454865,0.025791537016630173,0.0,0.0006684241234324872,-0.026126734912395477,0.0
413,5,-0.005119701847434044,0.0007261306745931506,0.008053253404796124,-0.030646925792098045,-0.0057134004309773445,-0.02278447151184082,0.01637171395123005,0.2806504964828491,0.010592788457870483,0.0,0.0,0.0,0.0,0.0,0.0,0.006937625352293253,-0.02987007610499859,-0.0,0.0,0.0,0.0,-0.002219878137111664,-0.039711397141218185,-0.0003035526315215975,9761.0,18702.0,18004.0,9501.0,0.20239625871181488,0.807109534740448,0.7454453110694885,0.19079919159412384,0.0,0.0,0.0,0.0,0.0,0.0,0.0,0.0,2.0056915283203125,-0.022128748449679596,-0.45771345330572294,-0.022041551955780243,0.14433689415454865,0.025791537016630173,0.0,0.010327444411814213,-0.0363738015294075,0.0
418,5,-0.004444590304046869,0.0007601879769936204,0.005406987853348255,-0.030646925792098045,-0.0057134004309773445,-0.02278447151184082,0.01637171395123005,0.2806504964828491,0.010592788457870483,0.0,0.0,0.0,0.0,0.0,0.0,0.006853374652564526,-0.029684757813811302,-0.0,0.0,0.0,0.0,-0.002219878137111664,-0.039711397141218185,-0.0003035526315215975,9761.0,18702.0,18004.0,9501.0,0.20239625871181488,0.807109534740448,0.7454453110694885,0.19079919159412384,0.0,0.0,0.0,0.0,0.0,0.0,0.0,0.0,2.002880573272705,-0.05922048564324374,-0.524684223036302,-0.03196001869990485,0.14324072003364563,0.02544262446463108,0.0,0.010327444411814213,-0.0363738015294075,0.0
423,5,-0.004444590304046869,0.0007601879769936204,0.005406987853348255,-0.030646925792098045,-0.0057134004309773445,-0.02278447151184082,0.016839537769556046,0.25558707118034363,0.010494972579181194,0.0,0.0,0.0,0.0,0.0,0.0,0.006853374652564526,-0.029684757813811302,-0.0,0.0,0.0,0.0,-0.0033507065381854773,-0.0006327842711471021,-0.0011747952084988356,14890.0,15313.0,14239.0,15160.0,0.5002533197402954,0.530705451965332,0.4551413655281067,0.5195913910865784,0.0,0.0,0.0,0.0,0.0,0.0,0.0,0.0,2.002880573272705,-0.05922048564324374,-0.524684223036302,-0.03196001869990485,0.14324072003364563,0.02544262446463108,0.0,0.006937625352293253,-0.02987007610499859,0.0
428,5,-0.004618281964212656,0.0006202475051395595,0.00712355924770236,-0.030646925792098045,-0.0057134004309773445,-0.02278447151184082,0.016839537769556046,0.25558707118034363,0.010494972579181194,0.0,0.0,0.0,0.0,0.0,0.0,0.006935364566743374,-0.029047386720776558,-0.0,0.0,0.0,0.0,-0.0033507065381854773,-0.0006327842711471021,-0.0011747952084988356,14890.0,15313.0,14239.0,15160.0,0.5002533197402954,0.530705451965332,0.4551413655281067,0.5195913910865784,0.0,0.0,0.0,0.0,0.0,0.0,0.0,0.0,1.9939815998077393,-0.005670895783070241,-0.3566805963493209,-0.010670323050361617,0.13954317569732666,0.025632601231336594,0.0,0.006937625352293253,-0.02987007610499859,0.0
433,5,-0.004618281964212656,0.0006202475051395595,0.00712355924770236,-0.030646925792098045,-0.0057134004309773445,-0.02278447151184082,0.017040999606251717,0.2285020351409912,0.01023644395172596,0.0,0.0,0.0,0.0,0.0,0.0,0.006935364566743374,-0.029047386720776558,-0.0,0.0,0.0,0.0,-0.003900963580235839,0.03005836345255375,-0.0021120202727615833,16684.0,13428.0,10968.0,17527.0,0.6356053948402405,0.4019014239311218,0.26062411069869995,0.704749584197998,0.0,0.0,0.0,0.0,0.0,0.0,0.0,0.0,1.9939815998077393,-0.005670895783070241,-0.3566805963493209,-0.010670323050361617,0.13954317569732666,0.025632601231336594,0.0,0.006853374652564526,-0.029684757813811302,0.0
438,5,-0.004429352004081011,0.0006199217750690877,0.00669739069417119,-0.030646925792098045,-0.0057134004309773445,-0.02278447151184082,0.017040999606251717,0.2285020351409912,0.01023644395172596,0.0,0.0,0.0,0.0,0.0,0.0,0.006720872595906258,-0.029219942167401314,-0.0,0.0,0.0,0.0,-0.003900963580235839,0.03005836345255375,-0.0021120202727615833,16684.0,13428.0,10968.0,17527.0,0.6356053948402405,0.4019014239311218,0.26062411069869995,0.704749584197998,0.0,0.0,0.0,0.0,0.0,0.0,0.0,0.0,1.9960063695907593,-0.01088567389563908,-0.2868625301678668,-0.010522925355658635,0.14051464200019836,0.024865100160241127,0.0,0.006853374652564526,-0.029684757813811302,0.0
443,5,-0.004429352004081011,0.0006199217750690877,0.00669739069417119,-0.030646925792098045,-0.0057134004309773445,-0.02278447151184082,0.01782362349331379,0.1316840648651123,0.01019257865846157,0.0,0.0,0.0,0.0,0.0,0.0,0.006720872595906258,-0.029219942167401314,-0.0,0.0,0.0,0.0,-0.0038953127805143595,0.060812633484601974,-0.000823426409624517,18280.0,10915.0,9339.0,18429.0,0.7695974707603455,0.257882297039032,0.1837550401687622,0.7827468514442444,0.0,0.0,0.0,0.0,0.0,0.0,0.0,0.0,1.9960063695907593,-0.01088567389563908,-0.2868625301678668,-0.010522925355658635,0.14051464200019836,0.024865100160241127,0.0,0.006935364566743374,-0.029047386720776558,0.0
448,5,-0.004476375877857208,0.0007283586310222745,0.00605537835508585,-0.017901666462421417,-0.015297788195312023,0.06792763620615005,0.01782362349331379,0.1316840648651123,0.01019257865846157,0.0,0.0,0.0,0.0,0.0,0.0,0.0067293718457221985,-0.029043272137641907,-0.0,0.0,0.0,0.0,-0.0038953127805143595,0.060812633484601974,-0.000823426409624517,18280.0,10915.0,9339.0,18429.0,0.7695974707603455,0.257882297039032,0.1837550401687622,0.7827468514442444,0.0,0.0,0.0,0.0,0.0,0.0,0.0,0.0,1.9935158491134644,-0.014668567442539311,-0.2360033904176429,-0.012681570761503766,0.1394910216331482,0.02486547827720642,0.0,0.006935364566743374,-0.029047386720776558,0.0
453,5,-0.004476375877857208,0.0007283586310222745,0.00605537835508585,-0.017901666462421417,-0.015297788195312023,0.06792763620615005,0.01839173585176468,0.06652000546455383,0.01030629314482212,0.0,0.0,0.0,0.0,0.0,0.0,0.0067293718457221985,-0.029043272137641907,-0.0,0.0,0.0,0.0,-0.0046679116785526276,0.07219143956899643,-0.0011847061105072498,19087.0,9589.0,7069.0,19283.0,0.8421980142593384,0.19467222690582275,0.09883182495832443,0.8603042960166931,0.0,0.0,0.0,0.0,0.0,0.0,0.0,0.0,1.9935158491134644,-0.014668567442539311,-0.2360033904176429,-0.012681570761503766,0.1394910216331482,0.02486547827720642,0.0,0.006720872595906258,-0.029219942167401314,0.0
458,5,-0.00440374668687582,0.0006605654489248991,0.005490928888320923,-0.017901666462421417,-0.015297788195312023,0.06792763620615005,0.01839173585176468,0.06652000546455383,0.01030629314482212,0.0,0.0,0.0,0.0,0.0,0.0,0.017293142154812813,-0.019926175475120544,-0.0,0.0,0.0,0.0,-0.0046679116785526276,0.07219143956899643,-0.0011847061105072498,19087.0,9589.0,7069.0,19283.0,0.8421980142593384,0.19467222690582275,0.09883182495832443,0.8603042960166931,0.0,0.0,0.0,0.0,0.0,0.0,0.0,0.0,1.9158735275268555,-0.0071949491664980575,-0.18605470383554967,-0.008343867525728181,0.09197060018777847,0.061405882239341736,-0.0,0.006720872595906258,-0.029219942167401314,0.0
463,5,-0.00440374668687582,0.0006605654489248991,0.005490928888320923,-0.017901666462421417,-0.015297788195312023,0.06792763620615005,0.018343381583690643,0.02715124748647213,0.010356747545301914,0.0,0.0,0.0,0.0,0.0,0.0,0.017293142154812813,-0.019926175475120544,-0.0,0.0,0.0,0.0,-0.003623246680945158,0.07533043622970581,-0.0013459621695801616,18799.0,9997.0,7672.0,19124.0,0.8158668279647827,0.21319793164730072,0.11886213719844818,0.8455889225006104,0.0,0.0,0.0,0.0,0.0,0.0,0.0,0.0,1.9158735275268555,-0.0071949491664980575,-0.18605470383554967,-0.008343867525728181,0.09197060018777847,0.061405882239341736,-0.0,0.0067293718457221985,-0.029043272137641907,0.0
468,5,-0.004424835089594126,0.0006451807566918433,0.004743759986013174,-0.017901666462421417,-0.015297788195312023,0.06792763620615005,0.018343381583690643,0.02715124748647213,0.010356747545301914,0.0,0.0,0.0,0.0,0.0,0.0,0.01720069721341133,-0.01985669508576393,-0.0,0.0,0.0,0.0,-0.003623246680945158,0.07533043622970581,-0.0013459621695801616,18799.0,9997.0,7672.0,19124.0,0.8158668279647827,0.21319793164730072,0.11886213719844818,0.8455889225006104,0.0,0.0,0.0,0.0,0.0,0.0,0.0,0.0,1.9145451784133911,-0.02318274756414894,-0.16791768786652647,-0.013712272418047327,0.09158655256032944,0.06103533133864403,-0.0,0.0067293718457221985,-0.029043272137641907,0.0
474,5,-0.004424835089594126,0.0006451807566918433,0.004743759986013174,-0.017901666462421417,-0.015297788195312023,0.06792763620615005,0.01895005814731121,-0.01907368190586567,0.010348474606871605,0.0,0.0,0.0,0.0,0.0,0.0,0.01720069721341133,-0.01985669508576393,-0.0,0.0,0.0,0.0,-0.0037326535675674677,0.06118873879313469,-0.0001983517431654036,18527.0,10526.0,9497.0,18319.0,0.7914577722549438,0.23843717575073242,0.19060179591178894,0.7730191349983215,0.0,0.0,0.0,0.0,0.0,0.0,0.0,0.0,1.9145451784133911,-0.02318274756414894,-0.16791768786652647,-0.013712272418047327,0.09158655256032944,0.06103533133864403,-0.0,0.0067293718457221985,-0.029043272137641907,0.0
479,5,-0.004708851221948862,0.0006422351580113173,0.004750111140310764,-0.017901666462421417,-0.015297788195312023,0.06792763620615005,0.01895005814731121,-0.01907368190586567,0.010348474606871605,0.0,0.0,0.0,0.0,0.0,0.0,0.017176039516925812,-0.019883522763848305,-0.0,0.0,0.0,0.0,-0.0037326535675674677,0.06118873879313469,-0.0001983517431654036,18527.0,10526.0,9497.0,18319.0,0.7914577722549438,0.23843717575073242,0.19060179591178894,0.7730191349983215,0.0,0.0,0.0,0.0,0.0,0.0,0.0,0.0,1.9147062301635742,-0.014655038021057935,-0.13659076063118322,-0.013466409069990285,0.09171802550554276,0.06095297634601593,-0.0,0.0067293718457221985,-0.029043272137641907,0.0
484,5,-0.004708851221948862,0.0006422351580113173,0.004750111140310764,-0.017901666462421417,-0.015297788195312023,0.06792763620615005,0.019022829830646515,-0.03848154470324516,0.010078019462525845,0.0,0.0,0.0,0.0,0.0,0.0,0.017176039516925812,-0.019883522763848305,-0.0,0.0,0.0,0.0,-0.0015228989068418741,0.04376336187124252,-0.0012339622480794787,16698.0,12264.0,10907.0,17340.0,0.6367027163505554,0.3312830328941345,0.2574719190597534,0.6890875101089478,0.0,0.0,0.0,0.0,0.0,0.0,0.0,0.0,1.9147062301635742,-0.014655038021057935,-0.13659076063118322,-0.013466409069990285,0.09171802550554276,0.06095297634601593,-0.0,0.017293142154812813,-0.019926175475120544,0.0
