timestamp,dt,pos_x,pos_y,pos_z,vel_x,vel_y,vel_z,roll,pitch,yaw,agv_x,agv_y,agv_z,x_ref,y_ref,z_ref,roll_ref,pitch_ref,yaw_ref,x_vel_ref,y_vel_ref,z_vel_ref,x_torque,y_torque,z_torque,w0,w1,w2,w3,u0,u1,u2,u3,m0req,m1req,m2req,m3req,thrust0,thrust1,thrust2,thrust3,thrust_ref,roll_vicon,pitch_vicon,yaw_vicon,acc_x,acc_y,acc_z
5,5,0.0,0.0,0.0,-0.01467619277536869,0.0009572164271958172,-0.0019998003263026476,-0.0045002116821706295,-0.07069037854671478,0.045746732503175735,0.008686014451086521,-0.20041143894195557,-0.05146943777799606,0.0,0.0,0.0,-0.0008315160521306098,-0.00980703067034483,-0.0,0.0,0.0,0.0,0.0012437726836651564,0.013450984843075275,0.003297012997791171,1495.0,1495.0,1495.0,1495.0,0.0,0.0,0.0,0.0,0.0,0.0,0.0,0.0,1495.0,1495.0,1495.0,1495.0,2.3289616107940674,0.0022121835241109837,0.09600930192332979,-0.13121554911686933,0.05503572151064873,-0.0035895616747438908,0.0
28,23,0.0,0.0,0.0,-0.017796754837036133,0.002895645098760724,-0.007197500206530094,-0.0045002116821706295,-0.07069037854671478,0.045746732503175735,0.008686014451086521,-0.20041143894195557,-0.05146943777799606,0.0,0.0,0.0,-0.0008315160521306098,-0.00980703067034483,-0.0,0.0,0.0,0.0,0.0012437726836651564,0.013450984843075275,0.003297012997791171,1495.0,1495.0,1495.0,1495.0,0.0,0.0,0.0,0.0,0.0,0.0,0.0,0.0,1495.0,1495.0,1495.0,1495.0,2.3289616107940674,0.0019040376904436726,0.09223302941601719,-0.1318489618699411,0.05503572151064873,-0.0035895616747438908,0.0
33,5,0.0,0.0,0.0,-0.020331013947725296,0.005288664251565933,-0.003988723270595074,-0.0045002116821706295,-0.07069037854671478,0.045746732503175735,0.008686014451086521,-0.20041143894195557,-0.05146943777799606,0.0,0.0,0.0,-0.0008315160521306098,-0.00980703067034483,-0.0,0.0,0.0,0.0,0.0012437726836651564,0.013450984843075275,0.003297012997791171,1495.0,1495.0,1495.0,1495.0,0.0,0.0,0.0,0.0,0.0,0.0,0.0,0.0,1495.0,1495.0,1495.0,1495.0,2.3289616107940674,0.0008424392981452645,0.09164030611671499,-0.13170736565481844,0.05503572151064873,-0.0035895616747438908,0.0
38,5,0.0,0.0,0.0,-0.017807908356189728,0.00224323314614594,-0.002896168502047658,-0.004507456906139851,-0.06837204843759537,0.04518626257777214,-0.006754247937351465,-0.16891440749168396,-0.047260720282793045,0.0,0.0,0.0,-0.004606783855706453,-0.013623313046991825,-0.0,0.0,0.0,0.0,0.0011533339275047183,0.014044702053070068,0.00333379115909338,1495.0,1495.0,1495.0,1495.0,0.0,0.0,0.0,0.0,0.0,0.0,0.0,0.0,1495.0,1495.0,1495.0,1495.0,2.3225960731506348,-0.0011504437466888621,0.0906862428793013,-0.1314186786747575,0.07624129951000214,-0.019832491874694824,0.0
44,5,0.0,0.0,0.0,-0.014019832946360111,0.0010417553130537271,0.0007256855024024844,-0.004507456906139851,-0.06837204843759537,0.04518626257777214,-0.006754247937351465,-0.16891440749168396,-0.047260720282793045,0.0,0.0,0.0,-0.004606783855706453,-0.013623313046991825,-0.0,0.0,0.0,0.0,0.0011533339275047183,0.014044702053070068,0.00333379115909338,1495.0,1495.0,1495.0,1495.0,0.0,0.0,0.0,0.0,0.0,0.0,0.0,0.0,1495.0,1495.0,1495.0,1495.0,2.3225960731506348,-0.0007106839133038128,0.09026634412606575,-0.13145121231668833,0.07624129951000214,-0.019832491874694824,0.0
57,13,-0.00011632304085651413,-5.832817259943113e-05,0.00011634598195087165,-0.006136718671768904,0.0030891625210642815,-0.006543199066072702,-0.004539595451205969,-0.06713096797466278,0.04482144117355347,0.001322952681221068,-0.11687567830085754,-0.04312736541032791,0.0,0.0,0.0,-0.0009113195701502264,-0.00943432841449976,-0.0,0.0,0.0,0.0,3.405024472158402e-05,0.014121019281446934,0.0034726224839687347,17817.0,13886.0,16242.0,15721.0,0.7293622493743896,0.43153056502342224,0.6007757186889648,0.5609275102615356,0.0,0.0,0.0,0.0,1495.0,1495.0,1495.0,1495.0,2.312692165374756,-0.00017446254168321845,0.08936310329559129,-0.1320929529306378,0.05257437378168106,-0.003906582482159138,0.0
64,7,-0.0001599642273504287,-6.874361861264333e-05,0.0001151641336036846,-0.007691629696637392,0.0024855181109160185,-0.0024754577316343784,-0.004539595451205969,-0.06713096797466278,0.04482144117355347,0.001322952681221068,-0.11687567830085754,-0.04312736541032791,0.0,0.0,0.0,-0.0009113195701502264,-0.00943432841449976,-0.0,0.0,0.0,0.0,3.405024472158402e-05,0.014121019281446934,0.0034726224839687347,17817.0,13886.0,16242.0,15721.0,0.7293622493743896,0.43153056502342224,0.6007757186889648,0.5609275102615356,0.0,0.0,0.0,0.0,1495.0,1495.0,1495.0,1495.0,2.312692165374756,-0.0004068132256662992,0.08942885414060947,-0.13233831841484978,0.05257437378168106,-0.003906582482159138,0.0
69,5,-0.00020423479145392776,-7.449538679793477e-05,0.00012128919479437172,-0.008389120921492577,0.0016844194615259767,-0.0017251899698749185,-0.004539595451205969,-0.06713096797466278,0.04482144117355347,0.001322952681221068,-0.11687567830085754,-0.04312736541032791,0.0,0.0,0.0,-0.00226889131590724,-0.005348742473870516,-0.0,0.0,0.0,0.0,3.405024472158402e-05,0.014121019281446934,0.0034726224839687347,17817.0,13886.0,16242.0,15721.0,0.7293622493743896,0.43153056502342224,0.6007757186889648,0.5609275102615356,0.0,0.0,0.0,0.0,1495.0,1495.0,1495.0,1495.0,2.3062503337860107,-0.0002229378817347075,0.08963007623963913,-0.13285365963959742,0.02972397394478321,-0.009699023328721523,0.0
74,5,-0.00024134058912750334,-8.141157013596967e-05,0.00010997760546160862,-0.007808344438672066,0.0015037100529298186,0.0006673148018307984,-0.004580124281346798,-0.06553053110837936,0.04405820369720459,0.001567660947330296,-0.02143252268433571,-0.03018241934478283,0.0,0.0,0.0,-0.00226889131590724,-0.005348742473870516,-0.0,0.0,0.0,0.0,-2.9222041121101938e-05,0.01487587857991457,0.0036338125355541706,17925.0,13755.0,16261.0,15692.0,0.7386488318443298,0.4229356646537781,0.6022595763206482,0.5587520003318787,0.0,0.0,0.0,0.0,17821.0,13882.0,16213.0,15749.0,2.3062503337860107,-0.000748174431608798,0.08956776462535836,-0.1324720188012502,0.02972397394478321,-0.009699023328721523,0.0
79,5,-0.0002673804701771587,-7.560405356343836e-05,8.162220910890028e-05,-0.006248124409466982,-9.541832696413621e-05,0.0036695734597742558,-0.004589935764670372,-0.06527793407440186,0.04380255565047264,-0.0018423914443701506,0.0024819779209792614,-0.021544501185417175,0.0,0.0,0.0,-0.001432293327525258,-0.0055403560400009155,-0.0,0.0,0.0,0.0,4.207836354908068e-06,0.015467807650566101,0.003957253415137529,18027.0,13612.0,16316.0,15641.0,0.7474818825721741,0.41367846727371216,0.6064987778663635,0.554936945438385,0.0,0.0,0.0,0.0,17986.0,13436.0,16231.0,15795.0,2.2928593158721924,-0.0009626841734074009,0.0898106747961188,-0.13270134375628267,0.030610069632530212,-0.006087201647460461,-0.0
84,5,-0.00030038043041713536,-9.01254898053594e-05,7.171835022745654e-05,-0.006459243129938841,0.0017044056439772248,0.002656291937455535,-0.004589935764670372,-0.06527793407440186,0.04380255565047264,-0.0018423914443701506,0.0024819779209792614,-0.021544501185417175,0.0,0.0,0.0,-0.001432293327525258,-0.0055403560400009155,-0.0,0.0,0.0,0.0,4.207836354908068e-06,0.015467807650566101,0.003957253415137529,18027.0,13612.0,16316.0,15641.0,0.7474818825721741,0.41367846727371216,0.6064987778663635,0.554936945438385,0.0,0.0,0.0,0.0,17986.0,13436.0,16231.0,15795.0,2.2928593158721924,-0.0011779121426203087,0.0891737184759379,-0.13247339386056226,0.030610069632530212,-0.006087201647460461,-0.0
89,5,-0.00031678660889156163,-8.963714935816824e-05,9.610881534172222e-05,-0.004552438855171204,0.0006231612642295659,-0.0018643387593328953,-0.004589935764670372,-0.06527793407440186,0.04380255565047264,-0.0018423914443701506,0.0024819779209792614,-0.021544501185417175,0.0,0.0,0.0,-0.0016239240067079663,-0.004692851100116968,-0.0,0.0,0.0,0.0,4.207836354908068e-06,0.015467807650566101,0.003957253415137529,18027.0,13612.0,16316.0,15641.0,0.7474818825721741,0.41367846727371216,0.6064987778663635,0.554936945438385,0.0,0.0,0.0,0.0,17986.0,13436.0,16231.0,15795.0,2.2883505821228027,-0.0018483045691749158,0.08939988336345855,-0.13240691900272822,0.025876710191369057,-0.006888052448630333,-0.0
94,5,-0.0003071640385314822,-0.00010221802949672565,0.00010922742512775585,-0.0006662679370492697,0.0017589699709787965,-0.002319969004020095,-0.004624707158654928,-0.06529618799686432,0.0436609722673893,0.0013870472321286798,0.020458851009607315,-0.00876616220921278,0.0,0.0,0.0,-0.0016239240067079663,-0.004692851100116968,-0.0,0.0,0.0,0.0,0.0006810201448388398,0.01866309344768524,0.004189080558717251,18109.0,13275.0,16322.0,15693.0,0.7546002864837646,0.39223843812942505,0.6069867610931396,0.5588667392730713,0.0,0.0,0.0,0.0,18184.0,13175.0,16211.0,15719.0,2.2883505821228027,-0.0013514760332568854,0.08929998491985884,-0.13228970841097065,0.025876710191369057,-0.006888052448630333,-0.0
99,5,-0.00031677831429988146,-9.496787242824212e-05,0.00011680116585921496,-0.001420220942236483,-0.0001664309820625931,-0.0018368364544585347,-0.004624707158654928,-0.06529618799686432,0.0436609722673893,0.0013870472321286798,0.020458851009607315,-0.00876616220921278,0.0,0.0,0.0,-0.0016897892346605659,-0.0007609701715409756,-0.0,0.0,0.0,0.0,0.0006810201448388398,0.01866309344768524,0.004189080558717251,18109.0,13275.0,16322.0,15693.0,0.7546002864837646,0.39223843812942505,0.6069867610931396,0.5588667392730713,0.0,0.0,0.0,0.0,18184.0,13175.0,16211.0,15719.0,2.2858309745788574,-0.0017713274532462353,0.0885561864805911,-0.1324232221141046,0.004191437736153603,-0.0071595353074371815,0.0
104,5,-0.0003060217131860554,-9.81065459200181e-05,0.00013101246440783143,0.0005885608843527734,-0.0002979945275001228,-0.0011987307807430625,-0.004603683482855558,-0.06545305252075195,0.043569166213274,0.0052982815541327,0.01784198172390461,-0.0037361884023994207,0.0,0.0,0.0,-0.0016897892346605659,-0.0007609701715409756,-0.0,0.0,0.0,0.0,0.0006810201448388398,0.01866309344768524,0.004189080558717251,18203.0,13156.0,16222.0,15702.0,0.7627884745597839,0.3847794830799103,0.5991959571838379,0.5594863295555115,0.0,0.0,0.0,0.0,18184.0,13175.0,16211.0,15719.0,2.2858309745788574,-0.0006023635502298529,0.08967250934443283,-0.13214256971795835,0.004191437736153603,-0.0071595353074371815,0.0
109,5,-0.0002775028988253325,-9.372529166284949e-05,0.00011644321057246998,0.0036576834972947836,-0.000644948217086494,0.001268817693926394,-0.004603683482855558,-0.06545305252075195,0.043569166213274,0.0052982815541327,0.01784198172390461,-0.0037361884023994207,0.0,0.0,0.0,0.00013612663315143436,9.436244727112353e-05,-0.0,0.0,0.0,0.0,0.0006810201448388398,0.01866309344768524,0.004189080558717251,18203.0,13156.0,16222.0,15702.0,0.7627884745597839,0.3847794830799103,0.5991959571838379,0.5594863295555115,0.0,0.0,0.0,0.0,18184.0,13175.0,16211.0,15719.0,2.284208059310913,-0.0009096212918169396,0.08974801555717128,-0.13196342539033437,-0.0005193818360567093,0.0005763513618148863,0.0
115,5,-0.00027931021759286523,-8.024345152080059e-05,0.0001273775997105986,0.0012461954029276967,-0.0018758003134280443,-0.0008046001894399524,-0.004530631005764008,-0.0655098482966423,0.04362538456916809,0.002674081129953265,0.013087261468172073,0.009027916938066483,0.0,0.0,0.0,0.00013612663315143436,9.436244727112353e-05,-0.0,0.0,0.0,0.0,0.000865607988089323,0.01847228594124317,0.0046553779393434525,18262.0,12931.0,16334.0,15522.0,0.7679985761642456,0.3708893060684204,0.6078972816467285,0.5460741519927979,0.0,0.0,0.0,0.0,18201.0,13021.0,16275.0,15581.0,2.284208059310913,-0.0002305395518553124,0.09059841484069728,-0.1319656791009101,-0.0005193818360567093,0.0005763513618148863,0.0
120,5,-0.0002742051729001105,-6.990339170442894e-05,0.00011970733612542972,0.001111081801354885,-0.001991127384826541,0.0005985914613120258,-0.004454501438885927,-0.06550469249486923,0.04380322992801666,-0.002055640099570155,0.0005198343424126506,0.01971386931836605,0.0,0.0,0.0,0.0015560523606836796,0.0005686813383363187,-0.0,0.0,0.0,0.0,0.0008507829043082893,0.01838529109954834,0.004868743009865284,18318.0,12814.0,16404.0,15416.0,0.7729265689849854,0.3637792766094208,0.6133928298950195,0.5382518768310547,0.0,0.0,0.0,0.0,18267.0,12894.0,16328.0,15491.0,2.285202741622925,-0.000544604684522054,0.08945746655311673,-0.13201478875630707,-0.0031314468942582607,0.006591089069843292,0.0
125,5,-0.0002798245404846966,-5.9511490690056235e-05,0.0001183443600893952,-0.00022988933778833598,-0.0020434786565601826,0.0004029937263112515,-0.004454501438885927,-0.06550469249486923,0.04380322992801666,-0.002055640099570155,0.0005198343424126506,0.01971386931836605,0.0,0.0,0.0,0.0015560523606836796,0.0005686813383363187,-0.0,0.0,0.0,0.0,0.0008507829043082893,0.01838529109954834,0.004868743009865284,18318.0,12814.0,16404.0,15416.0,0.7729265689849854,0.3637792766094208,0.6133928298950195,0.5382518768310547,0.0,0.0,0.0,0.0,18267.0,12894.0,16328.0,15491.0,2.285202741622925,-0.0007179550787281781,0.0889888708407731,-0.13170703403063358,-0.0031314468942582607,0.006591089069843292,0.0
130,5,-0.0002655994612723589,-6.547511293319985e-05,0.00010777499846881256,0.0016150519950315356,-0.00010175639908993617,0.0014295208966359496,-0.004454501438885927,-0.06550469249486923,0.04380322992801666,-0.002055640099570155,0.0005198343424126506,0.01971386931836605,0.0,0.0,0.0,0.001728999544866383,-0.0004366437206044793,-0.0,0.0,0.0,0.0,0.0008507829043082893,0.01838529109954834,0.004868743009865284,18318.0,12814.0,16404.0,15416.0,0.7729265689849854,0.3637792766094208,0.6133928298950195,0.5382518768310547,0.0,0.0,0.0,0.0,18267.0,12894.0,16328.0,15491.0,2.2883377075195312,-0.000680526444662539,0.08927662269512661,-0.13157095601447305,0.0024076791014522314,0.00733370054513216,-0.0
140,11,-0.00017540072440169752,-4.8448437155457214e-05,7.798708975315094e-05,0.009382062591612339,-0.0013106882106512785,0.002847712254151702,-0.004414780531078577,-0.06532900780439377,0.04444808512926102,0.001343945157714188,0.012519552372395992,0.04414796456694603,0.0,0.0,0.0,0.001728999544866383,-0.0004366437206044793,-0.0,0.0,0.0,0.0,0.0013611124595627189,0.019881095737218857,0.005544935818761587,18558.0,12350.0,16544.0,15294.0,0.7942503690719604,0.3362239599227905,0.6244352459907532,0.5292985439300537,0.0,0.0,0.0,0.0,18603.0,12279.0,16568.0,15270.0,2.2883377075195312,-0.0004919058597142925,0.09010840144520758,-0.13058833802150788,-0.03421085700392723,0.004646413493901491,-0.0
146,5,-0.00017046096036210656,-3.418769847485237e-05,5.144219903741032e-05,0.0043455976992845535,-0.002235563937574625,0.004324471578001976,-0.004414780531078577,-0.06532900780439377,0.04444808512926102,0.001343945157714188,0.012519552372395992,0.04414796456694603,0.0,0.0,0.0,0.0010900225024670362,0.006173636298626661,-0.0,0.0,0.0,0.0,0.0013611124595627189,0.019881095737218857,0.005544935818761587,18558.0,12350.0,16544.0,15294.0,0.7942503690719604,0.3362239599227905,0.6244352459907532,0.5292985439300537,0.0,0.0,0.0,0.0,18603.0,12279.0,16568.0,15270.0,2.299715042114258,-0.0006762540740977166,0.091274009922866,-0.13005751108668215,-0.03421085700392723,0.004646413493901491,-0.0
151,5,-0.00012421765131875873,-1.7077598386094905e-05,3.31366500176955e-05,0.0072874343022704124,-0.0029474375769495964,0.0039264545775949955,-0.004390140995383263,-0.06552822887897491,0.044850558042526245,-0.0009570159018039703,0.05611006170511246,0.055319685488939285,0.0,0.0,0.0,0.0025703974533826113,0.004806907847523689,-0.0,0.0,0.0,0.0,0.0018079864094033837,0.021957557648420334,0.006184738595038652,18702.0,12067.0,16612.0,15280.0,0.8070827126502991,0.3199782967567444,0.6298384666442871,0.5283032059669495,0.0,0.0,0.0,0.0,18727.0,12022.0,16600.0,15297.0,2.299704074859619,0.00044933841848033776,0.09228134474625571,-0.1299294436936511,-0.02663707360625267,0.010956703685224056,-0.0
156,5,-9.724293340696022e-05,-1.5813544450793415e-05,5.7768134865909815e-05,0.006151940673589706,-0.0013306615874171257,-0.0013851961120963097,-0.004390140995383263,-0.06552822887897491,0.044850558042526245,-0.0009570159018039703,0.05611006170511246,0.055319685488939285,0.0,0.0,0.0,0.0025703974533826113,0.004806907847523689,-0.0,0.0,0.0,0.0,0.0018079864094033837,0.021957557648420334,0.006184738595038652,18702.0,12067.0,16612.0,15280.0,0.8070827126502991,0.3199782967567444,0.6298384666442871,0.5283032059669495,0.0,0.0,0.0,0.0,18727.0,12022.0,16600.0,15297.0,2.299704074859619,-0.0005417744497268661,0.09291796011695645,-0.12965187504434542,-0.02663707360625267,0.010956703685224056,-0.0
161,5,-5.595496986643411e-05,-3.0285436878330074e-05,4.859449472860433e-05,0.007415332365781069,0.0012043624883517623,0.0005467584123834968,-0.004390140995383263,-0.06552822887897491,0.044850558042526245,-0.0009570159018039703,0.05611006170511246,0.055319685488939285,0.0,0.0,0.0,0.0025703974533826113,0.004806907847523689,-0.0,0.0,0.0,0.0,0.0018079864094033837,0.021957557648420334,0.006184738595038652,18702.0,12067.0,16612.0,15280.0,0.8070827126502991,0.3199782967567444,0.6298384666442871,0.5283032059669495,0.0,0.0,0.0,0.0,18727.0,12022.0,16600.0,15297.0,2.299704074859619,0.0002843668304149696,0.09338094307132866,-0.12922319923046602,-0.02663707360625267,0.010956703685224056,-0.0
166,5,-2.5580327928764746e-05,-1.2204782251501456e-05,3.607532335081487e-06,0.006611089687794447,-0.0016879334580153227,0.005617138929665089,-0.004357540979981422,-0.06704090535640717,0.046069417148828506,0.004780804272741079,0.11310518532991409,0.04641251638531685,0.0,0.0,0.0,-0.00108579290099442,0.004900877829641104,-0.0,0.0,0.0,0.0,0.0017693099798634648,0.02285497635602951,0.0061708311550319195,18808.0,11931.0,16533.0,15382.0,0.8167086839675903,0.31229376792907715,0.6236006021499634,0.5357346534729004,0.0,0.0,0.0,0.0,18856.0,11841.0,16688.0,15223.0,2.3279926776885986,0.0008714011129656872,0.09323281210078997,-0.1294553576270712,-0.027491940185427666,-0.0046852957457304,-0.0
171,5,-2.8278906029299833e-05,-5.0183396524516866e-05,1.0962375199596863e-05,0.002320606494322419,0.00388226006180048,0.0013642742997035384,-0.004320173524320126,-0.06822947412729263,0.047211699187755585,0.0005367831327021122,0.09583142399787903,0.027304334565997124,0.0,0.0,0.0,-0.00108579290099442,0.004900877829641104,-0.0,0.0,0.0,0.0,0.00162974139675498,0.024824170395731926,0.008338049985468388,19251.0,11314.0,16799.0,15151.0,0.8573387861251831,0.278658926486969,0.6447956562042236,0.5189217329025269,0.0,0.0,0.0,0.0,19033.0,11681.0,16547.0,15431.0,2.3279926776885986,0.0012208259935788234,0.09441140920826288,-0.12996234639554857,-0.027491940185427666,-0.0046852957457304,-0.0
176,5,1.852914283517748e-05,-3.16705227305647e-05,1.0725657375587616e-05,0.006545208394527435,-0.0006686404813081026,0.0005741158965975046,-0.004320173524320126,-0.06822947412729263,0.047211699187755585,0.0005367831327021122,0.09583142399787903,0.027304334565997124,0.0,0.0,0.0,-0.003438433865085244,0.0015221952926367521,-0.0,0.0,0.0,0.0,0.00162974139675498,0.024824170395731926,0.008338049985468388,19251.0,11314.0,16799.0,15151.0,0.8573387861251831,0.278658926486969,0.6447956562042236,0.5189217329025269,0.0,0.0,0.0,0.0,19033.0,11681.0,16547.0,15431.0,2.327979803085327,-0.000494059046206271,0.0947554707096575,-0.12774771933263063,-0.008538837544620037,-0.014837026596069336,-0.0
181,5,8.938557584770024e-05,1.507341494288994e-05,-4.908365008304827e-05,0.011120854876935482,-0.0058767287991940975,0.007406763266772032,-0.004320173524320126,-0.06822947412729263,0.047211699187755585,0.0005367831327021122,0.09583142399787903,0.027304334565997124,0.0,0.0,0.0,-0.003438433865085244,0.0015221952926367521,-0.0,0.0,0.0,0.0,0.00162974139675498,0.024824170395731926,0.008338049985468388,19251.0,11314.0,16799.0,15151.0,0.8573387861251831,0.278658926486969,0.6447956562042236,0.5189217329025269,0.0,0.0,0.0,0.0,19033.0,11681.0,16547.0,15431.0,2.327979803085327,0.0018421990753200387,0.09533162015392689,-0.12773728195057812,-0.008538837544620037,-0.014837026596069336,-0.0
186,5,0.0001357720757368952,-5.418556625613746e-08,-3.725730493897572e-05,0.010014722123742104,-0.0005353795131668448,0.0015435440000146627,-0.004421512596309185,-0.06892106682062149,0.04694300889968872,-0.011210924945771694,0.06865545362234116,0.2601872980594635,0.0,0.0,0.0,0.00509257847443223,0.007471933029592037,-0.0,0.0,0.0,0.0,0.0023889103904366493,0.02426397241652012,0.007946643978357315,19890.0,9968.0,17691.0,14186.0,0.9176628589630127,0.21185514330863953,0.7186082601547241,0.4515777826309204,0.0,0.0,0.0,0.0,17967.0,13224.0,15426.0,16607.0,2.3431811332702637,0.0012188801321611382,0.09502495227962138,-0.12876902137013807,-0.04218723624944687,0.02211814746260643,0.0
191,5,0.00014267402002587914,-1.939593175848131e-06,-5.2011364459758624e-05,0.004834122955799103,1.2097114449716173e-05,0.0023879045620560646,-0.004421512596309185,-0.06892106682062149,0.04694300889968872,-0.011210924945771694,0.06865545362234116,0.2601872980594635,0.0,0.0,0.0,0.00509257847443223,0.007471933029592037,-0.0,0.0,0.0,0.0,0.0023889103904366493,0.02426397241652012,0.007946643978357315,19890.0,9968.0,17691.0,14186.0,0.9176628589630127,0.21185514330863953,0.7186082601547241,0.4515777826309204,0.0,0.0,0.0,0.0,17967.0,13224.0,15426.0,16607.0,2.3431811332702637,0.0013204560738931507,0.09643025731246295,-0.12851734597378311,-0.04218723624944687,0.02211814746260643,0.0
196,5,0.00021759294031653553,3.888241189997643e-05,-0.00010344680777052417,0.010923918336629868,-0.004893801640719175,0.007127414923161268,-0.004285972565412521,-0.06964528560638428,0.047964733093976974,0.00470232218503952,0.0780562087893486,-0.22354206442832947,0.0,0.0,0.0,-1.3375821254157927e-05,0.0033235526643693447,-0.0,0.0,0.0,0.0,0.0007752852397970855,0.0242538433521986,0.001700674882158637,17367.0,14393.0,14548.0,17408.0,0.6913718581199646,0.46562057733535767,0.4762577414512634,0.6947425007820129,0.0,0.0,0.0,0.0,20743.0,8575.0,18568.0,13067.0,2.36067533493042,0.0019524062811727492,0.09507775875349654,-0.12673659246933455,-0.018905578181147575,-5.8528217778075486e-05,0.0
201,5,0.00039449011092074215,-0.00010700441634980962,-6.197631591930985e-05,0.02559722773730755,0.015548898838460445,-0.002125492552295327,-0.004285972565412521,-0.06964528560638428,0.047964733093976974,0.00470232218503952,0.0780562087893486,-0.22354206442832947,0.0,0.0,0.0,-1.3375821254157927e-05,0.0033235526643693447,-0.0,0.0,0.0,0.0,0.0007752852397970855,0.0242538433521986,0.001700674882158637,17367.0,14393.0,14548.0,17408.0,0.6913718581199646,0.46562057733535767,0.4762577414512634,0.6947425007820129,0.0,0.0,0.0,0.0,20743.0,8575.0,18568.0,13067.0,2.36067533493042,-0.013186400273340572,0.08250369364210611,-0.13012830045920243,-0.018905578181147575,-5.8528217778075486e-05,0.0
206,5,0.0004464636149350554,-0.00012456410331651568,-3.746459697140381e-05,0.01647571288049221,0.008326721377670765,-0.0037916034925729036,-0.004122466780245304,-0.07003490626811981,0.04851334169507027,0.021742749959230423,0.01247061975300312,0.33329126238822937,0.0,0.0,0.0,-0.01340502593666315,0.017185164615511894,-0.0,0.0,0.0,0.0,-0.00017252445104531944,0.02196861058473587,0.013289494439959526,20999.0,8220.0,18911.0,12346.0,1.027259349822998,0.13867291808128357,0.8260233402252197,0.3360242247581482,0.0,0.0,0.0,0.0,19921.0,10269.0,17767.0,14478.0,2.370614767074585,-0.012420064813508363,0.08377037842843485,-0.13037067358289262,-0.09815359115600586,-0.058899763971567154,0.0
211,5,0.0005228088120929897,-0.0001024762968881987,-5.060403054812923e-05,0.015751710161566734,0.00068015226861462,6.009085336700082e-05,-0.004122466780245304,-0.07003490626811981,0.04851334169507027,0.021742749959230423,0.01247061975300312,0.33329126238822937,0.0,0.0,0.0,-0.01340502593666315,0.017185164615511894,-0.0,0.0,0.0,0.0,-0.00017252445104531944,0.02196861058473587,0.013289494439959526,20999.0,8220.0,18911.0,12346.0,1.027259349822998,0.13867291808128357,0.8260233402252197,0.3360242247581482,0.0,0.0,0.0,0.0,19921.0,10269.0,17767.0,14478.0,2.370614767074585,-0.013321777433290567,0.08382574646467889,-0.12959480607302667,-0.09815359115600586,-0.058899763971567154,0.0
217,5,0.0005866323481313884,-0.00011101796553703025,-2.7965625122305937e-05,0.013959507457911968,0.0012970606330782175,-0.0026925725396722555,-0.0041813477873802185,-0.07070383429527283,0.04874884709715843,-0.014840073883533478,0.11563418060541153,-0.018366210162639618,0.0,0.0,0.0,-0.0007095832843333483,0.010845456272363663,-0.0,0.0,0.0,0.0,0.0029367434326559305,0.026004668325185776,0.0012846698518842459,18164.0,13186.0,15513.0,16884.0,0.7594313621520996,0.38666167855262756,0.5454434156417847,0.6516447067260742,0.0,0.0,0.0,0.0,19629.0,10771.0,17207.0,15190.0,2.3701915740966797,-0.0135293597274237,0.08414268161926443,-0.1291783244326574,-0.06194048002362251,-0.0031174200121313334,0.0
222,5,0.0006899730651639402,-9.494349069427699e-05,-4.6967070375103503e-05,0.01798468455672264,-0.0014101122505962849,0.0012031446676701307,-0.0041813477873802185,-0.07070383429527283,0.04874884709715843,-0.014840073883533478,0.11563418060541153,-0.018366210162639618,0.0,0.0,0.0,-0.0007095832843333483,0.010845456272363663,-0.0,0.0,0.0,0.0,0.0029367434326559305,0.026004668325185776,0.0012846698518842459,18164.0,13186.0,15513.0,16884.0,0.7594313621520996,0.38666167855262756,0.5454434156417847,0.6516447067260742,0.0,0.0,0.0,0.0,19629.0,10771.0,17207.0,15190.0,2.3701915740966797,-0.01298717237380349,0.08519421080102457,-0.12929393446180032,-0.06194048002362251,-0.0031174200121313334,0.0
227,5,0.0007807596703059971,-9.398748079547659e-05,-9.438489360036328e-05,0.018088268116116524,-0.000678766518831253,0.006171396467834711,-0.004280514549463987,-0.07152366638183594,0.04977186396718025,0.0010822165058925748,0.10743489861488342,-0.029497677460312843,0.0,0.0,0.0,0.0010821032337844372,0.012451768852770329,-0.0,0.0,0.0,0.0,0.001389805693179369,0.024988926947116852,0.006212081294506788,18901.0,12481.0,16334.0,16021.0,0.8251439332962036,0.3439105749130249,0.6079513430595398,0.5836694240570068,0.0,0.0,0.0,0.0,18688.0,12834.0,15956.0,16375.0,2.3742573261260986,-0.012730699160352313,0.08613157921807266,-0.1285623593742467,-0.07123595476150513,0.0047621699050068855,0.0
232,5,0.0008323381771333516,-0.00011866301065310836,-6.185522943269461e-05,0.013424727134406567,0.0026895576156675816,-0.0014350012643262744,-0.004280514549463987,-0.07152366638183594,0.04977186396718025,0.0010822165058925748,0.10743489861488342,-0.029497677460312843,0.0,0.0,0.0,0.0010821032337844372,0.012451768852770329,-0.0,0.0,0.0,0.0,0.001389805693179369,0.024988926947116852,0.006212081294506788,18901.0,12481.0,16334.0,16021.0,0.8251439332962036,0.3439105749130249,0.6079513430595398,0.5836694240570068,0.0,0.0,0.0,0.0,18688.0,12834.0,15956.0,16375.0,2.3742573261260986,-0.012414823251853961,0.08777572724626069,-0.12842844300193867,-0.07123595476150513,0.0047621699050068855,0.0
237,5,0.0008494668290950358,-0.00018837896641343832,7.006167288636789e-05,0.007425331976264715,0.0094417380169034,-0.016404028981924057,-0.0043136063031852245,-0.07367683947086334,0.0500435009598732,-0.0013763762544840574,0.26187512278556824,0.0863298773765564,0.0,0.0,0.0,-0.002423324389383197,0.009530549868941307,-0.0,0.0,0.0,0.0,-0.0021610239055007696,0.03341654688119888,0.007275140378624201,20133.0,11019.0,16410.0,15606.0,0.94114089012146,0.26322805881500244,0.6139144897460938,0.5523313283920288,0.0,0.0,0.0,0.0,19950.0,11609.0,15952.0,15898.0,2.391578435897827,-0.011903105175841654,0.08971875944150742,-0.1287573955903159,-0.054922036826610565,-0.010742465034127235,0.0
242,5,0.0008956663659773767,-0.00015005537716206163,0.00011833581811515614,0.008514080196619034,-0.0008221364114433527,-0.012354508973658085,-0.0043136063031852245,-0.07367683947086334,0.0500435009598732,-0.0013763762544840574,0.26187512278556824,0.0863298773765564,0.0,0.0,0.0,-0.002423324389383197,0.009530549868941307,-0.0,0.0,0.0,0.0,-0.0021610239055007696,0.03341654688119888,0.007275140378624201,20133.0,11019.0,16410.0,15606.0,0.94114089012146,0.26322805881500244,0.6139144897460938,0.5523313283920288,0.0,0.0,0.0,0.0,19950.0,11609.0,15952.0,15898.0,2.391578435897827,-0.009333463451205391,0.09137298533589092,-0.12811492003648192,-0.054922036826610565,-0.010742465034127235,0.0
247,5,0.0009125475771725178,-0.00017077958909794688,0.00022754639212507755,0.005431376397609711,0.0021580515895038843,-0.018047071993350983,-0.003631694009527564,-0.07602232694625854,0.050259582698345184,0.1176779717206955,0.3084830045700073,0.01113269291818142,0.0,0.0,0.0,0.0005073240026831627,0.006383849307894707,-0.0,0.0,0.0,0.0,-0.0012505962513387203,0.030230147764086723,0.007245637010782957,19622.0,11712.0,15907.0,16272.0,0.8920668363571167,0.30011680722236633,0.5749586820602417,0.6030492782592773,0.0,0.0,0.0,0.0,19634.0,11743.0,15959.0,16183.0,2.3961098194122314,-0.007149177556774662,0.09302548470880316,-0.1278954178954074,-0.03685854747891426,0.002253204584121704,0.0
252,5,0.0009204568341374397,-0.00016625823627691716,0.0002907931921072304,0.0031216598581522703,0.00032065800041891634,-0.014808444306254387,-0.003631694009527564,-0.07602232694625854,0.050259582698345184,0.1176779717206955,0.3084830045700073,0.01113269291818142,0.0,0.0,0.0,0.0005073240026831627,0.006383849307894707,-0.0,0.0,0.0,0.0,-0.0012505962513387203,0.030230147764086723,0.007245637010782957,19622.0,11712.0,15907.0,16272.0,0.8920668363571167,0.30011680722236633,0.5749586820602417,0.6030492782592773,0.0,0.0,0.0,0.0,19634.0,11743.0,15959.0,16183.0,2.3961098194122314,-0.004239127219255346,0.09296277670576053,-0.12757789261326744,-0.03685854747891426,0.002253204584121704,0.0
257,5,0.000776961212977767,-0.00018837106472346932,0.0006390794296748936,-0.015970813110470772,0.002781803021207452,-0.04771772399544716,-0.0020829839631915092,-0.078451007604599,0.050885193049907684,0.15460467338562012,0.04510205611586571,0.051856718957424164,0.0,0.0,0.0,-0.00047497014747932553,0.0028885931242257357,-0.0,0.0,0.0,0.0,-0.0012505962513387203,0.030230147764086723,0.007245637010782957,19774.0,11590.0,16559.0,15557.0,0.9065300822257996,0.29344189167022705,0.6256369948387146,0.5486482977867126,0.0,0.0,0.0,0.0,19399.0,12242.0,16361.0,15750.0,2.4102649688720703,-0.004015281747269014,0.09344774518995423,-0.1264696494242415,-0.016776541247963905,-0.002121971920132637,0.0
262,5,0.0008935699006542563,-0.00011514899233588949,0.0005946908495388925,0.007604718208312988,-0.007673927582800388,-0.013760464265942574,-0.0020829839631915092,-0.078451007604599,0.050885193049907684,0.15460467338562012,0.04510205611586571,0.051856718957424164,0.0,0.0,0.0,-0.00047497014747932553,0.0028885931242257357,-0.0,0.0,0.0,0.0,-0.0012505962513387203,0.030230147764086723,0.007245637010782957,19774.0,11590.0,16559.0,15557.0,0.9065300822257996,0.29344189167022705,0.6256369948387146,0.5486482977867126,0.0,0.0,0.0,0.0,19399.0,12242.0,16361.0,15750.0,2.4102649688720703,0.0014405616254306865,0.09166009591288128,-0.12591045383607502,-0.016776541247963905,-0.002121971920132637,0.0
267,5,0.0008264214848168194,-0.00014273407578002661,0.0007637407979927957,-0.005015923175960779,0.00024063907039817423,-0.025790179148316383,-0.0006494307890534401,-0.07770595699548721,0.051029566675424576,0.2015206515789032,-0.3468066155910492,0.05197645351290703,0.0,0.0,0.0,0.0062918830662965775,0.005752438213676214,-0.0,0.0,0.0,0.0,-0.004936652723699808,0.007779412902891636,0.005163807421922684,19232.0,12967.0,16856.0,15075.0,0.855601966381073,0.3731021285057068,0.6494138836860657,0.5134604573249817,0.0,0.0,0.0,0.0,19263.0,13037.0,17195.0,14583.0,2.412769079208374,0.004119907882172629,0.08964563810345354,-0.12579068010717095,-0.03344326093792915,0.0281384214758873,0.0
272,5,0.0007593462942168117,-0.00016342509479727596,0.0009684656397439539,-0.010055389255285263,0.0025791781954467297,-0.034883052110672,-0.0006494307890534401,-0.07770595699548721,0.051029566675424576,0.2015206515789032,-0.3468066155910492,0.05197645351290703,0.0,0.0,0.0,0.0062918830662965775,0.005752438213676214,-0.0,0.0,0.0,0.0,-0.004936652723699808,0.007779412902891636,0.005163807421922684,19232.0,12967.0,16856.0,15075.0,0.855601966381073,0.3731021285057068,0.6494138836860657,0.5134604573249817,0.0,0.0,0.0,0.0,19263.0,13037.0,17195.0,14583.0,2.412769079208374,0.00612483179724761,0.08577789011199746,-0.12542002077578368,-0.03344326093792915,0.0281384214758873,0.0
278,5,0.0006941424799151719,-0.0002950143243651837,0.0012726468266919255,-0.011846615001559258,0.01682237908244133,-0.05045495927333832,0.0024083119351416826,-0.07156245410442352,0.05134128779172897,0.30353984236717224,-0.7447733283042908,-0.03428233042359352,0.0,0.0,0.0,-0.0023650412913411856,-0.005765244364738464,-0.0,0.0,0.0,0.0,-0.007191960234194994,-0.0030731018632650375,0.005089526996016502,18167.0,15000.0,17796.0,13632.0,0.7596175074577332,0.5080531239509583,0.7275926470756531,0.41500169038772583,0.0,0.0,0.0,0.0,17981.0,14961.0,16913.0,14793.0,2.4127280712127686,0.00037766592284053496,0.07625911669433193,-0.12684793384335147,0.03351771458983421,-0.010576815344393253,0.0
283,5,0.00038525424315594137,-0.0002671781403478235,0.001640631235204637,-0.04180523380637169,0.0033886092714965343,-0.06434011459350586,0.0024083119351416826,-0.07156245410442352,0.05134128779172897,0.30353984236717224,-0.7447733283042908,-0.03428233042359352,0.0,0.0,0.0,-0.0023650412913411856,-0.005765244364738464,-0.0,0.0,0.0,0.0,-0.007191960234194994,-0.0030731018632650375,0.005089526996016502,18167.0,15000.0,17796.0,13632.0,0.7596175074577332,0.5080531239509583,0.7275926470756531,0.41500169038772583,0.0,0.0,0.0,0.0,17981.0,14961.0,16913.0,14793.0,2.4127280712127686,0.010497256708942273,0.07974878718283993,-0.12650444494977264,0.03351771458983421,-0.010576815344393253,0.0
288,5,0.0005064184661023319,-0.0002528795739635825,0.001443570014089346,-0.0021823833230882883,-0.0003603844088502228,-0.0020886939018964767,0.0024083119351416826,-0.07156245410442352,0.05134128779172897,0.30353984236717224,-0.7447733283042908,-0.03428233042359352,0.0,0.0,0.0,-0.0031636497005820274,-0.026534782722592354,-0.0,0.0,0.0,0.0,-0.007191960234194994,-0.0030731018632650375,0.005089526996016502,18167.0,15000.0,17796.0,13632.0,0.7596175074577332,0.5080531239509583,0.7275926470756531,0.41500169038772583,0.0,0.0,0.0,0.0,17981.0,14961.0,16913.0,14793.0,2.418776273727417,0.01357861873857485,0.0729379829147257,-0.12652105535392483,0.15463578701019287,-0.01418375875800848,0.0
293,5,0.000400758784962818,-0.0002934057265520096,0.0015860567800700665,-0.01355211716145277,0.0047189840115606785,-0.01793389394879341,0.0097479447722435,-0.05308941751718521,0.05116164684295654,0.3363000750541687,-0.9721874594688416,-0.022943176329135895,0.0,0.0,0.0,-0.0031636497005820274,-0.026534782722592354,-0.0,0.0,0.0,0.0,-0.008839852176606655,-0.009130677208304405,0.00526091456413269,17732.0,15743.0,17862.0,13315.0,0.7221120595932007,0.5626248121261597,0.7332749366760254,0.3947162330150604,0.0,0.0,0.0,0.0,18228.0,15088.0,17971.0,13211.0,2.418776273727417,0.01299760965341483,0.06821130286253688,-0.12642391685440132,0.15463578701019287,-0.01418375875800848,0.0
298,5,0.0003621459472924471,-0.0003470789815764874,0.0016668930184096098,-0.010054388083517551,0.008328385651111603,-0.016873899847269058,0.0097479447722435,-0.05308941751718521,0.05116164684295654,0.3363000750541687,-0.9721874594688416,-0.022943176329135895,0.0,0.0,0.0,-0.004315554164350033,-0.008351693861186504,-0.0,0.0,0.0,0.0,-0.008839852176606655,-0.009130677208304405,0.00526091456413269,17732.0,15743.0,17862.0,13315.0,0.7221120595932007,0.5626248121261597,0.7332749366760254,0.3947162330150604,0.0,0.0,0.0,0.0,18228.0,15088.0,17971.0,13211.0,2.415005922317505,0.014106730443172712,0.064844311662713,-0.12677386073836694,0.04859992489218712,-0.01931794360280037,0.0
303,5,0.0003373697109054774,-0.00037242640974000096,0.001754030934534967,-0.0069949026219546795,0.006373042706400156,-0.017206117510795593,0.01216759905219078,-0.04587361589074135,0.0506417416036129,0.2310131937265396,-0.7523183822631836,-0.05336473882198334,0.0,0.0,0.0,-0.004315554164350033,-0.008351693861186504,-0.0,0.0,0.0,0.0,-0.008640309795737267,-0.014285060577094555,0.0036545097827911377,17122.0,16378.0,17717.0,13640.0,0.6710749268531799,0.6113678812980652,0.7208662629127502,0.41546720266342163,0.0,0.0,0.0,0.0,17541.0,15935.0,17637.0,13642.0,2.415005922317505,0.01429099054522365,0.0623071133237863,-0.12626428881369434,0.04859992489218712,-0.01931794360280037,0.0
308,5,0.00035833733272738755,-0.0005514385411515832,0.0019650643225759268,-0.0002818488865159452,0.024030670523643494,-0.03220644220709801,0.01216759905219078,-0.04587361589074135,0.0506417416036129,0.2310131937265396,-0.7523183822631836,-0.05336473882198334,0.0,0.0,0.0,-0.005819801241159439,-0.004201071802526712,-0.0,0.0,0.0,0.0,-0.008640309795737267,-0.014285060577094555,0.0036545097827911377,17122.0,16378.0,17717.0,13640.0,0.6710749268531799,0.6113678812980652,0.7208662629127502,0.41546720266342163,0.0,0.0,0.0,0.0,17541.0,15935.0,17637.0,13642.0,2.406219482421875,-0.00010891701023290533,0.050313352163779856,-0.127635955860287,0.024357829242944717,-0.02595658041536808,0.0
313,5,0.0003260149387642741,-0.000446392223238945,0.0019304800080135465,-0.0039914255030453205,-0.002993284957483411,-0.008732475340366364,0.013685392215847969,-0.038550496101379395,0.05045079439878464,-0.001705746864899993,-0.42899879813194275,0.016748996451497078,0.0,0.0,0.0,-0.005819801241159439,-0.004201071802526712,-0.0,0.0,0.0,0.0,-0.005901802331209183,-0.008237291127443314,0.005598990246653557,17870.0,15201.0,18091.0,13543.0,0.7339240908622742,0.5225885510444641,0.7530223727226257,0.409241259098053,0.0,0.0,0.0,0.0,17426.0,15973.0,17896.0,13497.0,2.406219482421875,0.01311574117717509,0.060496558914058425,-0.12591286282639927,0.024357829242944717,-0.02595658041536808,0.0
318,5,0.00045164156472310424,-0.00044780861935578287,0.0018225213279947639,0.013478622771799564,-0.0010273481020703912,0.009462055750191212,0.013685392215847969,-0.038550496101379395,0.05045079439878464,-0.001705746864899993,-0.42899879813194275,0.016748996451497078,0.0,0.0,0.0,0.0019664845895022154,-0.0022721225395798683,-0.0,0.0,0.0,0.0,-0.005901802331209183,-0.008237291127443314,0.005598990246653557,17870.0,15201.0,18091.0,13543.0,0.7339240908622742,0.5225885510444641,0.7530223727226257,0.409241259098053,0.0,0.0,0.0,0.0,17426.0,15973.0,17896.0,13497.0,2.402949810028076,0.011653798011704353,0.05974278580462502,-0.1257644304109312,0.013156100176274776,0.008758774027228355,0.0
323,5,0.0005138956476002932,-0.0004893823643215001,0.0017784592928364873,0.012861941009759903,0.004577909596264362,0.009072265587747097,0.012850982137024403,-0.0371568463742733,0.05062031000852585,-0.16074472665786743,0.05284559726715088,0.012642544694244862,0.0,0.0,0.0,0.0019664845895022154,-0.0022721225395798683,-0.0,0.0,0.0,0.0,-0.00285749277099967,0.008036773651838303,0.005831429734826088,18694.0,13750.0,17176.0,14911.0,0.8063807487487793,0.42260730266571045,0.6755019426345825,0.5017294883728027,0.0,0.0,0.0,0.0,18368.0,14424.0,17819.0,14019.0,2.402949810028076,0.01074122469839074,0.061639786115212994,-0.1256746456067532,0.013156100176274776,0.008758774027228355,0.0
328,5,0.0006021244917064905,-0.000501451431773603,0.0016655789222568274,0.015732238069176674,0.003279451746493578,0.017174558714032173,0.012850982137024403,-0.0371568463742733,0.05062031000852585,-0.16074472665786743,0.05284559726715088,0.012642544694244862,0.0,0.0,0.0,-0.004455964080989361,0.008810930885374546,-0.0,0.0,0.0,0.0,-0.00285749277099967,0.008036773651838303,0.005831429734826088,18694.0,13750.0,17176.0,14911.0,0.8063807487487793,0.42260730266571045,0.6755019426345825,0.5017294883728027,0.0,0.0,0.0,0.0,18368.0,14424.0,17819.0,14019.0,2.4059135913848877,0.01167107364716344,0.06295194275194844,-0.12548053878705076,-0.0510791651904583,-0.019871363416314125,-0.0
334,5,0.0006893140380270779,-0.0005227972287684679,0.0015967651270329952,0.016755640506744385,0.003873277921229601,0.015127469785511494,0.011007538065314293,-0.04006750136613846,0.05099073797464371,-0.13350345194339752,0.36150118708610535,0.04607599973678589,0.0,0.0,0.0,-0.004455964080989361,0.008810930885374546,-0.0,0.0,0.0,0.0,-0.002848892705515027,0.01883303001523018,0.006273492239415646,19274.0,12898.0,16983.0,15140.0,0.8594435453414917,0.36889779567718506,0.6597168445587158,0.5181612968444824,0.0,0.0,0.0,0.0,18808.0,13547.0,17073.0,15067.0,2.4059135913848877,0.011116881294430545,0.06446547189876377,-0.12574859714398956,-0.0510791651904583,-0.019871363416314125,-0.0
339,5,0.000839799817185849,-0.0005985251045785844,0.0014906672295182943,0.024760551750659943,0.010636652819812298,0.01878274418413639,0.011007538065314293,-0.04006750136613846,0.05099073797464371,-0.13350345194339752,0.36150118708610535,0.04607599973678589,0.0,0.0,0.0,-0.0038948683068156242,0.011466531082987785,-0.0,0.0,0.0,0.0,-0.002848892705515027,0.01883303001523018,0.006273492239415646,19274.0,12898.0,16983.0,15140.0,0.8594435453414917,0.36889779567718506,0.6597168445587158,0.5181612968444824,0.0,0.0,0.0,0.0,18808.0,13547.0,17073.0,15067.0,2.412205696105957,0.006980727403083228,0.062052304649070494,-0.1263877202076562,-0.06664775311946869,-0.017414607107639313,-0.0
344,5,0.0008297251770272851,-0.0006978640449233353,0.001597863039933145,0.00869525782763958,0.01617533527314663,-0.005350406281650066,0.010225435718894005,-0.0432732068002224,0.05154779553413391,-0.041742466390132904,0.40861034393310547,0.055375874042510986,0.0,0.0,0.0,-0.0038948683068156242,0.011466531082987785,-0.0,0.0,0.0,0.0,-0.001291595515795052,0.0227874256670475,0.007092911750078201,19534.0,12261.0,17022.0,15237.0,0.8838317394256592,0.3310728073120117,0.6628727912902832,0.5251724720001221,0.0,0.0,0.0,0.0,19401.0,12358.0,17113.0,15230.0,2.412205696105957,0.0015095733320309647,0.06008914683971842,-0.12675781638334765,-0.06664775311946869,-0.017414607107639313,-0.0
349,5,0.0008345417445525527,-0.0007569013978354633,0.0016596978530287743,0.004056096542626619,0.013554618693888187,-0.009560342878103256,0.010225435718894005,-0.0432732068002224,0.05154779553413391,-0.041742466390132904,0.40861034393310547,0.055375874042510986,0.0,0.0,0.0,-0.014373022131621838,0.006375033874064684,-0.0,0.0,0.0,0.0,-0.001291595515795052,0.0227874256670475,0.007092911750078201,19534.0,12261.0,17022.0,15237.0,0.8838317394256592,0.3310728073120117,0.6628727912902832,0.5251724720001221,0.0,0.0,0.0,0.0,19401.0,12358.0,17113.0,15230.0,2.4216718673706055,0.0010421445858924835,0.06057583399056336,-0.12628536374346042,-0.037196483463048935,-0.06451263278722763,0.0
354,5,0.0009008565684780478,-0.0008093059877865016,0.0016617669025436044,0.009580213576555252,0.0117103960365057,-0.004072414245456457,0.01032660435885191,-0.047005631029605865,0.052068229764699936,0.04927754029631615,0.2044779509305954,0.030266690999269485,0.0,0.0,0.0,-0.014373022131621838,0.006375033874064684,-0.0,0.0,0.0,0.0,-0.005266391672194004,0.023862211033701897,0.006525740958750248,19549.0,12810.0,16630.0,15247.0,0.8851633071899414,0.36352813243865967,0.6312905550003052,0.5259315967559814,0.0,0.0,0.0,0.0,19733.0,12298.0,16660.0,15391.0,2.4216718673706055,0.003068146773784115,0.061741030064316284,-0.12614585975467282,-0.037196483463048935,-0.06451263278722763,0.0
359,5,0.0009653189918026328,-0.0008473796769976616,0.0016005804063752294,0.01156757865101099,0.009253003634512424,0.005713411141186953,0.01032660435885191,-0.047005631029605865,0.052068229764699936,0.04927754029631615,0.2044779509305954,0.030266690999269485,0.0,0.0,0.0,-0.010741421952843666,0.006986277177929878,-0.0,0.0,0.0,0.0,-0.005266391672194004,0.023862211033701897,0.006525740958750248,19549.0,12810.0,16630.0,15247.0,0.8851633071899414,0.36352813243865967,0.6312905550003052,0.5259315967559814,0.0,0.0,0.0,0.0,19733.0,12298.0,16660.0,15391.0,2.430269479751587,0.005583521894891326,0.06194606639807939,-0.12610325144967396,-0.04090944305062294,-0.04838487133383751,0.0
364,5,0.001000910997390747,-0.0008100454579107463,0.0015804156428202987,0.0035957510117441416,-0.0009697896894067526,0.0013842472108080983,0.010689142160117626,-0.047507286071777344,0.052249424159526825,0.03223605826497078,-0.07104931771755219,0.02102178893983364,0.0,0.0,0.0,-0.010741421952843666,0.006986277177929878,-0.0,0.0,0.0,0.0,-0.0050464533269405365,0.01789191924035549,0.005841070786118507,19154.0,13398.0,16886.0,15055.0,0.8483163714408875,0.40001004934310913,0.6518731713294983,0.5120061039924622,0.0,0.0,0.0,0.0,19534.0,12844.0,16757.0,15184.0,2.430269479751587,0.010022409695765748,0.06254214970493814,-0.1259900145451286,-0.04090944305062294,-0.04838487133383751,0.0
369,5,0.0009885482722893357,-0.0008375578909181058,0.0016371217789128423,-4.521858863881789e-05,0.002913575153797865,-0.006251037120819092,0.010689142160117626,-0.047507286071777344,0.052249424159526825,0.03223605826497078,-0.07104931771755219,0.02102178893983364,0.0,0.0,0.0,-0.00018649509001988918,0.0032443911768496037,-0.0,0.0,0.0,0.0,-0.0050464533269405365,0.01789191924035549,0.005841070786118507,19154.0,13398.0,16886.0,15055.0,0.8483163714408875,0.40001004934310913,0.6518731713294983,0.5120061039924622,0.0,0.0,0.0,0.0,19534.0,12844.0,16757.0,15184.0,2.4331037998199463,0.011509220463984011,0.06205713294686363,-0.12460824302313452,-0.01902151107788086,-0.0008410786394961178,-0.0
375,5,0.0009755585924722254,-0.0008871049503795803,0.0016528634587302804,-0.001576852286234498,0.007111078128218651,-0.004389412701129913,0.011085179634392262,-0.045277755707502365,0.05240725725889206,-0.005491923075169325,-0.2887783944606781,0.02180786430835724,0.0,0.0,0.0,-0.00018649509001988918,0.0032443911768496037,-0.0,0.0,0.0,0.0,-0.007833768613636494,0.00983828492462635,0.005862086080014706,18981.0,14087.0,17212.0,14396.0,0.8324641585350037,0.44490283727645874,0.6784684062004089,0.46583646535873413,0.0,0.0,0.0,0.0,19104.0,13953.0,16903.0,14726.0,2.4331037998199463,0.010850524587700448,0.060940859171750794,-0.12403198347962502,-0.01902151107788086,-0.0008410786394961178,-0.0
380,5,0.0010032422142103314,-0.0009136561420746148,0.0017133133951574564,0.0026912877801805735,0.006030575837939978,-0.00900975614786148,0.011085179634392262,-0.045277755707502365,0.05240725725889206,-0.005491923075169325,-0.2887783944606781,0.02180786430835724,0.0,0.0,0.0,-0.00018649509001988918,0.0032443911768496037,-0.0,0.0,0.0,0.0,-0.007833768613636494,0.00983828492462635,0.005862086080014706,18981.0,14087.0,17212.0,14396.0,0.8324641585350037,0.44490283727645874,0.6784684062004089,0.46583646535873413,0.0,0.0,0.0,0.0,19104.0,13953.0,16903.0,14726.0,2.4331037998199463,0.009307513213247208,0.058787247504126075,-0.12457584265288255,-0.01902151107788086,-0.0008410786394961178,-0.0
385,5,0.0010636518709361553,-0.000946862215641886,0.0017028248403221369,0.008325674571096897,0.006396960001438856,-0.0023452709428966045,0.0108486982062459,-0.04261664301156998,0.05245881900191307,-0.053244370967149734,-0.3616347014904022,0.018006375059485435,0.0,0.0,0.0,-0.006127707194536924,0.0026657909620553255,-0.0,0.0,0.0,0.0,-0.005692840553820133,0.006227611564099789,0.005858027376234531,18696.0,14265.0,17476.0,14403.0,0.8066009283065796,0.4569167196750641,0.7004590034484863,0.4662928879261017,0.0,0.0,0.0,0.0,18824.0,14206.0,17345.0,14452.0,2.4357738494873047,0.006154255086533811,0.05529855706414449,-0.12447926580917376,-0.015646107494831085,-0.027665505185723305,0.0
390,5,0.0010864200303331017,-0.0010226565646007657,0.0017879043007269502,0.0060624489560723305,0.011654108762741089,-0.01114764716476202,0.0108486982062459,-0.04261664301156998,0.05245881900191307,-0.053244370967149734,-0.3616347014904022,0.018006375059485435,0.0,0.0,0.0,-0.006127707194536924,0.0026657909620553255,-0.0,0.0,0.0,0.0,-0.005692840553820133,0.006227611564099789,0.005858027376234531,18696.0,14265.0,17476.0,14403.0,0.8066009283065796,0.4569167196750641,0.7004590034484863,0.4662928879261017,0.0,0.0,0.0,0.0,18824.0,14206.0,17345.0,14452.0,2.4357738494873047,0.0007940687020204383,0.05111621329643519,-0.1246684405083297,-0.015646107494831085,-0.027665505185723305,0.0
395,5,0.0009639796335250139,-0.0010900608031079173,0.0020383980590850115,-0.01226786058396101,0.012750152498483658,-0.03451830521225929,0.009907660074532032,-0.038375455886125565,0.05284276232123375,-0.10477513819932938,-0.31750285625457764,0.053597405552864075,0.0,0.0,0.0,-0.010928059928119183,0.004896556492894888,-0.0,0.0,0.0,0.0,-0.0016281985444948077,0.004819140303879976,0.006697462871670723,18702.0,13761.0,18015.0,14256.0,0.8070897459983826,0.42333680391311646,0.7464081645011902,0.4562690854072571,0.0,0.0,0.0,0.0,18485.0,14168.0,17787.0,14431.0,2.4367523193359375,-0.0015068964235998062,0.050912295056571945,-0.12480885761133162,-0.028749242424964905,-0.04935683682560921,0.0
400,5,0.0008256579749286175,-0.0009821474086493254,0.002114203991368413,-0.021505748853087425,-0.0078495554625988,-0.022904040291905403,0.009907660074532032,-0.038375455886125565,0.05284276232123375,-0.10477513819932938,-0.31750285625457764,0.053597405552864075,0.0,0.0,0.0,-0.010928059928119183,0.004896556492894888,-0.0,0.0,0.0,0.0,-0.0016281985444948077,0.004819140303879976,0.006697462871670723,18702.0,13761.0,18015.0,14256.0,0.8070897459983826,0.42333680391311646,0.7464081645011902,0.4562690854072571,0.0,0.0,0.0,0.0,18485.0,14168.0,17787.0,14431.0,2.4367523193359375,0.009049400938338259,0.05955739807900387,-0.12404292790478735,-0.028749242424964905,-0.04935683682560921,0.0
405,5,0.0010199303505942225,-0.0009117565932683647,0.0018640836933627725,0.01471039466559887,-0.01158671360462904,0.020852819085121155,0.008913724683225155,-0.036384500563144684,0.05319555103778839,-0.13641425967216492,-0.16828235983848572,0.038078490644693375,0.0,0.0,0.0,0.0052999407052993774,-0.012920528650283813,-0.0,0.0,0.0,0.0,-0.002229649806395173,0.006847900804132223,0.006518997251987457,18753.0,13792.0,17780.0,14493.0,0.8116869330406189,0.4253501296043396,0.7262235283851624,0.47251325845718384,0.0,0.0,0.0,0.0,18852.0,13661.0,17812.0,14446.0,2.4431958198547363,0.007986861970160186,0.05735640027682116,-0.12298317386421627,0.07606279850006104,0.024001266807317734,0.0
410,5,0.001100206864066422,-0.0009092481923289597,0.001793161267414689,0.015517333522439003,-0.004935693461447954,0.016851818189024925,0.008913724683225155,-0.036384500563144684,0.05319555103778839,-0.13641425967216492,-0.16828235983848572,0.038078490644693375,0.0,0.0,0.0,0.0052999407052993774,-0.012920528650283813,-0.0,0.0,0.0,0.0,-0.002229649806395173,0.006847900804132223,0.006518997251987457,18753.0,13792.0,17780.0,14493.0,0.8116869330406189,0.4253501296043396,0.7262235283851624,0.47251325845718384,0.0,0.0,0.0,0.0,18852.0,13661.0,17812.0,14446.0,2.4431958198547363,0.007574518390932995,0.057104680562476126,-0.12234091602626881,0.07606279850006104,0.024001266807317734,0.0
415,5,0.001105763134546578,-0.0009537424193695188,0.0018572115805000067,0.006873679347336292,0.003365026554092765,-0.000945309002418071,0.007538720965385437,-0.03511814773082733,0.05388380587100983,-0.1247057393193245,-0.052580978721380234,0.06964801996946335,0.0,0.0,0.0,0.0029678659047931433,0.010894417762756348,-0.0,0.0,0.0,0.0,-0.003913328982889652,0.010427510365843773,0.007585177663713694,19308.0,13231.0,17819.0,14239.0,0.8625885844230652,0.3894791007041931,0.7295721173286438,0.4551125168800354,0.0,0.0,0.0,0.0,18916.0,13159.0,18416.0,14165.0,2.4489614963531494,0.006400753197795233,0.057387522447974695,-0.12170609442642853,-0.06428762525320053,0.013472048565745354,-0.0
420,5,0.0011383931851014495,-0.0009722195100039244,0.0018506534397602081,0.006665087305009365,0.00356326368637383,0.0004088497953489423,0.007538720965385437,-0.03511814773082733,0.05388380587100983,-0.1247057393193245,-0.052580978721380234,0.06964801996946335,0.0,0.0,0.0,0.0029678659047931433,0.010894417762756348,-0.0,0.0,0.0,0.0,-0.003913328982889652,0.010427510365843773,0.007585177663713694,19308.0,13231.0,17819.0,14239.0,0.8625885844230652,0.3894791007041931,0.7295721173286438,0.4551125168800354,0.0,0.0,0.0,0.0,18916.0,13159.0,18416.0,14165.0,2.4489614963531494,0.007418692875965047,0.057698052083402264,-0.12208051712551093,-0.06428762525320053,0.013472048565745354,-0.0
425,5,0.0011539566330611706,-0.000981369987130165,0.0019143534591421485,0.004533639643341303,0.002523357979953289,-0.007480456959456205,0.00682540237903595,-0.03509870544075966,0.05442981794476509,-0.10283830761909485,0.032820094376802444,0.049076616764068604,0.0,0.0,0.0,-0.004111415706574917,0.005280827172100544,-0.0,0.0,0.0,0.0,0.0009555082651786506,0.007670980878174305,0.007375400513410568,18806.0,13328.0,18136.0,14517.0,0.8164758682250977,0.39559030532836914,0.7569663524627686,0.474163293838501,0.0,0.0,0.0,0.0,18819.0,13262.0,18088.0,14621.0,2.460228443145752,0.006496943468846202,0.05791609642633008,-0.1223025508173121,-0.0313057117164135,-0.01874878630042076,-0.0
431,5,0.0011501370463520288,-0.000999037642031908,0.0019288541516289115,0.0013551164884120226,0.0031294641084969044,-0.004732263274490833,0.00682540237903595,-0.03509870544075966,0.05442981794476509,-0.10283830761909485,0.032820094376802444,0.049076616764068604,0.0,0.0,0.0,-0.004111415706574917,0.005280827172100544,-0.0,0.0,0.0,0.0,0.0009555082651786506,0.007670980878174305,0.007375400513410568,18806.0,13328.0,18136.0,14517.0,0.8164758682250977,0.39559030532836914,0.7569663524627686,0.474163293838501,0.0,0.0,0.0,0.0,18819.0,13262.0,18088.0,14621.0,2.460228443145752,0.006208545539912376,0.05823875410974655,-0.12200450818163484,-0.011461938731372356,-0.017273033037781715,0.0
436,5,0.0011620884761214256,-0.0010463285725563765,0.0019390025408938527,0.001976216910406947,0.006926693953573704,-0.0031107193790376186,0.006086931098252535,-0.03615174442529678,0.05482812598347664,0.005901271011680365,0.09016721695661545,0.021561149507761,0.0,0.0,0.0,-0.003774069482460618,0.001926449011079967,-0.0,0.0,0.0,0.0,-0.00033977898419834673,0.01640661060810089,0.006542916409671307,19207.0,13044.0,17422.0,15192.0,0.8532348275184631,0.3778591752052307,0.6959869265556335,0.521880567073822,0.0,0.0,0.0,0.0,19136.0,13215.0,17278.0,15300.0,2.4691758155822754,0.0062872731980237314,0.05824520424205881,-0.12030079189862833,-0.011461938731372356,-0.017273033037781715,0.0
441,5,0.0011536988895386457,-0.0010399965103715658,0.0019255036022514105,-0.00021627235400956124,0.0020108309108763933,0.00037558426265604794,0.006086931098252535,-0.03615174442529678,0.05482812598347664,0.005901271011680365,0.09016721695661545,0.021561149507761,0.0,0.0,0.0,-0.003774069482460618,0.001926449011079967,-0.0,0.0,0.0,0.0,-0.00033977898419834673,0.01640661060810089,0.006542916409671307,19207.0,13044.0,17422.0,15192.0,0.8532348275184631,0.3778591752052307,0.6959869265556335,0.521880567073822,0.0,0.0,0.0,0.0,19136.0,13215.0,17278.0,15300.0,2.4691758155822754,0.007217967056793725,0.058489072651737334,-0.12036614699694725,-0.005592858884483576,-0.013307073153555393,-0.0
446,5,0.001108476659283042,-0.0010423290077596903,0.0019477097084745765,-0.005513173993676901,0.0010842444607988,-0.0025144903920590878,0.006180346943438053,-0.03689238801598549,0.0550476610660553,0.001829428831115365,0.03700206056237221,0.0713496059179306,0.0,0.0,0.0,-0.002899866085499525,0.0009375332738272846,-0.0,0.0,0.0,0.0,-0.0029462571255862713,0.014976046979427338,0.0068600536324083805,19421.0,13127.0,17646.0,14734.0,0.8731650710105896,0.38300102949142456,0.7148206830024719,0.48924165964126587,0.0,0.0,0.0,0.0,19726.0,12703.0,18045.0,14195.0,2.4756951332092285,0.006256198633063778,0.05791792138196566,-0.12003235238698763,-0.005592858884483576,-0.013307073153555393,-0.0
451,5,0.001108476659283042,-0.0010423290077596903,0.0019477097084745765,-0.005513173993676901,0.0010842444607988,-0.0025144903920590878,0.006180346943438053,-0.03689238801598549,0.0550476610660553,0.001829428831115365,0.03700206056237221,0.0713496059179306,0.0,0.0,0.0,-0.002899866085499525,0.0009375332738272846,-0.0,0.0,0.0,0.0,-0.0029462571255862713,0.014976046979427338,0.0068600536324083805,19421.0,13127.0,17646.0,14734.0,0.8731650710105896,0.38300102949142456,0.7148206830024719,0.48924165964126587,0.0,0.0,0.0,0.0,19726.0,12703.0,18045.0,14195.0,2.4756951332092285,0.006256198633063778,0.05791792138196566,-0.12003235238698763,-0.005592858884483576,-0.013307073153555393,-0.0
456,5,0.001048721489496529,-0.0010641375556588173,0.0019328405614942312,-0.006933922879397869,0.0015909308567643166,-0.000384643382858485,0.0064668795093894005,-0.03707684576511383,0.05640232190489769,-0.0010796120623126626,-0.036360569298267365,0.10021278262138367,0.0,0.0,0.0,-0.0021431404165923595,-0.0024296878837049007,-0.0,0.0,0.0,0.0,-0.003419718472287059,0.011721234768629074,0.00901319831609726,19733.0,12761.0,18270.0,13973.0,0.902650773525238,0.3605915904045105,0.768642008304596,0.4372914433479309,0.0,0.0,0.0,0.0,19358.0,13245.0,18029.0,14368.0,2.479288101196289,0.007072406491497763,0.05792371113102923,-0.11976973309612902,0.014515364542603493,-0.009848850779235363,0.0
461,5,0.00102181953843683,-0.0010499474592506886,0.001966235926374793,-0.006001799367368221,-0.001066443626768887,-0.00416128896176815,0.0064668795093894005,-0.03707684576511383,0.05640232190489769,-0.0010796120623126626,-0.036360569298267365,0.10021278262138367,0.0,0.0,0.0,-0.0021431404165923595,-0.0024296878837049007,-0.0,0.0,0.0,0.0,-0.003419718472287059,0.011721234768629074,0.00901319831609726,19733.0,12761.0,18270.0,13973.0,0.902650773525238,0.3605915904045105,0.768642008304596,0.4372914433479309,0.0,0.0,0.0,0.0,19358.0,13245.0,18029.0,14368.0,2.479288101196289,0.005811577740255877,0.05649154809660169,-0.11926503648212763,0.014515364542603493,-0.009848850779235363,0.0
466,5,0.001059938222169876,-0.0010143702384084463,0.0019463920034468174,0.002173518529161811,-0.004695837385952473,0.0007167526637203991,0.006241756957024336,-0.03630419820547104,0.05673032999038696,-0.04690975695848465,-0.12520669400691986,0.07192559540271759,0.0,0.0,0.0,-0.00039456377271562815,-0.0027907676994800568,-0.0,0.0,0.0,0.0,-0.002304299734532833,0.008412261493504047,0.007002124097198248,19162.0,13509.0,18104.0,14389.0,0.8491129875183105,0.40707457065582275,0.7541613578796387,0.46534621715545654,0.0,0.0,0.0,0.0,19455.0,13054.0,18497.0,13894.0,2.501326084136963,0.0032864723742783704,0.0534904378207126,-0.1196738210633508,0.016820747405290604,-0.001829346758313477,0.0
471,5,0.0009577177697792649,-0.0011460499372333288,0.0021876643877476454,-0.011397045105695724,0.013923232443630695,-0.028665998950600624,0.006241756957024336,-0.03630419820547104,0.05673032999038696,-0.04690975695848465,-0.12520669400691986,0.07192559540271759,0.0,0.0,0.0,-0.00039456377271562815,-0.0027907676994800568,-0.0,0.0,0.0,0.0,-0.002304299734532833,0.008412261493504047,0.007002124097198248,19162.0,13509.0,18104.0,14389.0,0.8491129875183105,0.40707457065582275,0.7541613578796387,0.46534621715545654,0.0,0.0,0.0,0.0,19455.0,13054.0,18497.0,13894.0,2.501326084136963,-0.006382665730990548,0.04663852246398813,-0.12008919693940807,0.016820747405290604,-0.001829346758313477,0.0
476,5,0.0008128787740133703,-0.0010503801750019193,0.0022322330623865128,-0.02193950116634369,-0.005911090411245823,-0.016814639791846275,0.0056905061937868595,-0.03431987762451172,0.05805045738816261,-0.05170827358961105,-0.16415515542030334,0.10163653641939163,0.0,0.0,0.0,-0.012606069445610046,-0.006192272063344717,-0.0,0.0,0.0,0.0,-0.0017626327462494373,0.006117126904428005,0.009297899901866913,19485.0,13014.0,18701.0,13665.0,0.8791698217391968,0.3759913146495819,0.8070158958435059,0.41711100935935974,0.0,0.0,0.0,0.0,19342.0,13223.0,18591.0,13823.0,2.506869077682495,0.004419452701414718,0.05632377940998231,-0.11741891110653649,0.03740212693810463,-0.05857320502400398,0.0
481,5,0.0009487525094300508,-0.0009936656570062041,0.002037829253822565,0.007529052905738354,-0.009170175530016422,0.016602609306573868,0.0056905061937868595,-0.03431987762451172,0.05805045738816261,-0.05170827358961105,-0.16415515542030334,0.10163653641939163,0.0,0.0,0.0,-0.012606069445610046,-0.006192272063344717,-0.0,0.0,0.0,0.0,-0.0017626327462494373,0.006117126904428005,0.009297899901866913,19485.0,13014.0,18701.0,13665.0,0.8791698217391968,0.3759913146495819,0.8070158958435059,0.41711100935935974,0.0,0.0,0.0,0.0,19342.0,13223.0,18591.0,13823.0,2.506869077682495,0.005963748978579076,0.05388707014875133,-0.11800772494281889,0.03740212693810463,-0.05857320502400398,0.0
