timestamp,dt,pos_x,pos_y,pos_z,vel_x,vel_y,vel_z,roll,pitch,yaw,agv_x,agv_y,agv_z,x_ref,y_ref,z_ref,roll_ref,pitch_ref,yaw_ref,x_vel_ref,y_vel_ref,z_vel_ref,x_torque,y_torque,z_torque,w0,w1,w2,w3,u0,u1,u2,u3,m0req,m1req,m2req,m3req,thrust0,thrust1,thrust2,thrust3,thrust_ref,roll_vicon,pitch_vicon,yaw_vicon,acc_x,acc_y,acc_z
5,5,0.0,0.0,0.0,0.0011179123539477587,0.0001899471681099385,-0.000621933548245579,-0.003737276652827859,-0.09086369723081589,0.0027300009969621897,-0.00023518064699601382,0.0012415056116878986,-0.003964869771152735,0.0,0.0,0.0,-0.00023470993619412184,0.0010625836439430714,-0.0,0.0,0.0,0.0,0.0006669292924925685,0.027596475556492805,0.000301374529954046,1495.0,1495.0,1495.0,1495.0,0.0,0.0,0.0,0.0,0.0,0.0,0.0,0.0,1495.0,1495.0,1495.0,1495.0,1.637284278869629,0.04118454873209937,-0.05290739215834589,-0.04195529723602937,-0.004192171152681112,-0.0007123018731363118,0.0
33,28,0.0,0.0,0.0,-0.0008115018135868013,2.8939904950675555e-05,-0.0010393771808594465,-0.003737276652827859,-0.09086369723081589,0.0027300009969621897,-0.00023518064699601382,0.0012415056116878986,-0.003964869771152735,0.0,0.0,0.0,-0.00023470993619412184,0.0010625836439430714,-0.0,0.0,0.0,0.0,0.0006669292924925685,0.027596475556492805,0.000301374529954046,1495.0,1495.0,1495.0,1495.0,0.0,0.0,0.0,0.0,0.0,0.0,0.0,0.0,1495.0,1495.0,1495.0,1495.0,1.637284278869629,0.0412175731661431,-0.052788699770898194,-0.04190978337204719,-0.004192171152681112,-0.0007123018731363118,0.0
38,5,0.0,0.0,0.0,-0.0003181234351359308,-0.0009110372047871351,-0.0041161575354635715,-0.0037370123900473118,-0.09083880484104156,0.002696296898648143,0.0007800197345204651,-0.0012106822105124593,-0.0017392178997397423,0.0,0.0,0.0,-3.58314900950063e-05,-0.0007728833588771522,-0.0,0.0,0.0,0.0,0.0006996407173573971,0.02750997617840767,0.00023489011800847948,1495.0,1495.0,1495.0,1495.0,0.0,0.0,0.0,0.0,0.0,0.0,0.0,0.0,1495.0,1495.0,1495.0,1495.0,1.634010910987854,0.04139125224626706,-0.05299964453798128,-0.041903377894108605,0.0030431319028139114,-0.00010852464038180187,0.0
43,5,0.0,0.0,0.0,0.0030441326089203358,0.000797706947196275,-0.001191276009194553,-0.0037370123900473118,-0.09083880484104156,0.002696296898648143,0.0007800197345204651,-0.0012106822105124593,-0.0017392178997397423,0.0,0.0,0.0,-3.58314900950063e-05,-0.0007728833588771522,-0.0,0.0,0.0,0.0,0.0006996407173573971,0.02750997617840767,0.00023489011800847948,1495.0,1495.0,1495.0,1495.0,0.0,0.0,0.0,0.0,0.0,0.0,0.0,0.0,1495.0,1495.0,1495.0,1495.0,1.634010910987854,0.04151720006218901,-0.05315460386866548,-0.04178028171906696,0.0030431319028139114,-0.00010852464038180187,0.0
61,17,0.0,0.0,0.0,0.0014783581718802452,-5.1131515647284687e-05,-0.005427565425634384,-0.003756989259272814,-0.09085241705179214,0.0027069104835391045,-0.0029862504452466965,0.004412231966853142,0.0013048606924712658,0.0,0.0,0.0,-0.0009735567728057504,0.0028578457422554493,-0.0,0.0,0.0,0.0,0.0007581165991723537,0.027614250779151917,0.00031243619741871953,1495.0,1495.0,1495.0,1495.0,0.0,0.0,0.0,0.0,0.0,0.0,0.0,0.0,1495.0,1495.0,1495.0,1495.0,1.65769624710083,0.041039891304168206,-0.053193967897869884,-0.041518399891804975,-0.011415497399866581,-0.0029914011247456074,0.0
66,5,1.4126695532468148e-05,2.34001981880283e-06,-2.512136234145146e-05,0.00018047307094093412,-0.000581511587370187,0.00242410134524107,-0.0037309869658201933,-0.09089374542236328,0.0027186141815036535,0.0038147566374391317,0.004627079237252474,-0.0032408912666141987,0.0,0.0,0.0,0.0007251148927025497,0.00019186137069482356,-0.0,0.0,0.0,0.0,0.0006772680208086967,0.027115538716316223,0.00027346532442606986,15364.0,11277.0,11592.0,15293.0,0.5344550609588623,0.27670690417289734,0.29359135031700134,0.5292576551437378,0.0,0.0,0.0,0.0,15399.0,11218.0,11647.0,15260.0,1.6320430040359497,0.04146382049506544,-0.052844762729362185,-0.0419042904451301,-0.0007545202970504761,0.0021935468539595604,0.0
73,8,-2.954129558929708e-05,1.4189919966156594e-05,-6.862902228021994e-05,-0.0037510835099965334,-0.0008457335643470287,0.005791156552731991,-0.0037309869658201933,-0.09089374542236328,0.0027186141815036535,0.0038147566374391317,0.004627079237252474,-0.0032408912666141987,0.0,0.0,0.0,0.0007251148927025497,0.00019186137069482356,-0.0,0.0,0.0,0.0,0.0006772680208086967,0.027115538716316223,0.00027346532442606986,15364.0,11277.0,11592.0,15293.0,0.5344550609588623,0.27670690417289734,0.29359135031700134,0.5292576551437378,0.0,0.0,0.0,0.0,15399.0,11218.0,11647.0,15260.0,1.6320430040359497,0.041228394411468854,-0.053233355333488164,-0.04176524836545745,-0.0007545202970504761,0.0021935468539595604,0.0
78,5,-3.383735383977182e-05,4.064750555698993e-06,-8.780797361396253e-05,-0.002015960169956088,0.0008767269318923354,0.004617936909198761,-0.0037309869658201933,-0.09089374542236328,0.0027186141815036535,0.0038147566374391317,0.004627079237252474,-0.0032408912666141987,0.0,0.0,0.0,0.0007251148927025497,0.00019186137069482356,-0.0,0.0,0.0,0.0,0.0006772680208086967,0.027115538716316223,0.00027346532442606986,15364.0,11277.0,11592.0,15293.0,0.5344550609588623,0.27670690417289734,0.29359135031700134,0.5292576551437378,0.0,0.0,0.0,0.0,15399.0,11218.0,11647.0,15260.0,1.6320430040359497,0.04052904626834122,-0.05305223241071466,-0.041846039677560086,-0.0007545202970504761,0.0021935468539595604,0.0
84,5,-3.996966916020028e-05,9.328893611382227e-06,-7.538805220974609e-05,-0.0015422622673213482,-0.0002810064179357141,0.0003567840903997421,-0.0037187125999480486,-0.09089003503322601,0.0027106364723294973,-0.0032503094989806414,-0.004711256828159094,0.003555313451215625,0.0,0.0,0.0,-0.0010686229215934873,-0.001949983648955822,-0.0,0.0,0.0,0.0,0.0005753778386861086,0.028134465217590332,0.00019066742970608175,15388.0,11229.0,11662.0,15251.0,0.5362107157707214,0.27417492866516113,0.29741501808166504,0.5262102484703064,0.0,0.0,0.0,0.0,15410.0,11196.0,11698.0,15227.0,1.648528814315796,0.04110186545707751,-0.053059659490564855,-0.042143931335706285,0.007746024988591671,-0.0032653475645929575,0.0
89,5,-3.914396438631229e-05,3.886410922859795e-06,-5.201300518820062e-05,-0.0005178201827220619,0.0005406953277997673,-0.002662292215973139,-0.0037187125999480486,-0.09089003503322601,0.0027106364723294973,-0.0032503094989806414,-0.004711256828159094,0.003555313451215625,0.0,0.0,0.0,-0.0010686229215934873,-0.001949983648955822,-0.0,0.0,0.0,0.0,0.0005753778386861086,0.028134465217590332,0.00019066742970608175,15388.0,11229.0,11662.0,15251.0,0.5362107157707214,0.27417492866516113,0.29741501808166504,0.5262102484703064,0.0,0.0,0.0,0.0,15410.0,11196.0,11698.0,15227.0,1.648528814315796,0.041231188946038555,-0.05274980564239827,-0.04180731837793433,0.007746024988591671,-0.0032653475645929575,0.0
94,5,-1.62705600814661e-05,4.140556939091766e-06,-5.3846499213250354e-05,0.002537680556997657,0.00018578063463792205,-0.0008448973530903459,-0.003725681221112609,-0.09084652364253998,0.0027203590143471956,0.002194848144426942,0.001975961262360215,-0.0013193979393690825,0.0,0.0,0.0,-0.0006624931120313704,-0.0005479992250911891,-0.0,0.0,0.0,0.0,0.0008550933562219143,0.027452146634459496,0.0002158309507649392,15366.0,11226.0,11575.0,15314.0,0.5346201062202454,0.2740108370780945,0.29262518882751465,0.5307868719100952,0.0,0.0,0.0,0.0,15530.0,11291.0,11631.0,15411.0,1.633742332458496,0.04160414356320458,-0.053277314685973645,-0.041864087851645485,0.0021573235280811787,-0.0020061961840838194,0.0
100,6,-6.999572633503703e-06,-2.1615571768052178e-06,-2.3711130779702216e-05,0.002127590589225292,0.0008305659866891801,-0.003954203333705664,-0.003725681221112609,-0.09084652364253998,0.0027203590143471956,0.002194848144426942,0.001975961262360215,-0.0013193979393690825,0.0,0.0,0.0,-0.0006624931120313704,-0.0005479992250911891,-0.0,0.0,0.0,0.0,0.0008550933562219143,0.027452146634459496,0.0002158309507649392,15366.0,11226.0,11575.0,15314.0,0.5346201062202454,0.2740108370780945,0.29262518882751465,0.5307868719100952,0.0,0.0,0.0,0.0,15530.0,11291.0,11631.0,15411.0,1.633742332458496,0.04148685383440917,-0.05288204982184893,-0.04174245330564493,0.0021573235280811787,-0.0020061961840838194,0.0
105,5,-2.010268872254528e-06,-3.3627050015638815e-06,-2.3259761292138137e-05,0.0014497527154162526,0.00047636410454288125,-0.0016358455177396536,-0.0036999243311583996,-0.09084340929985046,0.00275201047770679,0.003074881387874484,-0.0034372147638350725,0.0058822608552873135,0.0,0.0,0.0,-0.0010229645995423198,0.00199833232909441,-0.0,0.0,0.0,0.0,0.0004974344628863037,0.026705486699938774,0.00045621092431247234,15475.0,11290.0,11787.0,15224.0,0.5426468849182129,0.27738872170448303,0.30429497361183167,0.5241982936859131,0.0,0.0,0.0,0.0,15440.0,11339.0,11729.0,15269.0,1.6488720178604126,0.041438827373314016,-0.05307910072294169,-0.04188322895328851,-0.007939736358821392,-0.003126482479274273,0.0
110,5,4.871932560490677e-06,9.198499810736394e-07,-1.5179663932940457e-05,0.0014057651860639453,-0.0003233609604649246,-0.0016239499673247337,-0.0036999243311583996,-0.09084340929985046,0.00275201047770679,0.003074881387874484,-0.0034372147638350725,0.0058822608552873135,0.0,0.0,0.0,-0.0010229645995423198,0.00199833232909441,-0.0,0.0,0.0,0.0,0.0004974344628863037,0.026705486699938774,0.00045621092431247234,15475.0,11290.0,11787.0,15224.0,0.5426468849182129,0.27738872170448303,0.30429497361183167,0.5241982936859131,0.0,0.0,0.0,0.0,15440.0,11339.0,11729.0,15269.0,1.6488720178604126,0.04096803713508936,-0.053185151200712114,-0.04180412344693619,-0.007939736358821392,-0.003126482479274273,0.0
115,5,1.967724529094994e-06,1.0740211109805387e-05,-1.942354538186919e-05,0.00021380114776547998,-0.0013077877229079604,-0.00014031426690053195,-0.0036873002536594868,-0.09084255248308182,0.002774782944470644,-0.0007376697612926364,-0.00140928674954921,0.0023053523618727922,0.0,0.0,0.0,0.0004004567163065076,0.0013403014745563269,-0.0,0.0,0.0,0.0,0.0005011456669308245,0.027898037806153297,0.0002337981277378276,15430.0,11192.0,11666.0,15229.0,0.5393235087394714,0.27221694588661194,0.29761025309562683,0.5245916247367859,0.0,0.0,0.0,0.0,15373.0,11272.0,11587.0,15288.0,1.6404924392700195,0.04122937005314902,-0.05288802993303216,-0.042086793265123594,-0.005298201460391283,0.0012176944874227047,0.0
120,5,-4.356016233941773e-06,9.623886398912873e-06,-3.072233812417835e-05,-0.0006733284099027514,-0.00038915619370527565,0.0012997295707464218,-0.0036873002536594868,-0.09084255248308182,0.002774782944470644,-0.0007376697612926364,-0.00140928674954921,0.0023053523618727922,0.0,0.0,0.0,0.0004004567163065076,0.0013403014745563269,-0.0,0.0,0.0,0.0,0.0005011456669308245,0.027898037806153297,0.0002337981277378276,15430.0,11192.0,11666.0,15229.0,0.5393235087394714,0.27221694588661194,0.29761025309562683,0.5245916247367859,0.0,0.0,0.0,0.0,15373.0,11272.0,11587.0,15288.0,1.6404924392700195,0.04100083210537232,-0.05283317116091361,-0.04183503971667209,-0.005298201460391283,0.0012176944874227047,0.0
125,5,-1.2087803042959422e-05,1.1910758075828198e-05,-4.988738146494143e-05,-0.0011971457861363888,-0.0004300870932638645,0.0028196966741234064,-0.0036840802058577538,-0.09080348908901215,0.0027573895640671253,0.001807348569855094,-0.004266704898327589,-0.0003678547509480268,0.0,0.0,0.0,0.0004993927432224154,-0.0006475155241787434,-0.0,0.0,0.0,0.0,0.0007945638499222696,0.027849547564983368,0.00023944047279655933,15421.0,11243.0,11565.0,15370.0,0.5386291146278381,0.2748901844024658,0.29207688570022583,0.5348962545394897,0.0,0.0,0.0,0.0,15499.0,11250.0,11622.0,15359.0,1.633791208267212,0.0415955548275462,-0.05249594635644461,-0.04165959577173916,0.0025491684209555387,0.0015123324701562524,0.0
130,5,-2.7490004868013784e-05,1.2418689038895536e-05,-3.206237670383416e-05,-0.0023271224927157164,-0.00023298655287362635,-0.0010111216688528657,-0.0036840802058577538,-0.09080348908901215,0.0027573895640671253,0.001807348569855094,-0.004266704898327589,-0.0003678547509480268,0.0,0.0,0.0,0.0004993927432224154,-0.0006475155241787434,-0.0,0.0,0.0,0.0,0.0007945638499222696,0.027849547564983368,0.00023944047279655933,15421.0,11243.0,11565.0,15370.0,0.5386291146278381,0.2748901844024658,0.29207688570022583,0.5348962545394897,0.0,0.0,0.0,0.0,15499.0,11250.0,11622.0,15359.0,1.633791208267212,0.0411169318065675,-0.052735559513361216,-0.04182871023499541,0.0025491684209555387,0.0015123324701562524,0.0
135,5,-2.4635221052449197e-05,1.2729114132525865e-05,-4.2123003368033096e-05,-0.0005882750265300274,-0.00013044555089436471,0.000802826602011919,-0.003691913792863488,-0.09080473333597183,0.00276049948297441,0.004633445758372545,0.0036649280227720737,-0.003656834363937378,0.0,0.0,0.0,0.00030805316055193543,-0.002233093371614814,-0.0,0.0,0.0,0.0,0.0008691302500665188,0.02732846327126026,0.0003188601112924516,15391.0,11206.0,11632.0,15286.0,0.5363920331001282,0.2729431986808777,0.2957245707511902,0.5287314057350159,0.0,0.0,0.0,0.0,15424.0,11247.0,11562.0,15366.0,1.6499391794204712,0.04136715589461782,-0.05295070888444392,-0.04180732062859429,0.008878229185938835,0.000942111189942807,0.0
142,7,-2.4599952666903846e-05,-2.7605980790212925e-07,-4.3367850594222546e-05,-5.2196570322848856e-05,0.0005060550174675882,-0.0010022117057815194,-0.003691913792863488,-0.09080473333597183,0.00276049948297441,0.004633445758372545,0.0036649280227720737,-0.003656834363937378,0.0,0.0,0.0,0.00018487054330762476,-0.0005954262451268733,-0.0,0.0,0.0,0.0,0.0008691302500665188,0.02732846327126026,0.0003188601112924516,15391.0,11206.0,11632.0,15286.0,0.5363920331001282,0.2729431986808777,0.2957245707511902,0.5287314057350159,0.0,0.0,0.0,0.0,15424.0,11247.0,11562.0,15366.0,1.632282018661499,0.040945456631804884,-0.05308806968390215,-0.041682091920341405,0.00234193610958755,0.0005593342939391732,0.0
148,5,-7.208736406028038e-06,-6.578438274118525e-07,-4.6645473048556596e-05,0.0020660674199461937,0.0002482360869180411,-7.569866284029558e-06,-0.0036663690116256475,-0.09083229303359985,0.0027254456654191017,-0.0015990434912964702,-0.00631704181432724,0.0018559913150966167,0.0,0.0,0.0,0.00018487054330762476,-0.0005954262451268733,-0.0,0.0,0.0,0.0,0.0008183355676010251,0.026604637503623962,0.0001989388547372073,15389.0,11369.0,11737.0,15311.0,0.5362860560417175,0.2815876603126526,0.3015320301055908,0.5305333733558655,0.0,0.0,0.0,0.0,15366.0,11241.0,11599.0,15310.0,1.632282018661499,0.04140309815254123,-0.05282708525304146,-0.042074476154741386,0.00234193610958755,0.0005593342939391732,0.0
153,5,-8.679563507030252e-06,3.406173391340417e-06,-4.171963519183919e-05,0.0006499277078546584,-0.00038838761975057423,-0.0005941286217421293,-0.0036663690116256475,-0.09083229303359985,0.0027254456654191017,-0.0015990434912964702,-0.00631704181432724,0.0018559913150966167,0.0,0.0,0.0,0.00018487054330762476,-0.0005954262451268733,-0.0,0.0,0.0,0.0,0.0008183355676010251,0.026604637503623962,0.0001989388547372073,15389.0,11369.0,11737.0,15311.0,0.5362860560417175,0.2815876603126526,0.3015320301055908,0.5305333733558655,0.0,0.0,0.0,0.0,15366.0,11241.0,11599.0,15310.0,1.632282018661499,0.04141619296264943,-0.05276910158887242,-0.04182524286927592,0.00234193610958755,0.0005593342939391732,0.0
158,5,6.393836429197108e-06,-6.454044523707125e-06,-7.089823338901624e-05,0.0020687789656221867,0.0010278710396960378,0.0032637808471918106,-0.003659456502646208,-0.09083773195743561,0.0027743279933929443,0.0029368738178163767,0.006029010284692049,0.008202170953154564,0.0,0.0,0.0,0.00048730787239037454,0.0006070010713301599,-0.0,0.0,0.0,0.0,0.0007698879926465452,0.027335431426763535,0.0003987681120634079,15441.0,11141.0,11669.0,15233.0,0.540091872215271,0.26952916383743286,0.2977844476699829,0.5248765349388123,0.0,0.0,0.0,0.0,15443.0,11295.0,11785.0,15274.0,1.6333675384521484,0.04119182153920464,-0.05293777975731819,-0.0419180830260769,-0.002389049855992198,0.001475352793931961,0.0
163,5,2.396655247594026e-07,-6.679892521788133e-06,-7.354425906669348e-05,8.901113324100152e-05,0.00043825022294186056,0.0016230352921411395,-0.003659456502646208,-0.09083773195743561,0.0027743279933929443,0.0029368738178163767,0.006029010284692049,0.008202170953154564,0.0,0.0,0.0,0.00048730787239037454,0.0006070010713301599,-0.0,0.0,0.0,0.0,0.0007698879926465452,0.027335431426763535,0.0003987681120634079,15441.0,11141.0,11669.0,15233.0,0.540091872215271,0.26952916383743286,0.2977844476699829,0.5248765349388123,0.0,0.0,0.0,0.0,15443.0,11295.0,11785.0,15274.0,1.6333675384521484,0.04100009900597179,-0.05275571139392285,-0.04182572039290091,-0.00033466925378888845,-0.0016800358425825834,0.0
168,5,-2.176756242988631e-05,-4.856252871832112e-06,-4.7515211917925626e-05,-0.0026052629109472036,-4.35367037425749e-05,-0.0024742719251662493,-0.003573410911485553,-0.09086000919342041,0.0029485600534826517,0.003002398880198598,0.0012617585016414523,-0.021575475111603737,0.0,0.0,0.0,-0.0005559258279390633,8.518650429323316e-05,-0.0,0.0,0.0,0.0,0.0006128160748630762,0.027295473963022232,0.00042274224688299,15332.0,11310.0,11464.0,15389.0,0.5320737957954407,0.2784055471420288,0.28664374351501465,0.5362445116043091,0.0,0.0,0.0,0.0,15535.0,11012.0,11784.0,15142.0,1.6303963661193848,0.04127838569062809,-0.05247154883242303,-0.04192798852999038,-0.00033466925378888845,-0.0016800358425825834,0.0
173,5,-2.3237322238855995e-05,7.359445135080023e-06,-4.095037729712203e-05,-0.0012184762163087726,-0.001483298372477293,-0.0017774886218830943,-0.003573410911485553,-0.09086000919342041,0.0029485600534826517,0.003002398880198598,0.0012617585016414523,-0.021575475111603737,0.0,0.0,0.0,0.0018369494937360287,-0.0011847038986161351,-0.0,0.0,0.0,0.0,0.0006128160748630762,0.027295473963022232,0.00042274224688299,15332.0,11310.0,11464.0,15389.0,0.5320737957954407,0.2784055471420288,0.28664374351501465,0.5362445116043091,0.0,0.0,0.0,0.0,15535.0,11012.0,11784.0,15142.0,1.645569920539856,0.04122141385337549,-0.052716973585167755,-0.04163459462366991,0.004697612952440977,0.005603013560175896,0.0
178,5,-2.6234725737595e-05,2.8961367206647992e-06,-6.11666328040883e-05,-0.0008470789180137217,-5.772235817858018e-05,0.0017149553168565035,-0.003653961466625333,-0.09080854803323746,0.0026756110601127148,-0.0024591200053691864,-0.01089753583073616,0.02910313382744789,0.0,0.0,0.0,0.0018369494937360287,-0.0011847038986161351,-0.0,0.0,0.0,0.0,0.0009095686255022883,0.027463216334581375,-8.424046245636418e-05,15455.0,11108.0,11698.0,15236.0,0.5411077737808228,0.2678249180316925,0.29936662316322327,0.5250682234764099,0.0,0.0,0.0,0.0,15106.0,11586.0,11197.0,15600.0,1.645569920539856,0.041443974056258305,-0.05235430990643379,-0.041751111220249125,0.004697612952440977,0.005603013560175896,0.0
183,5,-2.676284384506289e-05,-5.270202109386446e-06,-7.855440344428644e-05,-0.00040220574010163546,0.0009568717214278877,0.002772514708340168,-0.003653961466625333,-0.09080854803323746,0.0026756110601127148,-0.0024591200053691864,-0.01089753583073616,0.02910313382744789,0.0,0.0,0.0,0.0018369494937360287,-0.0011847038986161351,-0.0,0.0,0.0,0.0,0.0009095686255022883,0.027463216334581375,-8.424046245636418e-05,15455.0,11108.0,11698.0,15236.0,0.5411077737808228,0.2678249180316925,0.29936662316322327,0.5250682234764099,0.0,0.0,0.0,0.0,15106.0,11586.0,11197.0,15600.0,1.645569920539856,0.0408136315852366,-0.05256186345451995,-0.04229562683165155,0.004697612952440977,0.005603013560175896,0.0
188,5,-3.130952245555818e-05,7.824653039278928e-06,-7.278923294506967e-05,-0.000706483842805028,-0.0011886339634656906,0.0004171852779109031,-0.0036429455503821373,-0.09071633964776993,0.003079381538555026,-0.014003475196659565,-0.0054292213171720505,-0.03668690472841263,0.0,0.0,0.0,-0.0011924103600904346,-0.0004199555842205882,-0.0,0.0,0.0,0.0,0.0007576982025057077,0.02726336009800434,0.0006838211556896567,15292.0,11326.0,11486.0,15360.0,0.5291617512702942,0.2792574167251587,0.2878188490867615,0.5341582894325256,0.0,0.0,0.0,0.0,15866.0,10517.0,12223.0,14768.0,1.6365418434143066,0.040889766151610725,-0.05293618120897922,-0.04222686308161379,0.0016560828080400825,-0.003617105772718787,0.0
193,5,-2.3525513825006783e-05,2.2028054900147254e-06,-6.785060395486653e-05,0.0006514875567518175,0.00019916814926546067,-0.00042576162377372384,-0.0036429455503821373,-0.09071633964776993,0.003079381538555026,-0.014003475196659565,-0.0054292213171720505,-0.03668690472841263,0.0,0.0,0.0,-0.0011924103600904346,-0.0004199555842205882,-0.0,0.0,0.0,0.0,0.0007576982025057077,0.02726336009800434,0.0006838211556896567,15292.0,11326.0,11486.0,15360.0,0.5291617512702942,0.2792574167251587,0.2878188490867615,0.5341582894325256,0.0,0.0,0.0,0.0,15866.0,10517.0,12223.0,14768.0,1.6365418434143066,0.040860877522738634,-0.05292776829292093,-0.041904131453639984,0.0016560828080400825,-0.003617105772718787,0.0
199,5,-6.602323992410675e-06,6.286864390858682e-06,-7.195227226475254e-05,0.002291377866640687,-0.0004104198014829308,0.0003218955534975976,-0.003713682061061263,-0.09069918841123581,0.0024270855356007814,0.0049513657577335835,-0.0031027866061776876,0.017538445070385933,0.0,0.0,0.0,-0.00024279419449158013,0.0005880481912754476,-0.0,0.0,0.0,0.0,0.0009945851052179933,0.026889560744166374,-0.000981398276053369,15209.0,11544.0,11471.0,15499.0,0.5231585502624512,0.29098284244537354,0.2870132327079773,0.5444152355194092,0.0,0.0,0.0,0.0,14749.0,12088.0,10830.0,15980.0,1.6323336362838745,0.04082676463832967,-0.052797855888653746,-0.04141508250657254,-0.00231298990547657,-0.0007346082129515707,0.0
204,5,-1.4205196748662274e-05,-8.55472080729669e-06,-2.448473242111504e-05,4.206314770272002e-06,0.0016168223228305578,-0.005567346699535847,-0.003713682061061263,-0.09069918841123581,0.0024270855356007814,0.0049513657577335835,-0.0031027866061776876,0.017538445070385933,0.0,0.0,0.0,-0.00024279419449158013,0.0005880481912754476,-0.0,0.0,0.0,0.0,0.0009945851052179933,0.026889560744166374,-0.000981398276053369,15209.0,11544.0,11471.0,15499.0,0.5231585502624512,0.29098284244537354,0.2870132327079773,0.5444152355194092,0.0,0.0,0.0,0.0,14749.0,12088.0,10830.0,15980.0,1.6323336362838745,0.04047037267028147,-0.05297680922117797,-0.04251929088298963,-0.00231298990547657,-0.0007346082129515707,0.0
209,5,-4.2343992845417233e-07,5.605515980278142e-07,-1.4425570952880662e-05,0.0016554933972656727,-0.00044710381189361215,-0.003434038022533059,-0.0036914816591888666,-0.09090983867645264,0.0030606871005147696,0.0066702766343951225,0.06768495589494705,-0.13537749648094177,0.0,0.0,0.0,-0.00200713356025517,-1.5945526683935896e-05,-0.0,0.0,0.0,0.0,0.0004540343361441046,0.02843744494020939,-0.00029072712641209364,14776.0,12113.0,10461.0,16057.0,0.4922094941139221,0.3226047158241272,0.2352662831544876,0.5864614248275757,0.0,0.0,0.0,0.0,16213.0,10025.0,12632.0,14467.0,1.642318844795227,0.04117039891952635,-0.05338789206672365,-0.04144519284677363,6.310261960607022e-05,-0.0061100078746676445,0.0
214,5,5.040858923166525e-06,6.529643087560544e-06,3.205990424248739e-06,0.0013179131783545017,-0.0008951324853114784,-0.003489402588456869,-0.0036914816591888666,-0.09090983867645264,0.0030606871005147696,0.0066702766343951225,0.06768495589494705,-0.13537749648094177,0.0,0.0,0.0,-0.00200713356025517,-1.5945526683935896e-05,-0.0,0.0,0.0,0.0,0.0004540343361441046,0.02843744494020939,-0.00029072712641209364,14776.0,12113.0,10461.0,16057.0,0.4922094941139221,0.3226047158241272,0.2352662831544876,0.5864614248275757,0.0,0.0,0.0,0.0,16213.0,10025.0,12632.0,14467.0,1.642318844795227,0.04156557253037628,-0.0532137335493016,-0.04179347111969435,6.310261960607022e-05,-0.0061100078746676445,0.0
219,5,-1.2372128367132973e-05,-1.5153480489971116e-05,-1.0184517122979742e-05,-0.0015623931540176272,0.002243921859189868,0.00021109981753397733,-0.0036914816591888666,-0.09090983867645264,0.0030606871005147696,0.0066702766343951225,0.06768495589494705,-0.13537749648094177,0.0,0.0,0.0,0.0011147070908918977,0.0012558618327602744,-0.0,0.0,0.0,0.0,0.0004540343361441046,0.02843744494020939,-0.00029072712641209364,14776.0,12113.0,10461.0,16057.0,0.4922094941139221,0.3226047158241272,0.2352662831544876,0.5864614248275757,0.0,0.0,0.0,0.0,16213.0,10025.0,12632.0,14467.0,1.642065167427063,0.0405772443645723,-0.05268593116968521,-0.04270250135772984,-0.004969168920069933,0.003392809769138694,0.0
224,5,1.2891507594758878e-06,1.8247086700284854e-05,8.741123565414455e-06,0.0010143961990252137,-0.0031104993540793657,-0.002186636906117201,-0.0037433241959661245,-0.09112850576639175,0.0029831852298229933,-0.03634706512093544,0.01172578427940607,0.1349271684885025,0.0,0.0,0.0,0.0011147070908918977,0.0012558618327602744,-0.0,0.0,0.0,0.0,0.0009218681370839477,0.027560750022530556,0.0041368878446519375,16703.0,9009.0,13299.0,13888.0,0.6370983123779297,0.16978350281715393,0.3937545716762543,0.4316973090171814,0.0,0.0,0.0,0.0,15628.0,10810.0,11822.0,15160.0,1.642065167427063,0.041054959237725216,-0.053194007542325096,-0.041478719963617586,-0.004969168920069933,0.003392809769138694,0.0
229,5,1.664801516199077e-06,1.84677992365323e-05,4.431222623679787e-05,0.00045083658187650144,-0.0012706852285191417,-0.00514318747445941,-0.0037433241959661245,-0.09112850576639175,0.0029831852298229933,-0.03634706512093544,0.01172578427940607,0.1349271684885025,0.0,0.0,0.0,0.003825406776741147,0.0009530388051643968,-0.0,0.0,0.0,0.0,0.0009218681370839477,0.027560750022530556,0.0041368878446519375,16703.0,9009.0,13299.0,13888.0,0.6370983123779297,0.16978350281715393,0.3937545716762543,0.4316973090171814,0.0,0.0,0.0,0.0,15628.0,10810.0,11822.0,15160.0,1.6592265367507935,0.04119266853963898,-0.053467527197866294,-0.041741573709845894,-0.003810350550338626,0.011764945462346077,0.0
234,5,-1.5137484297156334e-05,2.3164935555541888e-05,0.00011813457967946306,-0.00183593959081918,-0.0010719303973019123,-0.01091595645993948,-0.0037531156558543444,-0.09124041348695755,0.0021475690882653,-0.011263910681009293,0.011449052952229977,0.010954652912914753,0.0,0.0,0.0,0.003825406776741147,0.0009530388051643968,-0.0,0.0,0.0,0.0,0.00011573912343010306,0.02765517309308052,-0.0029152880888432264,14917.0,12004.0,10805.0,15860.0,0.5021589994430542,0.31642240285873413,0.25232625007629395,0.5714111328125,0.0,0.0,0.0,0.0,16546.0,9468.0,13058.0,14159.0,1.6592265367507935,0.04095462497754122,-0.054933818374353814,-0.04238616873706441,-0.003810350550338626,0.011764945462346077,0.0
239,5,-3.198927515768446e-05,6.131050031399354e-05,0.00022601911041419953,-0.0027565909549593925,-0.005006240215152502,-0.01731252670288086,-0.0037531156558543444,-0.09124041348695755,0.0021475690882653,-0.011263910681009293,0.011449052952229977,0.010954652912914753,0.0,0.0,0.0,0.0013579587684944272,-0.0017551810014992952,-0.0,0.0,0.0,0.0,0.00011573912343010306,0.02765517309308052,-0.0029152880888432264,14917.0,12004.0,10805.0,15860.0,0.5021589994430542,0.31642240285873413,0.25232625007629395,0.5714111328125,0.0,0.0,0.0,0.0,16546.0,9468.0,13058.0,14159.0,1.6477272510528564,0.04030146263086702,-0.056571041535289586,-0.041695455498425064,0.006968808360397816,0.004147441126406193,0.0
244,5,-7.142558024497703e-05,9.823653817875311e-05,0.0003832768998108804,-0.005834992974996567,-0.0064336201176047325,-0.025795945897698402,-0.00391907524317503,-0.09041184931993484,0.002751054707914591,-0.016293946653604507,-0.14863674342632294,-0.1235373243689537,0.0,0.0,0.0,0.0013579587684944272,-0.0017551810014992952,-0.0,0.0,0.0,0.0,0.0012033962411805987,0.02518697828054428,-9.173144644591957e-05,14605.0,12247.0,11032.0,15811.0,0.4802267253398895,0.33025094866752625,0.2638688385486603,0.5677186846733093,0.0,0.0,0.0,0.0,13483.0,13448.0,9687.0,16669.0,1.6477272510528564,0.040291801121235274,-0.059498448315474184,-0.04097896691291604,0.006968808360397816,0.004147441126406193,0.0
249,5,-0.00012950765085406601,0.00011709124373737723,0.0005521320854313672,-0.009303845465183258,-0.004836012609302998,-0.030581003054976463,-0.00391907524317503,-0.09041184931993484,0.002751054707914591,-0.016293946653604507,-0.14863674342632294,-0.1235373243689537,0.0,0.0,0.0,0.0077591645531356335,-0.005389913450926542,-0.0,0.0,0.0,0.0,0.0012033962411805987,0.02518697828054428,-9.173144644591957e-05,14605.0,12247.0,11032.0,15811.0,0.4802267253398895,0.33025094866752625,0.2638688385486603,0.5677186846733093,0.0,0.0,0.0,0.0,13483.0,13448.0,9687.0,16669.0,1.7151455879211426,0.0399131469133762,-0.06309832388650329,-0.04135122208659176,0.02227509208023548,0.02466701529920101,0.0
254,5,-0.0002189000806538388,0.000147633021697402,0.0007565979030914605,-0.01444863062351942,-0.00559941865503788,-0.036768294870853424,-0.004247219301760197,-0.08802976459264755,0.002327998634427786,-0.09547515958547592,-0.49180367588996887,0.1349516063928604,0.0,0.0,0.0,0.0077591645531356335,-0.005389913450926542,-0.0,0.0,0.0,0.0,0.0032000099308788776,0.009590757079422474,-0.0036887172609567642,15913.0,10396.0,13916.0,13681.0,0.5754716396331787,0.2320796102285385,0.4335039258003235,0.41817134618759155,0.0,0.0,0.0,0.0,15551.0,10887.0,13910.0,13730.0,1.7151455879211426,0.03859442647455958,-0.0680047718743577,-0.041130496834739794,0.02227509208023548,0.02466701529920101,0.0
259,5,-0.00030287879053503275,0.0001943059905897826,0.0009493925026617944,-0.015856897458434105,-0.00784052349627018,-0.03784267231822014,-0.004247219301760197,-0.08802976459264755,0.002327998634427786,-0.09547515958547592,-0.49180367588996887,0.1349516063928604,0.0,0.0,0.0,0.006594096776098013,-0.012881592847406864,-0.0,0.0,0.0,0.0,0.0032000099308788776,0.009590757079422474,-0.0036887172609567642,15913.0,10396.0,13916.0,13681.0,0.5754716396331787,0.2320796102285385,0.4335039258003235,0.41817134618759155,0.0,0.0,0.0,0.0,15551.0,10887.0,13910.0,13730.0,1.784500002861023,0.038159298778936285,-0.07374374585291726,-0.039986414663952086,0.055388111621141434,0.021810956299304962,0.0
264,5,-0.00041681851143948734,0.00023896098718978465,0.0011668591760098934,-0.020015524700284004,-0.00849480926990509,-0.041233062744140625,-0.005568258464336395,-0.08043939620256424,0.00212306366302073,-0.14061912894248962,-0.8321236968040466,-0.13023626804351807,0.0,0.0,0.0,0.006594096776098013,-0.012881592847406864,-0.0,0.0,0.0,0.0,0.0032000099308788776,0.009590757079422474,-0.0036887172609567642,12535.0,14135.0,11721.0,15601.0,0.34708845615386963,0.4480893611907959,0.3006007671356201,0.5519486665725708,0.0,0.0,0.0,0.0,13110.0,13528.0,12979.0,14655.0,1.784500002861023,0.03608095765766234,-0.08048325992137682,-0.03931893898996063,0.055388111621141434,0.021810956299304962,0.0
269,5,-0.0005827798740938306,0.00027641491033136845,0.0013815818820148706,-0.02792157419025898,-0.007892396301031113,-0.042259957641363144,-0.005568258464336395,-0.08043939620256424,0.00212306366302073,-0.14061912894248962,-0.8321236968040466,-0.13023626804351807,0.0,0.0,0.0,0.009682095609605312,-0.017368780449032784,-0.0,0.0,0.0,0.0,0.0032000099308788776,0.009590757079422474,-0.0036887172609567642,12535.0,14135.0,11721.0,15601.0,0.34708845615386963,0.4480893611907959,0.3006007671356201,0.5519486665725708,0.0,0.0,0.0,0.0,13110.0,13528.0,12979.0,14655.0,1.8484324216842651,0.034068138880465955,-0.08837753536014392,-0.03947786017098318,0.07735397666692734,0.03317181020975113,0.0
275,5,-0.0007391659310087562,0.0003377639513928443,0.0015838582767173648,-0.0299349557608366,-0.010518839582800865,-0.04117715358734131,-0.007055660244077444,-0.07187172770500183,0.0026597194373607635,-0.2108483463525772,-1.347647786140442,0.11170590668916702,0.0,0.0,0.0,0.009682095609605312,-0.017368780449032784,-0.0,0.0,0.0,0.0,0.006870914250612259,-0.016889013350009918,-0.003445620182901621,14451.0,12449.0,15797.0,12360.0,0.46962615847587585,0.34202662110328674,0.5666940808296204,0.336798757314682,0.0,0.0,0.0,0.0,13030.0,13868.0,15018.0,13373.0,1.8484324216842651,0.03268667103055758,-0.09709720581004658,-0.03894001726195113,0.07735397666692734,0.03317181020975113,0.0
280,5,-0.00091689417604357,0.0004278170526959002,0.0018304565455764532,-0.03330136835575104,-0.015013910830020905,-0.0460626445710659,-0.00974307395517826,-0.0542120486497879,0.002140546916052699,-0.2672628164291382,-1.6887403726577759,-0.09782811254262924,0.0,0.0,0.0,0.011439447291195393,-0.024784520268440247,-0.0,0.0,0.0,0.0,0.007695081643760204,-0.03034413419663906,0.003164360299706459,10742.0,15995.0,14708.0,14402.0,0.2491571307182312,0.5817164778709412,0.4873901605606079,0.4662362337112427,0.0,0.0,0.0,0.0,11824.0,15228.0,15899.0,13067.0,1.9481494426727295,0.030613559858526544,-0.1066540137512799,-0.0374424507922744,0.11632733792066574,0.041306525468826294,0.0
285,5,-0.001102717942558229,0.0005147484480403364,0.002047337358817458,-0.035619404166936874,-0.016437329351902008,-0.04445074498653412,-0.00974307395517826,-0.0542120486497879,0.002140546916052699,-0.2672628164291382,-1.6887403726577759,-0.09782811254262924,0.0,0.0,0.0,0.011439447291195393,-0.024784520268440247,-0.0,0.0,0.0,0.0,0.007695081643760204,-0.03034413419663906,0.003164360299706459,10742.0,15995.0,14708.0,14402.0,0.2491571307182312,0.5817164778709412,0.4873901605606079,0.4662362337112427,0.0,0.0,0.0,0.0,11824.0,15228.0,15899.0,13067.0,1.9481494426727295,0.028711287102667307,-0.11623624909883339,-0.03696886640202062,0.11632733792066574,0.041306525468826294,0.0
290,5,-0.0012579167960211635,0.0005604506004601717,0.002182050608098507,-0.03287161886692047,-0.012059194035828114,-0.033945903182029724,-0.00974307395517826,-0.0542120486497879,0.002140546916052699,-0.2672628164291382,-1.6887403726577759,-0.09782811254262924,0.0,0.0,0.0,0.011439447291195393,-0.024784520268440247,-0.0,0.0,0.0,0.0,0.007695081643760204,-0.03034413419663906,0.003164360299706459,10742.0,15995.0,14708.0,14402.0,0.2491571307182312,0.5817164778709412,0.4873901605606079,0.4662362337112427,0.0,0.0,0.0,0.0,11824.0,15228.0,15899.0,13067.0,1.9865915775299072,0.02721617919957556,-0.12491004203498036,-0.03703572786646046,0.13019736111164093,0.04830959066748619,0.0
295,5,-0.0014033135958015919,0.0006343055283650756,0.0023006515111774206,-0.03059627115726471,-0.013686264865100384,-0.02781047113239765,-0.01200057752430439,-0.03985260799527168,0.0028126812539994717,-0.2538667917251587,-1.8164372444152832,0.07748865336179733,0.0,0.0,0.0,0.013120152056217194,-0.027203992009162903,-0.0,0.0,0.0,0.0,0.007713810540735722,-0.03457784652709961,-0.002081559970974922,12763.0,14863.0,17437.0,11566.0,0.3607138395309448,0.49835798144340515,0.6971859931945801,0.2921745777130127,0.0,0.0,0.0,0.0,12127.0,15394.0,17094.0,12060.0,1.9865915775299072,0.026686937856853395,-0.13188010724749816,-0.037095535558293306,0.13019736111164093,0.04830959066748619,0.0
300,5,-0.0015086535131558776,0.0006861523143015802,0.002371924463659525,-0.02487928792834282,-0.011696121655404568,-0.0196769330650568,-0.01200057752430439,-0.03985260799527168,0.0028126812539994717,-0.2538667917251587,-1.8164372444152832,0.07748865336179733,0.0,0.0,0.0,0.013120152056217194,-0.027203992009162903,-0.0,0.0,0.0,0.0,0.007713810540735722,-0.03457784652709961,-0.002081559970974922,12763.0,14863.0,17437.0,11566.0,0.3607138395309448,0.49835798144340515,0.6971859931945801,0.2921745777130127,0.0,0.0,0.0,0.0,12127.0,15394.0,17094.0,12060.0,1.9865915775299072,0.02614037564490663,-0.1386101485049359,-0.03658609170706461,0.13019736111164093,0.04830959066748619,0.0
305,5,-0.0016378015279769897,0.0007365916389971972,0.002469402039423585,-0.02544948272407055,-0.010731170885264874,-0.019568076357245445,-0.014432812109589577,-0.018604738637804985,0.002667435212060809,-0.1760307252407074,-1.7437769174575806,-0.07907618582248688,0.0,0.0,0.0,0.013387828134000301,-0.021966807544231415,-0.0,0.0,0.0,0.0,0.006176784168928862,-0.035110171884298325,0.0032014420721679926,13158.0,15644.0,18078.0,11612.0,0.3849266767501831,0.5551460981369019,0.7518865466117859,0.2946321666240692,0.0,0.0,0.0,0.0,11770.0,16348.0,17130.0,12819.0,1.919965147972107,0.026196859733919404,-0.14518858921059152,-0.036305416965108146,0.1016104444861412,0.04764183238148689,0.0
310,5,-0.0017246381612494588,0.0007952104206196964,0.0025748303160071373,-0.02060018666088581,-0.01132672093808651,-0.020478636026382446,-0.014432812109589577,-0.018604738637804985,0.002667435212060809,-0.1760307252407074,-1.7437769174575806,-0.07907618582248688,0.0,0.0,0.0,0.013387828134000301,-0.021966807544231415,-0.0,0.0,0.0,0.0,0.006176784168928862,-0.035110171884298325,0.0032014420721679926,13158.0,15644.0,18078.0,11612.0,0.3849266767501831,0.5551460981369019,0.7518865466117859,0.2946321666240692,0.0,0.0,0.0,0.0,11770.0,16348.0,17130.0,12819.0,1.919965147972107,0.026123531070987492,-0.14989290460834537,-0.03650820032188069,0.08675777167081833,0.04685918241739273,0.0
315,5,-0.001771273324266076,0.0008376958430744708,0.002625992288812995,-0.013836302794516087,-0.00962893757969141,-0.014330889098346233,-0.015323106199502945,-0.005904457997530699,0.0034051642287522554,-0.05868465453386307,-1.3804354667663574,0.06485937535762787,0.0,0.0,0.0,0.013409119099378586,-0.019099077209830284,-0.0,0.0,0.0,0.0,0.005322320852428675,-0.026094257831573486,-0.0023368457332253456,11623.0,16520.0,15987.0,13727.0,0.2952759861946106,0.622517466545105,0.5810640454292297,0.42110756039619446,0.0,0.0,0.0,0.0,12159.0,16412.0,17070.0,13087.0,1.8854261636734009,0.026691545806602997,-0.15342673523934586,-0.036135614979246174,0.08675777167081833,0.04685918241739273,0.0
320,5,-0.0018126668874174356,0.0008768949774093926,0.0027093011885881424,-0.010501740500330925,-0.008555471897125244,-0.01572943478822708,-0.015323106199502945,-0.005904457997530699,0.0034051642287522554,-0.05868465453386307,-1.3804354667663574,0.06485937535762787,0.0,0.0,0.0,0.013409119099378586,-0.019099077209830284,-0.0,0.0,0.0,0.0,0.005322320852428675,-0.026094257831573486,-0.0023368457332253456,11623.0,16520.0,15987.0,13727.0,0.2952759861946106,0.622517466545105,0.5810640454292297,0.42110756039619446,0.0,0.0,0.0,0.0,12159.0,16412.0,17070.0,13087.0,1.8854261636734009,0.02782555898912023,-0.15472570755748943,-0.03607428792972576,0.08675777167081833,0.04685918241739273,0.0
325,5,-0.0018199380720034242,0.0009066960774362087,0.0027643588837236166,-0.0050732349045574665,-0.006998318713158369,-0.012898698449134827,-0.013798338361084461,0.011938481591641903,0.0037728562019765377,0.21009153127670288,-0.16526207327842712,0.010031621903181076,0.0,0.0,0.0,0.01112722884863615,-0.011448618955910206,-0.0,0.0,0.0,0.0,0.00263292551971972,-0.014819695614278316,0.002591949887573719,13987.0,14631.0,16002.0,13126.0,0.43824565410614014,0.4820559620857239,0.5822296738624573,0.3828948736190796,0.0,0.0,0.0,0.0,13429.0,15233.0,16688.0,12706.0,1.7900886535644531,0.028892465477487934,-0.1555929476347652,-0.03636986708673975,0.049379099160432816,0.036919333040714264,0.0
330,5,-0.0018106334609910846,0.0009492067620158195,0.0028004380874335766,-0.0009127486264333129,-0.007900608703494072,-0.009488964453339577,-0.013798338361084461,0.011938481591641903,0.0037728562019765377,0.21009153127670288,-0.16526207327842712,0.010031621903181076,0.0,0.0,0.0,0.01112722884863615,-0.011448618955910206,-0.0,0.0,0.0,0.0,0.00263292551971972,-0.014819695614278316,0.002591949887573719,13987.0,14631.0,16002.0,13126.0,0.43824565410614014,0.4820559620857239,0.5822296738624573,0.3828948736190796,0.0,0.0,0.0,0.0,13429.0,15233.0,16688.0,12706.0,1.7900886535644531,0.03007103566474113,-0.1546668846139923,-0.03692646646871029,0.049379099160432816,0.036919333040714264,0.0
336,5,-0.0017576623940840364,0.000999585259705782,0.0028152894228696823,0.005991429556161165,-0.009205666370689869,-0.005577755160629749,-0.013798338361084461,0.011938481591641903,0.0037728562019765377,0.21009153127670288,-0.16526207327842712,0.010031621903181076,0.0,0.0,0.0,0.010897384956479073,-0.0032256166450679302,-0.0,0.0,0.0,0.0,0.002072392962872982,-0.0018923693569377065,-0.0015270084841176867,13731.0,14289.0,14026.0,14448.0,0.4213864505290985,0.45851173996925354,0.4408191740512848,0.4693712890148163,0.0,0.0,0.0,0.0,13220.0,15328.0,14901.0,14367.0,1.7261154651641846,0.032269482896859464,-0.15236770415926845,-0.03648678941798141,0.013415533117949963,0.0348646305501461,0.0
341,5,-0.0016752149676904082,0.0010465220548212528,0.0028019791934639215,0.012290267273783684,-0.009314675815403461,-0.0006338802631944418,-0.013798338361084461,0.011938481591641903,0.0037728562019765377,0.21009153127670288,-0.16526207327842712,0.010031621903181076,0.0,0.0,0.0,0.010897384956479073,-0.0032256166450679302,-0.0,0.0,0.0,0.0,0.002072392962872982,-0.0018923693569377065,-0.0015270084841176867,13731.0,14289.0,14026.0,14448.0,0.4213864505290985,0.45851173996925354,0.4408191740512848,0.4693712890148163,0.0,0.0,0.0,0.0,13220.0,15328.0,14901.0,14367.0,1.7261154651641846,0.03269039207651418,-0.14949227196166762,-0.03647943354771982,0.013415533117949963,0.0348646305501461,0.0
346,5,-0.0015899991849437356,0.0010822319891303778,0.0027620724868029356,0.015141992829740047,-0.00801107194274664,0.004535268060863018,-0.009259069338440895,0.007332263980060816,0.003748243907466531,0.23229822516441345,0.714052677154541,0.006943562533706427,0.0,0.0,0.0,0.012391053140163422,0.008625401183962822,-0.0,0.0,0.0,0.0,0.0011501128319650888,0.007938598282635212,0.0021797961089760065,15337.0,12450.0,13733.0,14190.0,0.5106817483901978,0.342067688703537,0.4215313494205475,0.45183470845222473,0.0,0.0,0.0,0.0,14770.0,13255.0,14811.0,13595.0,1.772412657737732,0.033752536330581756,-0.1458579064210176,-0.03686341383952203,-0.036834716796875,0.04070628061890602,0.0
351,5,-0.0014984601875767112,0.0011318118777126074,0.0027262293733656406,0.017041483893990517,-0.009154007770121098,0.006115274503827095,-0.009259069338440895,0.007332263980060816,0.003748243907466531,0.23229822516441345,0.714052677154541,0.006943562533706427,0.0,0.0,0.0,0.012391053140163422,0.008625401183962822,-0.0,0.0,0.0,0.0,0.0011501128319650888,0.007938598282635212,0.0021797961089760065,15337.0,12450.0,13733.0,14190.0,0.5106817483901978,0.342067688703537,0.4215313494205475,0.45183470845222473,0.0,0.0,0.0,0.0,14770.0,13255.0,14811.0,13595.0,1.772412657737732,0.03412536767912575,-0.14304000111398937,-0.036924745127043704,-0.036834716796875,0.04070628061890602,0.0
356,5,-0.0013910438865423203,0.0011763378279283643,0.002640234539285302,0.01970655471086502,-0.009004720486700535,0.012765499763190746,-0.009259069338440895,0.007332263980060816,0.003748243907466531,0.23229822516441345,0.714052677154541,0.006943562533706427,0.0,0.0,0.0,0.012102903798222542,0.012761835940182209,-0.0,0.0,0.0,0.0,0.0011501128319650888,0.007938598282635212,0.0021797961089760065,15337.0,12450.0,13733.0,14190.0,0.5106817483901978,0.342067688703537,0.4215313494205475,0.45183470845222473,0.0,0.0,0.0,0.0,14770.0,13255.0,14811.0,13595.0,1.8088362216949463,0.034935126468624,-0.13876438944712366,-0.037187522526926975,-0.055618684738874435,0.04057683050632477,-0.0
361,5,-0.0012983452761545777,0.0012165054213255644,0.0025463129859417677,0.019006453454494476,-0.00842200592160225,0.016376769170165062,-0.006739763543009758,-0.0017528259195387363,0.002899373881518841,0.21354494988918304,0.8195136785507202,-0.003893795423209667,0.0,0.0,0.0,0.012102903798222542,0.012761835940182209,-0.0,0.0,0.0,0.0,0.0009921944001689553,0.01478623691946268,-0.0015940951416268945,14238.0,13389.0,12229.0,15472.0,0.4550825357437134,0.3994218111038208,0.3292155861854553,0.5423955321311951,0.0,0.0,0.0,0.0,14081.0,13576.0,12346.0,15361.0,1.8088362216949463,0.0362909712248081,-0.13494678230269389,-0.03673260472082615,-0.055618684738874435,0.04057683050632477,-0.0
366,5,-0.0012268135324120522,0.001231506816111505,0.0024282699450850487,0.016186388209462166,-0.005168961826711893,0.020715883001685143,-0.005052202846854925,-0.007952025160193443,0.0035380790941417217,0.14732331037521362,0.6709849238395691,0.057520460337400436,0.0,0.0,0.0,0.011329921893775463,0.014582609757781029,-0.0,0.0,0.0,0.0,0.0009754036436788738,0.020139358937740326,0.0027141114696860313,15991.0,11570.0,13693.0,14597.0,0.5814197063446045,0.2923913300037384,0.4189450442790985,0.47965654730796814,0.0,0.0,0.0,0.0,15815.0,11874.0,13374.0,14842.0,1.8239028453826904,0.03698475889153132,-0.13168073879599337,-0.037032277747955054,-0.06408340483903885,0.038301896303892136,-0.0
371,5,-0.001182309351861477,0.001265633967705071,0.0023303881753236055,0.011815054342150688,-0.006162844132632017,0.020032158121466637,-0.005052202846854925,-0.007952025160193443,0.0035380790941417217,0.14732331037521362,0.6709849238395691,0.057520460337400436,0.0,0.0,0.0,0.011329921893775463,0.014582609757781029,-0.0,0.0,0.0,0.0,0.0009754036436788738,0.020139358937740326,0.0027141114696860313,15991.0,11570.0,13693.0,14597.0,0.5814197063446045,0.2923913300037384,0.4189450442790985,0.47965654730796814,0.0,0.0,0.0,0.0,15815.0,11874.0,13374.0,14842.0,1.8239028453826904,0.037960328502642214,-0.128343033648737,-0.0382377301226443,-0.06408340483903885,0.038301896303892136,-0.0
376,5,-0.0011584272142499685,0.0013054672162979841,0.002246250631287694,0.007591877598315477,-0.007245129439979792,0.018109364435076714,-0.00339131779037416,-0.014921178109943867,0.002978349570184946,0.1029355451464653,0.3864360451698303,-0.05144359543919563,0.0,0.0,0.0,0.009254648350179195,0.008927080780267715,-0.0,0.0,0.0,0.0,0.0011041810503229499,0.01845388114452362,-0.001986881485208869,14654.0,13518.0,12435.0,15925.0,0.48362305760383606,0.40765711665153503,0.34120145440101624,0.5763545632362366,0.0,0.0,0.0,0.0,15441.0,12693.0,12706.0,15641.0,1.7549984455108643,0.03845314385621728,-0.126449853631516,-0.03830520397672582,-0.037749722599983215,0.030104676261544228,-0.0
382,5,-0.0011442149989306927,0.001349446247331798,0.002192907966673374,0.0047422125935554504,-0.008175531402230263,0.013644878752529621,-0.00339131779037416,-0.014921178109943867,0.002978349570184946,0.1029355451464653,0.3864360451698303,-0.05144359543919563,0.0,0.0,0.0,0.009254648350179195,0.008927080780267715,-0.0,0.0,0.0,0.0,0.0011041810503229499,0.01845388114452362,-0.001986881485208869,14654.0,13518.0,12435.0,15925.0,0.48362305760383606,0.40765711665153503,0.34120145440101624,0.5763545632362366,0.0,0.0,0.0,0.0,15441.0,12693.0,12706.0,15641.0,1.7549984455108643,0.03920649928862343,-0.1260199828964778,-0.03777500557879256,-0.037749722599983215,0.030104676261544228,-0.0
387,5,-0.0011648107320070267,0.0013780632289126515,0.00217183749191463,-0.0005745964590460062,-0.006704260129481554,0.007986405864357948,-0.00339131779037416,-0.014921178109943867,0.002978349570184946,0.1029355451464653,0.3864360451698303,-0.05144359543919563,0.0,0.0,0.0,0.011869808658957481,0.002738474402576685,-0.0,0.0,0.0,0.0,0.0011041810503229499,0.01845388114452362,-0.001986881485208869,14654.0,13518.0,12435.0,15925.0,0.48362305760383606,0.40765711665153503,0.34120145440101624,0.5763545632362366,0.0,0.0,0.0,0.0,15441.0,12693.0,12706.0,15641.0,1.732589840888977,0.03905322208174333,-0.12648367023570517,-0.03800845760319265,-0.011432078666985035,0.038117945194244385,-0.0
392,5,-0.0012797678355127573,0.0015059005236253142,0.002312874188646674,-0.011319776065647602,-0.012303025461733341,-0.012169279158115387,-0.0024909197818487883,-0.01699354499578476,0.0035187622997909784,0.052030134946107864,0.014387409202754498,0.01387624628841877,0.0,0.0,0.0,0.011869808658957481,0.002738474402576685,-0.0,0.0,0.0,0.0,0.0016198335215449333,0.013047033920884132,0.0022605769336223602,15442.0,12682.0,14151.0,14583.0,0.5401955246925354,0.35583049058914185,0.4491695165634155,0.47870728373527527,0.0,0.0,0.0,0.0,14008.0,13743.0,13313.0,14866.0,1.732589840888977,0.03829522755112666,-0.13050672054498427,-0.038097151969399404,-0.011432078666985035,0.038117945194244385,-0.0
397,5,-0.0013766161864623427,0.001576159382238984,0.002412289846688509,-0.01614971272647381,-0.013352273032069206,-0.016797591000795364,-0.0024909197818487883,-0.01699354499578476,0.0035187622997909784,0.052030134946107864,0.014387409202754498,0.01387624628841877,0.0,0.0,0.0,0.016133872792124748,-0.011292286217212677,-0.0,0.0,0.0,0.0,0.0016198335215449333,0.013047033920884132,0.0022605769336223602,15442.0,12682.0,14151.0,14583.0,0.5401955246925354,0.35583049058914185,0.4491695165634155,0.47870728373527527,0.0,0.0,0.0,0.0,14008.0,13743.0,13313.0,14866.0,1.821290135383606,0.03873617279271684,-0.1340967258805779,-0.03739987382165933,0.04955039918422699,0.05446181446313858,0.0
402,5,-0.0013766161864623427,0.001576159382238984,0.002412289846688509,-0.01614971272647381,-0.013352273032069206,-0.016797591000795364,-0.0023958671372383833,-0.014332285150885582,0.002745786914601922,-0.02851061336696148,-0.4106515645980835,-0.0333489254117012,0.0,0.0,0.0,0.016133872792124748,-0.011292286217212677,-0.0,0.0,0.0,0.0,0.0026385143864899874,0.001488472567871213,-0.0018188547110185027,13395.0,14235.0,13617.0,14692.0,0.39983028173446655,0.45482826232910156,0.41403865814208984,0.4863012433052063,0.0,0.0,0.0,0.0,13752.0,13577.0,14894.0,13363.0,1.821290135383606,0.03873617279271684,-0.1340967258805779,-0.03739987382165933,0.04955039918422699,0.05446181446313858,0.0
407,5,-0.0016260414849966764,0.0017404844984412193,0.0026780494954437017,-0.023501433432102203,-0.015742430463433266,-0.024953318759799004,-0.0023958671372383833,-0.014332285150885582,0.002745786914601922,-0.02851061336696148,-0.4106515645980835,-0.0333489254117012,0.0,0.0,0.0,0.01702045649290085,-0.015190175734460354,-0.0,0.0,0.0,0.0,0.0026385143864899874,0.001488472567871213,-0.0018188547110185027,13395.0,14235.0,13617.0,14692.0,0.39983028173446655,0.45482826232910156,0.41403865814208984,0.4863012433052063,0.0,0.0,0.0,0.0,13752.0,13577.0,14894.0,13363.0,1.8635894060134888,0.03627791969393145,-0.14238358384620373,-0.03723602258318282,0.06820014864206314,0.05878843367099762,0.0
412,5,-0.001762207131832838,0.0018386703450232744,0.002816174877807498,-0.025740452110767365,-0.018079273402690887,-0.026556359604001045,-0.0028184899128973484,-0.010029029101133347,0.0032055184710770845,-0.03614450618624687,-0.610180139541626,-0.01651848666369915,0.0,0.0,0.0,0.01702045649290085,-0.015190175734460354,-0.0,0.0,0.0,0.0,0.0036857163067907095,-0.008732611313462257,0.0014864456607028842,13347.0,13996.0,14901.0,13334.0,0.3967336416244507,0.43883562088012695,0.5010512471199036,0.39596933126449585,0.0,0.0,0.0,0.0,12392.0,14760.0,14476.0,13885.0,1.8635894060134888,0.03448252949967379,-0.14739916669165207,-0.03643472003999855,0.06820014864206314,0.05878843367099762,0.0
417,5,-0.0018763650441542268,0.0018654244486242533,0.0028811560478061438,-0.023995129391551018,-0.01044219546020031,-0.018420295789837837,-0.0028184899128973484,-0.010029029101133347,0.0032055184710770845,-0.03614450618624687,-0.610180139541626,-0.01651848666369915,0.0,0.0,0.0,0.021362977102398872,-0.022407660260796547,-0.0,0.0,0.0,0.0,0.0036857163067907095,-0.008732611313462257,0.0014864456607028842,13347.0,13996.0,14901.0,13334.0,0.3967336416244507,0.43883562088012695,0.5010512471199036,0.39596933126449585,0.0,0.0,0.0,0.0,12392.0,14760.0,14476.0,13885.0,1.9691962003707886,0.034483497141305795,-0.1516824686310664,-0.03632718862984256,0.10629233717918396,0.07796493172645569,0.0
422,5,-0.0019968259148299694,0.0019033036660403013,0.0029636581894010305,-0.024053357541561127,-0.00872238539159298,-0.017268355935811996,-0.0038838970940560102,-0.0013323153834789991,0.002704643178731203,-0.10371872037649155,-0.7966305017471313,0.011076465249061584,0.0,0.0,0.0,0.021362977102398872,-0.022407660260796547,-0.0,0.0,0.0,0.0,0.005777593702077866,-0.018319685012102127,-0.0006888220668770373,12490.0,15124.0,15683.0,13425.0,0.34446147084236145,0.5170219540596008,0.5581190586090088,0.4016876518726349,0.0,0.0,0.0,0.0,13383.0,14412.0,16490.0,12332.0,1.9691962003707886,0.033309716891022335,-0.1553740107536399,-0.03731432010149663,0.10629233717918396,0.07796493172645569,0.0
427,5,-0.0019968259148299694,0.0019033036660403013,0.0029636581894010305,-0.024053357541561127,-0.00872238539159298,-0.017268355935811996,-0.0038838970940560102,-0.0013323153834789991,0.002704643178731203,-0.10371872037649155,-0.7966305017471313,0.011076465249061584,0.0,0.0,0.0,0.01218440756201744,-0.021952645853161812,-0.0,0.0,0.0,0.0,0.005777593702077866,-0.018319685012102127,-0.0006888220668770373,12490.0,15124.0,15683.0,13425.0,0.34446147084236145,0.5170219540596008,0.5581190586090088,0.4016876518726349,0.0,0.0,0.0,0.0,13383.0,14412.0,16490.0,12332.0,1.9146069288253784,0.033309716891022335,-0.1553740107536399,-0.03731432010149663,0.1012631207704544,0.043238744139671326,0.0
432,5,-0.002152505563572049,0.0019540139473974705,0.002972025191411376,-0.016615713015198708,-0.005776375997811556,-0.003268112661316991,-0.004970344714820385,0.00562278414145112,0.0029206271283328533,-0.09375780820846558,-0.8026592135429382,-0.1135774627327919,0.0,0.0,0.0,0.01218440756201744,-0.021952645853161812,-0.0,0.0,0.0,0.0,0.006073178257793188,-0.022630415856838226,-0.00024532509269192815,11696.0,15959.0,15684.0,13820.0,0.2992584705352783,0.5789564251899719,0.558125913143158,0.42724859714508057,0.0,0.0,0.0,0.0,11087.0,16482.0,15030.0,14415.0,1.9146069288253784,0.03308565041604511,-0.1610130572187366,-0.0366543639967543,0.1012631207704544,0.043238744139671326,0.0
437,5,-0.002224027644842863,0.0019612587057054043,0.002951116068288684,-0.01522892341017723,-0.003179935971274972,0.0012018497800454497,-0.004970344714820385,0.00562278414145112,0.0029206271283328533,-0.09375780820846558,-0.8026592135429382,-0.1135774627327919,0.0,0.0,0.0,0.00952090136706829,-0.016741733998060226,-0.0,0.0,0.0,0.0,0.006073178257793188,-0.022630415856838226,-0.00024532509269192815,11696.0,15959.0,15684.0,13820.0,0.2992584705352783,0.5789564251899719,0.558125913143158,0.42724859714508057,0.0,0.0,0.0,0.0,11087.0,16482.0,15030.0,14415.0,1.840350866317749,0.03361995698986124,-0.1617797376476813,-0.037134689776765054,0.07423572987318039,0.03247695788741112,0.0
443,5,-0.0022812176030129194,0.001970455748960376,0.002952831331640482,-0.012954363599419594,-0.00237561808899045,0.00027489513740874827,-0.005854817572981119,0.013973502442240715,0.0022591345477849245,-0.10057288408279419,-0.6290827989578247,0.03736300393939018,0.0,0.0,0.0,0.00952090136706829,-0.016741733998060226,-0.0,0.0,0.0,0.0,0.0063226777128875256,-0.022711334750056267,0.0002526726166252047,13055.0,15555.0,16783.0,13376.0,0.37854230403900146,0.5485207438468933,0.6435091495513916,0.39862391352653503,0.0,0.0,0.0,0.0,13869.0,14921.0,17181.0,12756.0,1.840350866317749,0.03357219216343438,-0.16268999590879382,-0.037886295646674166,0.07423572987318039,0.03247695788741112,0.0
448,5,-0.0023150101769715548,0.001979874214157462,0.002952833427116275,-0.009236866608262062,-0.0020804600790143013,0.00010970362200168893,-0.005854817572981119,0.013973502442240715,0.0022591345477849245,-0.10057288408279419,-0.6290827989578247,0.03736300393939018,0.0,0.0,0.0,0.005950611084699631,-0.014138552360236645,-0.0,0.0,0.0,0.0,0.0063226777128875256,-0.022711334750056267,0.0002526726166252047,13055.0,15555.0,16783.0,13376.0,0.37854230403900146,0.5485207438468933,0.6435091495513916,0.39862391352653503,0.0,0.0,0.0,0.0,13869.0,14921.0,17181.0,12756.0,1.797089695930481,0.03385707958283131,-0.1624420391055078,-0.03790231669977826,0.061221569776535034,0.019821440801024437,-0.0
453,5,-0.0023081081453710794,0.0019634761847555637,0.0029297724831849337,-0.002866483060643077,0.0011355733731761575,0.0028112137224525213,-0.006166463252156973,0.01694556698203087,0.0025596972554922104,-0.028901364654302597,-0.19442762434482574,-0.09611571580171585,0.0,0.0,0.0,0.005950611084699631,-0.014138552360236645,-0.0,0.0,0.0,0.0,0.0021637119352817535,-0.009473340585827827,0.0006152685382403433,12772.0,15709.0,15428.0,14226.0,0.3612448275089264,0.5600059032440186,0.5391278862953186,0.45422831177711487,0.0,0.0,0.0,0.0,11991.0,16358.0,14657.0,14960.0,1.797089695930481,0.03421937042515933,-0.1617611504872708,-0.036961780965952214,0.061221569776535034,0.019821440801024437,-0.0
458,5,-0.002291867509484291,0.0019371984526515007,0.0029177633114159107,0.0008022832334972918,0.003607566235587001,0.0025655683130025864,-0.006166463252156973,0.01694556698203087,0.0025596972554922104,-0.028901364654302597,-0.19442762434482574,-0.09611571580171585,0.0,0.0,0.0,0.0021121136378496885,-0.005776684731245041,-0.0,0.0,0.0,0.0,0.0021637119352817535,-0.009473340585827827,0.0006152685382403433,12772.0,15709.0,15428.0,14226.0,0.3612448275089264,0.5600059032440186,0.5391278862953186,0.45422831177711487,0.0,0.0,0.0,0.0,11991.0,16358.0,14657.0,14960.0,1.6917130947113037,0.03571098710937165,-0.15977397880770988,-0.0381278738662702,0.02354799211025238,0.006622957065701485,-0.0
463,5,-0.0022959853522479534,0.0019133486784994602,0.002930728252977133,-0.0001732413365971297,0.004304992035031319,-0.0005295605515129864,-0.005703988019376993,0.017585061490535736,0.0021573947742581367,0.06518065184354782,0.13153216242790222,0.08896064013242722,0.0,0.0,0.0,0.0021121136378496885,-0.005776684731245041,-0.0,0.0,0.0,0.0,0.0013393065892159939,-0.002036969643086195,-0.003169278847053647,12595.0,15426.0,12953.0,15375.0,0.35062849521636963,0.5389772653579712,0.37222152948379517,0.535262405872345,0.0,0.0,0.0,0.0,14575.0,13702.0,15709.0,13122.0,1.6917130947113037,0.03520844808630242,-0.15806155620329282,-0.03877676075935296,0.02354799211025238,0.006622957065701485,-0.0
468,5,-0.0022866062354296446,0.001883571152575314,0.0029017433989793062,0.001056214328855276,0.005295306444168091,0.0032663538586348295,-0.005703988019376993,0.017585061490535736,0.0021573947742581367,0.06518065184354782,0.13153216242790222,0.08896064013242722,0.0,0.0,0.0,-0.0017923652194440365,-0.0033375092316418886,-0.0,0.0,0.0,0.0,0.0013393065892159939,-0.002036969643086195,-0.003169278847053647,12595.0,15426.0,12953.0,15375.0,0.35062849521636963,0.5389772653579712,0.37222152948379517,0.535262405872345,0.0,0.0,0.0,0.0,14575.0,13702.0,15709.0,13122.0,1.6649372577667236,0.0360090856909522,-0.15547878090205275,-0.03830336975966726,0.013389697298407555,-0.005531367380172014,0.0
473,5,-0.0022740522399544716,0.001857825438492,0.002853439189493656,0.0019289578776806593,0.005207608919590712,0.007103057578206062,-0.005703988019376993,0.017585061490535736,0.0021573947742581367,0.06518065184354782,0.13153216242790222,0.08896064013242722,0.0,0.0,0.0,-0.0017923652194440365,-0.0033375092316418886,-0.0,0.0,0.0,0.0,0.0013393065892159939,-0.002036969643086195,-0.003169278847053647,12595.0,15426.0,12953.0,15375.0,0.35062849521636963,0.5389772653579712,0.37222152948379517,0.535262405872345,0.0,0.0,0.0,0.0,14575.0,13702.0,15709.0,13122.0,1.6649372577667236,0.036755183990624024,-0.1528257399000124,-0.037842859475586334,0.013389697298407555,-0.005531367380172014,0.0
478,5,-0.002281568478792906,0.0018285971600562334,0.002805998083204031,-0.00013035722076892853,0.005590424872934818,0.008534167893230915,-0.0036666961386799812,0.010111435316503048,0.0015533572295680642,0.14363953471183777,0.5251491665840149,0.1004357635974884,0.0,0.0,0.0,-0.0030045530293136835,-0.0013527964474633336,-0.0,0.0,0.0,0.0,-0.000350262998836115,0.005336269736289978,0.0009573840070515871,14821.0,12642.0,14047.0,13408.0,0.49538594484329224,0.35346460342407227,0.4422183632850647,0.4006441831588745,0.0,0.0,0.0,0.0,12637.0,15444.0,12781.0,15464.0,1.6546674966812134,0.03711991190488578,-0.14964774497810832,-0.038459569903334184,0.005393777042627335,-0.009215055964887142,-0.0
483,5,-0.002287718467414379,0.0017633632523939013,0.0027148108929395676,-0.0007901485078036785,0.010064242407679558,0.014356105588376522,-0.0036666961386799812,0.010111435316503048,0.0015533572295680642,0.14363953471183777,0.5251491665840149,0.1004357635974884,0.0,0.0,0.0,-0.0030045530293136835,-0.0013527964474633336,-0.0,0.0,0.0,0.0,-0.000350262998836115,0.005336269736289978,0.0009573840070515871,14821.0,12642.0,14047.0,13408.0,0.49538594484329224,0.35346460342407227,0.4422183632850647,0.4006441831588745,0.0,0.0,0.0,0.0,12637.0,15444.0,12781.0,15464.0,1.6546674966812134,0.03887945674892454,-0.1470154687234835,-0.03865689017048175,0.005393777042627335,-0.009215055964887142,-0.0
