timestamp,dt,pos_x,pos_y,pos_z,vel_x,vel_y,vel_z,roll,pitch,yaw,agv_x,agv_y,agv_z,x_ref,y_ref,z_ref,roll_ref,pitch_ref,yaw_ref,x_vel_ref,y_vel_ref,z_vel_ref,x_torque,y_torque,z_torque,w0,w1,w2,w3,u0,u1,u2,u3,m0req,m1req,m2req,m3req,thrust0,thrust1,thrust2,thrust3,thrust_ref,roll_vicon,pitch_vicon,yaw_vicon,acc_x,acc_y,acc_z
5,5,0.0,0.0,0.0,8.458891534246504e-05,0.00361429201439023,0.00033257942413911223,0.027231667190790176,-0.06909611821174622,0.0033111758530139923,0.0015607154928147793,-0.0011362399673089385,-0.0011404423275962472,0.0,0.0,0.0,-0.004398484714329243,7.918658957350999e-05,-0.0,0.0,0.0,0.0,-0.0031769960187375546,0.006918811239302158,0.0002851238241419196,1495.0,1495.0,1495.0,1495.0,0.0,0.0,0.0,0.0,0.0,0.0,0.0,0.0,1495.0,1495.0,1495.0,1495.0,1.6624377965927124,0.04047917214605619,0.08685827337312177,-0.07189269892594399,-0.0003172084398102015,-0.013553595170378685,0.0
33,28,0.0,0.0,0.0,-0.001363556133583188,0.003278485033661127,0.0007598468801006675,0.027231667190790176,-0.06909611821174622,0.0033111758530139923,0.0015607154928147793,-0.0011362399673089385,-0.0011404423275962472,0.0,0.0,0.0,-0.004398484714329243,7.918658957350999e-05,-0.0,0.0,0.0,0.0,-0.0031769960187375546,0.006918811239302158,0.0002851238241419196,1495.0,1495.0,1495.0,1495.0,0.0,0.0,0.0,0.0,0.0,0.0,0.0,0.0,1495.0,1495.0,1495.0,1495.0,1.6624377965927124,0.04041123462491428,0.08678626049550736,-0.07173067979005295,-0.0003172084398102015,-0.013553595170378685,0.0
38,5,0.0,0.0,0.0,-0.00024193350691348314,-0.0004937383346259594,0.0015852127689868212,0.027255555614829063,-0.06910721212625504,0.0032971363980323076,-0.0004902424989268184,0.00011692156840581447,-0.0002227068762294948,0.0,0.0,0.0,-0.003991382196545601,-0.0012769716558977962,-0.0,0.0,0.0,0.0,-0.0031932303681969643,0.006885834503918886,0.00024980513262562454,1495.0,1495.0,1495.0,1495.0,0.0,0.0,0.0,0.0,0.0,0.0,0.0,0.0,1495.0,1495.0,1495.0,1495.0,1.6617844104766846,0.04145187706495545,0.08679973847389445,-0.07219478941046058,0.0051133353263139725,-0.012294318526983261,0.0
43,5,0.0,0.0,0.0,-0.0027048951014876366,0.0007259311387315392,0.002571122022345662,0.027255555614829063,-0.06910721212625504,0.0032971363980323076,-0.0004902424989268184,0.00011692156840581447,-0.0002227068762294948,0.0,0.0,0.0,-0.003991382196545601,-0.0012769716558977962,-0.0,0.0,0.0,0.0,-0.0031932303681969643,0.006885834503918886,0.00024980513262562454,1495.0,1495.0,1495.0,1495.0,0.0,0.0,0.0,0.0,0.0,0.0,0.0,0.0,1495.0,1495.0,1495.0,1495.0,1.6617844104766846,0.04098142482980503,0.08610206542535004,-0.07177856899911551,0.0051133353263139725,-0.012294318526983261,0.0
48,5,0.0,0.0,0.0,-0.0005630304804071784,-2.7572685212362558e-05,-0.0002775734174065292,0.027255555614829063,-0.06910721212625504,0.0032971363980323076,-0.0004902424989268184,0.00011692156840581447,-0.0002227068762294948,0.0,0.0,0.0,-0.0008878353401087224,-0.0025447469670325518,-0.0,0.0,0.0,0.0,-0.0031932303681969643,0.006885834503918886,0.00024980513262562454,1495.0,1495.0,1495.0,1495.0,0.0,0.0,0.0,0.0,0.0,0.0,0.0,0.0,1495.0,1495.0,1495.0,1495.0,1.6541916131973267,0.04145758332985009,0.08630581903337291,-0.07225344782261625,0.010143356397747993,-0.002722241682931781,0.0
53,5,0.0,0.0,0.0,-0.0005630304804071784,-2.7572685212362558e-05,-0.0002775734174065292,0.027285469695925713,-0.06910298764705658,0.003303737845271826,-0.00019461837655398995,-0.0021299137733876705,-0.005439385771751404,0.0,0.0,0.0,-0.0008878353401087224,-0.0025447469670325518,-0.0,0.0,0.0,0.0,-0.0031265858560800552,0.00674532912671566,0.0003230054280720651,14414.0,13251.0,13059.0,13789.0,0.4670667052268982,0.3907405138015747,0.37876176834106445,0.4252154231071472,0.0,0.0,0.0,0.0,1495.0,1495.0,1495.0,1495.0,1.6541916131973267,0.04145758332985009,0.08630581903337291,-0.07225344782261625,0.010143356397747993,-0.002722241682931781,0.0
58,5,1.861807868408505e-05,1.4431449926632922e-05,1.9491795683279634e-05,0.001632573432289064,-0.002674973802641034,-0.0027917465195059776,0.027285469695925713,-0.06910298764705658,0.003303737845271826,-0.00019461837655398995,-0.0021299137733876705,-0.005439385771751404,0.0,0.0,0.0,3.419155837036669e-05,-0.0005370668950490654,-0.0,0.0,0.0,0.0,-0.0031265858560800552,0.00674532912671566,0.0003230054280720651,14414.0,13251.0,13059.0,13789.0,0.4670667052268982,0.3907405138015747,0.37876176834106445,0.4252154231071472,0.0,0.0,0.0,0.0,1495.0,1495.0,1495.0,1495.0,1.6314843893051147,0.039882235574381156,0.08642412312352944,-0.07183254551523253,0.0021113643888384104,0.000103397571365349,0.0
64,5,1.830720248108264e-05,-9.787927979232336e-08,6.628115897910902e-06,0.000615724187809974,0.0006735299248248339,0.00042694289004430175,0.02723919413983822,-0.06911391764879227,0.003260657424107194,0.0006143129430711269,-0.004406450316309929,0.0027008128818124533,0.0,0.0,0.0,3.419155837036669e-05,-0.0005370668950490654,-0.0,0.0,0.0,0.0,-0.0031344089657068253,0.006766677834093571,0.00038998559466563165,14399.0,13166.0,13100.0,13731.0,0.4660445749759674,0.3854188024997711,0.38132038712501526,0.4214078485965729,0.0,0.0,0.0,0.0,14389.0,13276.0,13026.0,13823.0,1.6314843893051147,0.04121398077723971,0.0869513754227297,-0.07214058563332573,0.0021113643888384104,0.000103397571365349,0.0
69,5,1.1993725820502732e-05,1.6188279232665082e-06,2.186419442296028e-05,-0.0005113274673931301,6.34071184322238e-05,-0.0016575523186475039,0.027245424687862396,-0.06910087168216705,0.003251472255215049,-0.0010476505849510431,-0.0023564223665744066,-0.0001875135931186378,0.0,0.0,0.0,-7.571340393042192e-05,-0.00047113621258176863,-0.0,0.0,0.0,0.0,-0.0028290231712162495,0.006676242686808109,0.0003073258267249912,14365.0,13204.0,13058.0,13771.0,0.4637047052383423,0.387747585773468,0.37872523069381714,0.4240140914916992,0.0,0.0,0.0,0.0,14360.0,13209.0,13061.0,13769.0,1.6308101415634155,0.04115799762405896,0.08668886303252354,-0.07248688498389076,0.0018514064140617847,-0.00022886782244313508,0.0
79,10,9.67892356129596e-06,-2.1992716938257217e-05,1.3683541055797832e-07,-0.0010609449818730354,0.0027525750920176506,0.0016567764105275273,0.027245424687862396,-0.06910087168216705,0.003251472255215049,-0.0010476505849510431,-0.0023564223665744066,-0.0001875135931186378,0.0,0.0,0.0,-7.571340393042192e-05,-0.00047113621258176863,-0.0,0.0,0.0,0.0,-0.0028290231712162495,0.006676242686808109,0.0003073258267249912,14365.0,13204.0,13058.0,13771.0,0.4637047052383423,0.387747585773468,0.37872523069381714,0.4240140914916992,0.0,0.0,0.0,0.0,14360.0,13209.0,13061.0,13769.0,1.6308101415634155,0.04046340739164947,0.08618503604298083,-0.07178889131537518,0.0018514064140617847,-0.00022886782244313508,0.0
84,5,1.0789148291223682e-05,-2.8938868126715533e-05,-4.416781393956626e-06,-0.00029115102370269597,0.001934568164870143,0.0012091445969417691,0.027246249839663506,-0.06910472363233566,0.003251619404181838,-0.003143755719065666,-0.0027172453701496124,-0.002833924489095807,0.0,0.0,0.0,-7.571340393042192e-05,-0.00047113621258176863,-0.0,0.0,0.0,0.0,-0.0027389489114284515,0.006865780800580978,0.0002470288600306958,14264.0,13119.0,12930.0,13730.0,0.4568047523498535,0.38245266675949097,0.3708723187446594,0.42135465145111084,0.0,0.0,0.0,0.0,14311.0,13066.0,12982.0,13682.0,1.6308101415634155,0.04134201283065468,0.08600138787700072,-0.0716512170021304,0.0018514064140617847,-0.00022886782244313508,0.0
89,5,7.109457328624558e-06,-1.2699151739070658e-05,3.1584329462930327e-06,-0.0005580232245847583,-0.0011749386321753263,-0.00042536790715530515,0.027246249839663506,-0.06910472363233566,0.003251619404181838,-0.003143755719065666,-0.0027172453701496124,-0.002833924489095807,0.0,0.0,0.0,-0.002429952844977379,-0.00026027249987237155,-0.0,0.0,0.0,0.0,-0.0027389489114284515,0.006865780800580978,0.0002470288600306958,14264.0,13119.0,12930.0,13730.0,0.4568047523498535,0.38245266675949097,0.3708723187446594,0.42135465145111084,0.0,0.0,0.0,0.0,14311.0,13066.0,12982.0,13682.0,1.646040678024292,0.04053375843999193,0.08646117324667559,-0.07178514810047154,0.0010323321912437677,-0.007413890212774277,0.0
94,5,-1.266816838096929e-07,7.485818514396669e-06,6.9984666879463475e-06,-0.0010915460297837853,-0.0028921719640493393,-0.0006309511954896152,0.027212996035814285,-0.06912731379270554,0.003249478293582797,-1.149408308265265e-05,0.0006150249391794205,-0.00212471024133265,0.0,0.0,0.0,-0.002429952844977379,-0.00026027249987237155,-0.0,0.0,0.0,0.0,-0.002815264044329524,0.007044331170618534,0.00037123358924873173,14325.0,13095.0,12959.0,13720.0,0.4609443247318268,0.3810066282749176,0.37259283661842346,0.42067745327949524,0.0,0.0,0.0,0.0,14278.0,13103.0,12928.0,13722.0,1.646040678024292,0.04009271796779317,0.08699571977911585,-0.07186951039227468,0.0010323321912437677,-0.007413890212774277,0.0
99,5,1.767395770002622e-05,-8.66161281010136e-06,-2.3898278413980734e-06,0.0016994583420455456,0.000780823000241071,0.0008742148638702929,0.027212996035814285,-0.06912731379270554,0.003249478293582797,-1.149408308265265e-05,0.0006150249391794205,-0.00212471024133265,0.0,0.0,0.0,0.0035440949723124504,-0.001025172765366733,-0.0,0.0,0.0,0.0,-0.002815264044329524,0.007044331170618534,0.00037123358924873173,14325.0,13095.0,12959.0,13720.0,0.4609443247318268,0.3810066282749176,0.37259283661842346,0.42067745327949524,0.0,0.0,0.0,0.0,14278.0,13103.0,12928.0,13722.0,1.6572418212890625,0.03985333799904355,0.0865009518341943,-0.07160447510652376,0.004093850962817669,0.010886747390031815,0.0
104,5,2.755077048277599e-06,6.172811026772251e-06,-1.2654889758323407e-07,-0.0011104823788627982,-0.0014678016304969788,7.809246744727716e-05,0.027212996035814285,-0.06912731379270554,0.003249478293582797,-1.149408308265265e-05,0.0006150249391794205,-0.00212471024133265,0.0,0.0,0.0,0.0035440949723124504,-0.001025172765366733,-0.0,0.0,0.0,0.0,-0.002815264044329524,0.007044331170618534,0.00037123358924873173,14325.0,13095.0,12959.0,13720.0,0.4609443247318268,0.3810066282749176,0.37259283661842346,0.42067745327949524,0.0,0.0,0.0,0.0,14278.0,13103.0,12928.0,13722.0,1.6572418212890625,0.04038712020891709,0.08654036653521649,-0.07222241024032214,0.004093850962817669,0.010886747390031815,0.0
109,5,2.2162183086038567e-05,6.054424829926575e-06,9.175478226097766e-06,0.0018846598686650395,-0.0005729143158532679,-0.0010850062826648355,0.02721112221479416,-0.06914492696523666,0.0032416381873190403,0.00333071849308908,-0.0032594134099781513,-0.001471595256589353,0.0,0.0,0.0,0.0018168571405112743,-0.0010470228735357523,-0.0,0.0,0.0,0.0,-0.0027580787427723408,0.006914246827363968,0.00029369114781729877,14281.0,13100.0,12937.0,13714.0,0.4579492211341858,0.38133347034454346,0.3712446689605713,0.420282781124115,0.0,0.0,0.0,0.0,14381.0,13147.0,13010.0,13729.0,1.6445099115371704,0.04040134349273846,0.08647835110024304,-0.07188894910974317,0.004149002954363823,0.00553815858438611,0.0
114,5,7.729033313808031e-06,2.073381040190725e-07,2.8950786145287566e-05,-0.0009781140834093094,0.0004724846803583205,-0.0028070395346730947,0.027217313647270203,-0.06916207075119019,0.0032412162981927395,0.0017085291910916567,0.0025813900865614414,0.0001981870154850185,0.0,0.0,0.0,0.0018168571405112743,-0.0010470228735357523,-0.0,0.0,0.0,0.0,-0.0030017865356057882,0.006993077229708433,0.00034594949102029204,14383.0,13144.0,13003.0,13737.0,0.4649055600166321,0.3840520977973938,0.37530434131622314,0.42177867889404297,0.0,0.0,0.0,0.0,14364.0,13172.0,13079.0,13830.0,1.6445099115371704,0.041462976989689496,0.0866564338353987,-0.07252730925649964,0.004149002954363823,0.00553815858438611,0.0
119,5,2.2382269889931194e-05,-9.622570473766245e-08,-3.192981523625349e-07,0.0013671426568180323,0.00022542152146343142,0.0023895944468677044,0.027217313647270203,-0.06916207075119019,0.0032412162981927395,0.0017085291910916567,0.0025813900865614414,0.0001981870154850185,0.0,0.0,0.0,-0.0002777309564407915,0.0013081654906272888,-0.0,0.0,0.0,0.0,-0.0030017865356057882,0.006993077229708433,0.00034594949102029204,14383.0,13144.0,13003.0,13737.0,0.4649055600166321,0.3840520977973938,0.37530434131622314,0.42177867889404297,0.0,0.0,0.0,0.0,14364.0,13172.0,13079.0,13830.0,1.6399551630020142,0.04179395150959458,0.08666509160368487,-0.07222295246961365,-0.005169474519789219,-0.0008442378020845354,-0.0
124,5,2.8189975637360476e-05,-1.072077066055499e-05,1.465458444727119e-05,0.0012437817640602589,0.001365114003419876,-0.0008410281734541059,0.027217313647270203,-0.06916207075119019,0.0032412162981927395,0.0017085291910916567,0.0025813900865614414,0.0001981870154850185,0.0,0.0,0.0,-0.0002777309564407915,0.0013081654906272888,-0.0,0.0,0.0,0.0,-0.0030017865356057882,0.006993077229708433,0.00034594949102029204,14383.0,13144.0,13003.0,13737.0,0.4649055600166321,0.3840520977973938,0.37530434131622314,0.42177867889404297,0.0,0.0,0.0,0.0,14364.0,13172.0,13079.0,13830.0,1.6399551630020142,0.04150568142889432,0.08664172997212628,-0.07224112281590506,-0.005169474519789219,-0.0008442378020845354,-0.0
130,5,8.900620741769671e-06,-4.734274170914432e-06,1.8850334527087398e-05,-0.0018172097625210881,-0.00017233393737114966,-0.0008399012731388211,0.02720492333173752,-0.0691710039973259,0.003251404734328389,-0.00228642369620502,-0.007963730953633785,0.004304761532694101,0.0,0.0,0.0,0.00020348951511550695,-0.00170763093046844,-0.0,0.0,0.0,0.0,-0.0023874063044786453,0.006852653808891773,0.00043593914597295225,14407.0,13123.0,13140.0,13774.0,0.4665418267250061,0.38270360231399536,0.38377904891967773,0.4242173433303833,0.0,0.0,0.0,0.0,14341.0,13121.0,13038.0,13747.0,1.6441673040390015,0.04129891395766452,0.086444361954947,-0.07236690149418708,0.00676537211984396,0.0006201497744768858,0.0
135,5,1.4268268387240823e-05,-8.559175626032811e-07,2.1117457436048426e-05,-8.276622247649357e-05,-0.0005343363736756146,-0.0006080151651985943,0.02720492333173752,-0.0691710039973259,0.003251404734328389,-0.00228642369620502,-0.007963730953633785,0.004304761532694101,0.0,0.0,0.0,0.00020348951511550695,-0.00170763093046844,-0.0,0.0,0.0,0.0,-0.0023874063044786453,0.006852653808891773,0.00043593914597295225,14407.0,13123.0,13140.0,13774.0,0.4665418267250061,0.38270360231399536,0.38377904891967773,0.4242173433303833,0.0,0.0,0.0,0.0,14341.0,13121.0,13038.0,13747.0,1.6441673040390015,0.040690148622206636,0.08623740601810981,-0.07209977239578302,0.00676537211984396,0.0006201497744768858,0.0
140,5,2.0240886442479677e-05,-5.689606041414663e-06,-1.36524113258929e-05,0.0006836075917817652,0.0003663080569822341,0.0039291782304644585,0.027211559936404228,-0.06914184242486954,0.0032386647071689367,0.00031255948124453425,-0.00264707556925714,-0.004434140864759684,0.0,0.0,0.0,-0.00046391625073738396,0.0006794473738409579,-0.0,0.0,0.0,0.0,-0.002584009198471904,0.006898768711835146,0.00028242997359484434,14296.0,13169.0,12981.0,13801.0,0.45898085832595825,0.3855803608894348,0.3739786744117737,0.42597001791000366,0.0,0.0,0.0,0.0,14301.0,13164.0,12989.0,13793.0,1.633947491645813,0.04082421916328721,0.08658886675591419,-0.07191229425863581,-0.00267513538710773,-0.0014050320023670793,0.0
145,5,1.966300442290958e-05,-1.0030591511167586e-05,2.7794414563686587e-05,0.00020409731951076537,0.000667441519908607,-0.003401947906240821,0.027211559936404228,-0.06914184242486954,0.0032386647071689367,0.00031255948124453425,-0.00264707556925714,-0.004434140864759684,0.0,0.0,0.0,-0.00046391625073738396,0.0006794473738409579,-0.0,0.0,0.0,0.0,-0.002584009198471904,0.006898768711835146,0.00028242997359484434,14296.0,13169.0,12981.0,13801.0,0.45898085832595825,0.3855803608894348,0.3739786744117737,0.42597001791000366,0.0,0.0,0.0,0.0,14301.0,13164.0,12989.0,13793.0,1.633947491645813,0.039875638754031474,0.0871381922633831,-0.071516709277355,-0.00267513538710773,-0.0014050320023670793,0.0
150,5,5.912938831897918e-06,-6.717957148794085e-06,2.9425849788822234e-05,-0.0015683689853176475,-0.00013053954171482474,-0.0015565514331683517,0.027241822332143784,-0.06911710649728775,0.0032508454751223326,0.005073653534054756,-0.006744113750755787,0.0033561380114406347,0.0,0.0,0.0,-0.00046391625073738396,0.0006794473738409579,-0.0,0.0,0.0,0.0,-0.0028420439921319485,0.007100702729076147,0.00043985361116938293,14388.0,13067.0,13018.0,13698.0,0.4652476906776428,0.37923479080200195,0.3762112259864807,0.41926145553588867,0.0,0.0,0.0,0.0,14352.0,13101.0,12979.0,13739.0,1.633947491645813,0.040898454210859386,0.08692547273358796,-0.07211033247480107,-0.00267513538710773,-0.0014050320023670793,0.0
155,5,1.1696018191287294e-05,-6.306780960585456e-06,1.1478962733235676e-05,6.662195664830506e-05,-0.00010155695781577379,0.00153100595343858,0.027241822332143784,-0.06911710649728775,0.0032508454751223326,0.005073653534054756,-0.006744113750755787,0.0033561380114406347,0.0,0.0,0.0,0.0001486949622631073,-0.0014784784289076924,-0.0,0.0,0.0,0.0,-0.0028420439921319485,0.007100702729076147,0.00043985361116938293,14388.0,13067.0,13018.0,13698.0,0.4652476906776428,0.37923479080200195,0.3762112259864807,0.41926145553588867,0.0,0.0,0.0,0.0,14352.0,13101.0,12979.0,13739.0,1.6416560411453247,0.04070845170818901,0.08654995972282105,-0.0717718958407895,0.0058485595509409904,0.0004524670948740095,0.0
160,5,9.129756108450238e-06,-9.928453437169082e-06,1.0764806575025432e-05,-0.0002813027531374246,0.0003939779126085341,0.0006981011247262359,0.02724633179605007,-0.0691344141960144,0.003237191354855895,-0.0007964923861436546,0.001438794657588005,-0.0017276117578148842,0.0,0.0,0.0,0.0001486949622631073,-0.0014784784289076924,-0.0,0.0,0.0,0.0,-0.0030128145590424538,0.007219625171273947,0.0004974519251845777,14318.0,13165.0,12980.0,13778.0,0.4604756534099579,0.3853560984134674,0.37387993931770325,0.4244556128978729,0.0,0.0,0.0,0.0,14354.0,13126.0,13025.0,13735.0,1.6416560411453247,0.04118879537467685,0.086401478388714,-0.07175329117102734,0.0058485595509409904,0.0004524670948740095,0.0
165,5,-5.0921229558298364e-05,-1.5370720575447194e-05,1.9465265722828917e-05,-0.007318639196455479,0.000810663215816021,-0.0007648147293366492,0.02724633179605007,-0.0691344141960144,0.003237191354855895,-0.0007964923861436546,0.001438794657588005,-0.0017276117578148842,0.0,0.0,0.0,-0.0005068950122222304,-0.00025559269124642015,-0.0,0.0,0.0,0.0,-0.0030128145590424538,0.007219625171273947,0.0004974519251845777,14318.0,13165.0,12980.0,13778.0,0.4604756534099579,0.3853560984134674,0.37387993931770325,0.4244556128978729,0.0,0.0,0.0,0.0,14354.0,13126.0,13025.0,13735.0,1.6307193040847778,0.03925384006408773,0.0884821161203658,-0.07361834455119107,0.001004336983896792,-0.0015321657992899418,-0.0
170,5,4.510320650297217e-05,3.898759314324707e-05,-3.242361344746314e-05,0.008595476858317852,-0.006198732182383537,0.005920739844441414,0.02735602669417858,-0.06918895989656448,0.0032626925967633724,0.0202939473092556,-0.0015259733190760016,0.00772078288719058,0.0,0.0,0.0,-0.0005068950122222304,-0.00025559269124642015,-0.0,0.0,0.0,0.0,-0.0028071070555597544,0.006887187249958515,0.0001489990099798888,14419.0,13007.0,13017.0,13630.0,0.4674001932144165,0.37554460763931274,0.37615519762039185,0.4148474931716919,0.0,0.0,0.0,0.0,14324.0,13092.0,12952.0,13711.0,1.6307193040847778,0.04249135318861434,0.08611385030954796,-0.07167475887506368,0.001004336983896792,-0.0015321657992899418,-0.0
175,5,2.9018076020292938e-05,2.1611922420561314e-06,8.150258508976549e-06,0.0015079749282449484,0.001939675072208047,-0.002500568749383092,0.02735602669417858,-0.06918895989656448,0.0032626925967633724,0.0202939473092556,-0.0015259733190760016,0.00772078288719058,0.0,0.0,0.0,0.0073021650314331055,0.0077773695811629295,-0.0,0.0,0.0,0.0,-0.0028071070555597544,0.006887187249958515,0.0001489990099798888,14419.0,13007.0,13017.0,13630.0,0.4674001932144165,0.37554460763931274,0.37615519762039185,0.4148474931716919,0.0,0.0,0.0,0.0,14324.0,13092.0,12952.0,13711.0,1.733280062675476,0.04204619208349613,0.08696120435484077,-0.07283392039580522,-0.032481599599123,0.023459671065211296,0.0
181,5,2.765805766102858e-05,-8.36888557387283e-06,4.3653493776218966e-05,0.003246309468522668,0.0013689210172742605,-0.002930790651589632,0.02742617204785347,-0.06915353983640671,0.0032737399451434612,0.01413271576166153,-0.005839081481099129,0.03238315135240555,0.0,0.0,0.0,0.0073021650314331055,0.0077773695811629295,-0.0,0.0,0.0,0.0,-0.002924111904576421,0.007054198998957872,-0.0010857757879421115,13975.0,13443.0,12552.0,14048.0,0.4374580383300781,0.4028666615486145,0.3481195569038391,0.4422750473022461,0.0,0.0,0.0,0.0,14782.0,12645.0,13472.0,13251.0,1.733280062675476,0.04075324736466159,0.08550182660845676,-0.07219054225849915,-0.032481599599123,0.023459671065211296,0.0
186,5,2.082380342471879e-05,-1.9098457414656878e-05,2.6197269107797183e-05,0.00047841339255683124,0.0018351170001551509,0.00092243094695732,0.02742617204785347,-0.06915353983640671,0.0032737399451434612,0.01413271576166153,-0.005839081481099129,0.03238315135240555,0.0,0.0,0.0,-0.001681391499005258,0.0030780257657170296,-0.0,0.0,0.0,0.0,-0.002924111904576421,0.007054198998957872,-0.0010857757879421115,13975.0,13443.0,12552.0,14048.0,0.4374580383300781,0.4028666615486145,0.3481195569038391,0.4422750473022461,0.0,0.0,0.0,0.0,14782.0,12645.0,13472.0,13251.0,1.661928415298462,0.041762830185845846,0.08674085124747181,-0.07279574125756569,-0.012326369062066078,-0.005179517902433872,0.0
191,5,2.082380342471879e-05,-1.9098457414656878e-05,2.6197269107797183e-05,0.00047841339255683124,0.0018351170001551509,0.00092243094695732,0.027559401467442513,-0.06915086507797241,0.0031074692960828543,-0.0007559152436442673,0.003279082477092743,-0.0056847776286304,0.0,0.0,0.0,-0.001681391499005258,0.0030780257657170296,-0.0,0.0,0.0,0.0,-0.0021639843471348286,0.007923482917249203,-0.000957456068135798,14168.0,13927.0,12751.0,14726.0,0.4503159821033478,0.43428972363471985,0.35999056696891785,0.4886837899684906,0.0,0.0,0.0,0.0,14786.0,12533.0,13457.0,13193.0,1.661928415298462,0.041762830185845846,0.08674085124747181,-0.07279574125756569,-0.012326369062066078,-0.005179517902433872,0.0
196,5,6.533730811497662e-06,-2.2959718990023248e-05,3.246302003390156e-05,-0.0015234433813020587,0.0011973984073847532,-0.00038291802047751844,0.027559401467442513,-0.06915086507797241,0.0031074692960828543,-0.0007559152436442673,0.003279082477092743,-0.0056847776286304,0.0,0.0,0.0,-0.0022908940445631742,0.00048155192052945495,-0.0,0.0,0.0,0.0,-0.0021639843471348286,0.007923482917249203,-0.000957456068135798,14168.0,13927.0,12751.0,14726.0,0.4503159821033478,0.43428972363471985,0.35999056696891785,0.4886837899684906,0.0,0.0,0.0,0.0,14786.0,12533.0,13457.0,13193.0,1.645384669303894,0.04063904547982014,0.08685505474834217,-0.07233533563469006,-0.0019092434085905552,-0.006986832246184349,-0.0
201,5,1.1196082596143242e-05,-2.762982330750674e-05,2.706878603930818e-06,0.0007021308410912752,0.0013053028378635645,0.003531001042574644,0.027498925104737282,-0.06922850012779236,0.0030759968794882298,-0.025452731177210808,0.008193918503820896,-0.05577978864312172,0.0,0.0,0.0,-0.0022908940445631742,0.00048155192052945495,-0.0,0.0,0.0,0.0,-0.0021325291600078344,0.007758502382785082,0.00036549539072439075,14673.0,13407.0,13326.0,14197.0,0.4849931299686432,0.40055474638938904,0.39541587233543396,0.4523163139820099,0.0,0.0,0.0,0.0,14330.0,13707.0,12992.0,14566.0,1.645384669303894,0.04164318716708252,0.08729251094365337,-0.07252321524341371,-0.0019092434085905552,-0.006986832246184349,-0.0
206,5,6.884941285534296e-06,-5.529711415874772e-06,4.1319777665194124e-05,-0.0002364846004638821,-0.0021298923529684544,-0.003221147460862994,0.027498925104737282,-0.06922850012779236,0.0030759968794882298,-0.025452731177210808,0.008193918503820896,-0.05577978864312172,0.0,0.0,0.0,-0.0016590149607509375,0.0006815098458901048,-0.0,0.0,0.0,0.0,-0.0021325291600078344,0.007758502382785082,0.00036549539072439075,14673.0,13407.0,13326.0,14197.0,0.4849931299686432,0.40055474638938904,0.39541587233543396,0.4523163139820099,0.0,0.0,0.0,0.0,14330.0,13707.0,12992.0,14566.0,1.6412659883499146,0.039426414486381525,0.0867939779844514,-0.07246355720240859,-0.0026952705811709166,-0.005047048442065716,-0.0
211,5,1.3330808542377781e-05,-1.642647293920163e-05,3.769886097870767e-05,0.0006789102917537093,0.00045565442997030914,-0.0008539491682313383,0.027498925104737282,-0.06922850012779236,0.0030759968794882298,-0.025452731177210808,0.008193918503820896,-0.05577978864312172,0.0,0.0,0.0,-0.0016590149607509375,0.0006815098458901048,-0.0,0.0,0.0,0.0,-0.0021325291600078344,0.007758502382785082,0.00036549539072439075,14673.0,13407.0,13326.0,14197.0,0.4849931299686432,0.40055474638938904,0.39541587233543396,0.4523163139820099,0.0,0.0,0.0,0.0,14330.0,13707.0,12992.0,14566.0,1.6412659883499146,0.04114565841411188,0.08678719238030679,-0.07272849918601264,-0.0026952705811709166,-0.005047048442065716,-0.0
216,5,1.665030504227616e-05,-4.546697164187208e-05,9.001171565614641e-05,0.0006699037039652467,0.003667121520265937,-0.0066191223450005054,0.027752386406064034,-0.06914268434047699,0.0028052229899913073,0.02611309289932251,-0.02454368770122528,-0.007557429373264313,0.0,0.0,0.0,-0.00059394387062639,0.0006652659503743052,-0.0,0.0,0.0,0.0,-0.0031646399293094873,0.007379007525742054,-0.0002736159658525139,14312.0,13370.0,12856.0,13973.0,0.46007436513900757,0.3982139229774475,0.36632198095321655,0.4373181462287903,0.0,0.0,0.0,0.0,14315.0,13387.0,12813.0,13992.0,1.6343724727630615,0.04264712349786242,0.08710874794513855,-0.07392237801161311,-0.0026199810672551394,-0.0017993057845160365,0.0
221,5,1.2519310075731482e-05,-7.460481720045209e-05,8.744944352656603e-05,-0.00022775800607632846,0.004963389597833157,-0.002340175909921527,0.027752386406064034,-0.06914268434047699,0.0028052229899913073,0.02611309289932251,-0.02454368770122528,-0.007557429373264313,0.0,0.0,0.0,-0.00059394387062639,0.0006652659503743052,-0.0,0.0,0.0,0.0,-0.0031646399293094873,0.007379007525742054,-0.0002736159658525139,14312.0,13370.0,12856.0,13973.0,0.46007436513900757,0.3982139229774475,0.36632198095321655,0.4373181462287903,0.0,0.0,0.0,0.0,14315.0,13387.0,12813.0,13992.0,1.6343724727630615,0.042693866209492566,0.08540833292632924,-0.07278201501559814,-0.0026199810672551394,-0.0017993057845160365,0.0
226,5,1.7990960259339772e-05,-0.00010637149534886703,0.0001530693843960762,0.0005654949345625937,0.005797357764095068,-0.008810463361442089,0.02816985361278057,-0.06886071711778641,0.002372568938881159,0.1528964787721634,-0.03185735270380974,-0.07826702296733856,0.0,0.0,0.0,-0.006119353696703911,-0.00019410463573876768,-0.0,0.0,0.0,0.0,-0.003737407037988305,0.006874666083604097,-0.001956693362444639,13561.0,14109.0,11957.0,14528.0,0.4103938043117523,0.44635412096977234,0.31376913189888,0.4748676121234894,0.0,0.0,0.0,0.0,14355.0,13206.0,12978.0,13720.0,1.677190899848938,0.045314371912961074,0.08451945881537563,-0.07378027881899661,0.0007844443898648024,-0.019023554399609566,0.0
231,5,6.363664579112083e-05,-0.0002768728299997747,0.00018878352420870215,0.0057036797516047955,0.022779103368520737,-0.007809882517904043,0.02816985361278057,-0.06886071711778641,0.002372568938881159,0.1528964787721634,-0.03185735270380974,-0.07826702296733856,0.0,0.0,0.0,-0.006119353696703911,-0.00019410463573876768,-0.0,0.0,0.0,0.0,-0.003737407037988305,0.006874666083604097,-0.001956693362444639,13561.0,14109.0,11957.0,14528.0,0.4103938043117523,0.44635412096977234,0.31376913189888,0.4748676121234894,0.0,0.0,0.0,0.0,14355.0,13206.0,12978.0,13720.0,1.677190899848938,0.036696029996772205,0.07727410905919037,-0.07556213966239318,0.0007844443898648024,-0.019023554399609566,0.0
237,5,-1.1647336577880196e-05,-0.000284020381513983,0.00019733388035092503,-0.006752605549991131,0.009969345293939114,-0.004149995278567076,0.030704600736498833,-0.0675584152340889,0.0021272245794534683,0.2817600667476654,-0.1812964528799057,-0.048331551253795624,0.0,0.0,0.0,-0.025187967345118523,0.0048452080227434635,-0.0,0.0,0.0,0.0,-0.00474703311920166,0.005714717786759138,-7.846869993954897e-05,14022.0,13742.0,12553.0,13868.0,0.44057807326316833,0.42214974761009216,0.34816476702690125,0.4303734004497528,0.0,0.0,0.0,0.0,14108.0,13578.0,12574.0,13924.0,1.862648844718933,0.042458432328987585,0.07984614225268212,-0.07539859935185822,-0.021739814430475235,-0.08694592118263245,0.0
242,5,-0.00010790898522827774,-0.0002614069089759141,0.0003736058424692601,-0.014252440072596073,0.0012741230893880129,-0.022812632843852043,0.030704600736498833,-0.0675584152340889,0.0021272245794534683,0.2817600667476654,-0.1812964528799057,-0.048331551253795624,0.0,0.0,0.0,-0.025187967345118523,0.0048452080227434635,-0.0,0.0,0.0,0.0,-0.00474703311920166,0.005714717786759138,-7.846869993954897e-05,14022.0,13742.0,12553.0,13868.0,0.44057807326316833,0.42214974761009216,0.34816476702690125,0.4303734004497528,0.0,0.0,0.0,0.0,14108.0,13578.0,12574.0,13924.0,1.862648844718933,0.0511665319742265,0.07884757052928101,-0.07425788968286143,-0.021739814430475235,-0.08694592118263245,0.0
247,5,-0.00020629474602174014,-0.00039180368185043335,0.00046855685650371015,-0.017507266253232956,0.01615726202726364,-0.02051917463541031,0.034099556505680084,-0.06523973494768143,0.001930692233145237,0.5586823225021362,-0.4090583026409149,0.0018627679673954844,0.0,0.0,0.0,-0.0018941789167001843,-0.012663193047046661,-0.0,0.0,0.0,0.0,-0.006817594636231661,0.0034275841899216175,2.7297952328808606e-05,14272.0,13713.0,12889.0,13215.0,0.45734137296676636,0.4202573299407959,0.3683282136917114,0.38844555616378784,0.0,0.0,0.0,0.0,14337.0,14143.0,12969.0,13296.0,1.7710412740707397,0.053743825961621236,0.07426974654669703,-0.07303281766281704,0.05403951182961464,-0.006218100897967815,0.0
252,5,-0.00045041265548206866,-0.0005035622743889689,0.0008645077468827367,-0.03629705309867859,0.019873937591910362,-0.05572177842259407,0.034099556505680084,-0.06523973494768143,0.001930692233145237,0.5586823225021362,-0.4090583026409149,0.0018627679673954844,0.0,0.0,0.0,-0.0018941789167001843,-0.012663193047046661,-0.0,0.0,0.0,0.0,-0.006817594636231661,0.0034275841899216175,2.7297952328808606e-05,14272.0,13713.0,12889.0,13215.0,0.45734137296676636,0.4202573299407959,0.3683282136917114,0.38844555616378784,0.0,0.0,0.0,0.0,14337.0,14143.0,12969.0,13296.0,1.7710412740707397,0.05888824761757453,0.06980025687154291,-0.07330900503503708,0.05403951182961464,-0.006218100897967815,0.0
257,5,-0.0004115800838917494,-0.0005933259380981326,0.0006994865834712982,-0.009858913719654083,0.018721215426921844,-0.0024861737620085478,0.04263560101389885,-0.05880601331591606,0.0014206049963831902,0.8477783799171448,-0.6498563885688782,-0.003919296897947788,0.0,0.0,0.0,-0.020491380244493484,-0.028266696259379387,-0.0,0.0,0.0,0.0,-0.009757401421666145,0.00021927736815996468,-0.0005821377853862941,14234.0,14449.0,12893.0,13149.0,0.4547881484031677,0.46944504976272583,0.36860179901123047,0.38435590267181396,0.0,0.0,0.0,0.0,15553.0,14796.0,14007.0,13097.0,2.0354511737823486,0.06287319806933526,0.06494129729994412,-0.07394285885869283,0.13859215378761292,-0.077301025390625,0.0
262,5,-0.0005653113476000726,-0.0007190721808001399,0.0008797118789516389,-0.022391317412257195,0.022578030824661255,-0.022621499374508858,0.04263560101389885,-0.05880601331591606,0.0014206049963831902,0.8477783799171448,-0.6498563885688782,-0.003919296897947788,0.0,0.0,0.0,-0.020491380244493484,-0.028266696259379387,-0.0,0.0,0.0,0.0,-0.009757401421666145,0.00021927736815996468,-0.0005821377853862941,14234.0,14449.0,12893.0,13149.0,0.4547881484031677,0.46944504976272583,0.36860179901123047,0.38435590267181396,0.0,0.0,0.0,0.0,15553.0,14796.0,14007.0,13097.0,2.0354511737823486,0.06926974808352246,0.05930554205046132,-0.0735718242954116,0.13859215378761292,-0.077301025390625,0.0
267,5,-0.0006193104200065136,-0.0008360633510164917,0.0009286269778385758,-0.015436414629220963,0.02307015471160412,-0.014918415807187557,0.05059093236923218,-0.05230283364653587,0.0014816088369116187,1.0824470520019531,-0.9595652222633362,0.017141878604888916,0.0,0.0,0.0,-0.024520741775631905,-0.01853557676076889,-0.0,0.0,0.0,0.0,-0.014648329466581345,-0.0029442119412124157,0.0010671935742720962,15374.0,15206.0,13982.0,12861.0,0.5351963639259338,0.5229067206382751,0.4379269778728485,0.3666187822818756,0.0,0.0,0.0,0.0,15171.0,15471.0,13806.0,12976.0,1.9503551721572876,0.0722911452245411,0.05339018195841179,-0.07392779219130796,0.08707956969738007,-0.08862919360399246,0.0
272,5,-0.0008735718438401818,-0.0009679002687335014,0.001295396126806736,-0.03668593615293503,0.02504849061369896,-0.049979668110609055,0.05059093236923218,-0.05230283364653587,0.0014816088369116187,1.0824470520019531,-0.9595652222633362,0.017141878604888916,0.0,0.0,0.0,-0.024520741775631905,-0.01853557676076889,-0.0,0.0,0.0,0.0,-0.014648329466581345,-0.0029442119412124157,0.0010671935742720962,15374.0,15206.0,13982.0,12861.0,0.5351963639259338,0.5229067206382751,0.4379269778728485,0.3666187822818756,0.0,0.0,0.0,0.0,15171.0,15471.0,13806.0,12976.0,1.9503551721572876,0.0781418154471438,0.04579570240220121,-0.07294584257603293,0.08707956969738007,-0.08862919360399246,0.0
277,5,-0.0007830096292309463,-0.0013795573031529784,0.0012993710115551949,-0.0038069135043770075,0.059418246150016785,-0.020468849688768387,0.0632699728012085,-0.04013678804039955,0.0007600051467306912,1.0207571983337402,-1.1052008867263794,0.01050059124827385,0.0,0.0,0.0,-0.02585531771183014,-0.028535321354866028,-0.0,0.0,0.0,0.0,-0.013229487463831902,-0.007048727944493294,-5.2585375669877976e-05,14470.0,15266.0,13773.0,12562.0,0.47091349959373474,0.5272984504699707,0.4241425693035126,0.34868672490119934,0.0,0.0,0.0,0.0,14644.0,15096.0,14073.0,12227.0,2.0717015266418457,0.07697605199310122,0.04507186294018243,-0.05998578823597416,0.14238287508487701,-0.09926535934209824,0.0
282,5,-0.000885751738678664,-0.0016275092493742704,0.0014564848970621824,-0.013851816765964031,0.053521528840065,-0.027041202411055565,0.0632699728012085,-0.04013678804039955,0.0007600051467306912,1.0207571983337402,-1.1052008867263794,0.01050059124827385,0.0,0.0,0.0,-0.02585531771183014,-0.028535321354866028,-0.0,0.0,0.0,0.0,-0.013229487463831902,-0.007048727944493294,-5.2585375669877976e-05,14470.0,15266.0,13773.0,12562.0,0.47091349959373474,0.5272984504699707,0.4241425693035126,0.34868672490119934,0.0,0.0,0.0,0.0,14644.0,15096.0,14073.0,12227.0,2.0717015266418457,0.0681688689995073,0.03129303956501873,-0.06306363635276298,0.14238287508487701,-0.09926535934209824,0.0
287,5,-0.0010204552672803402,-0.0015814404468983412,0.0014647111529484391,-0.0217051450163126,0.015880350023508072,-0.011803640983998775,0.07026399672031403,-0.03116118349134922,0.0007443991489708424,0.6974349617958069,-1.1565380096435547,0.08439327031373978,0.0,0.0,0.0,-0.052016399800777435,-0.010850127786397934,-0.0,0.0,0.0,0.0,-0.014606793411076069,-0.010663670487701893,0.002398700686171651,15966.0,15729.0,15624.0,12427.0,0.5794773101806641,0.5615715980529785,0.5536627769470215,0.34073951840400696,0.0,0.0,0.0,0.0,15809.0,15813.0,15586.0,12570.0,2.176452398300171,0.08074005504220987,0.03360369661827693,-0.05938336116737538,0.056825023144483566,-0.20967279374599457,0.0
292,5,-0.0011991033097729087,-0.0016732538351789117,0.001597011461853981,-0.030119823291897774,0.017369749024510384,-0.020597485825419426,0.07026399672031403,-0.03116118349134922,0.0007443991489708424,0.6974349617958069,-1.1565380096435547,0.08439327031373978,0.0,0.0,0.0,-0.052016399800777435,-0.010850127786397934,-0.0,0.0,0.0,0.0,-0.014606793411076069,-0.010663670487701893,0.002398700686171651,15966.0,15729.0,15624.0,12427.0,0.5794773101806641,0.5615715980529785,0.5536627769470215,0.34073951840400696,0.0,0.0,0.0,0.0,15809.0,15813.0,15586.0,12570.0,2.176452398300171,0.07724470979424998,0.03174829107447379,-0.06183498362974703,0.056825023144483566,-0.20967279374599457,0.0
297,5,-0.001246282598003745,-0.0016856370493769646,0.0016803932376205921,-0.017709452658891678,0.008433888666331768,-0.018244802951812744,0.07520568370819092,-0.017799291759729385,0.0005572753143496811,0.18260885775089264,-1.0619479417800903,0.06884820759296417,0.0,0.0,0.0,-0.052016399800777435,-0.010850127786397934,-0.0,0.0,0.0,0.0,-0.01178786437958479,-0.010311243124306202,0.0016698698746040463,15387.0,15429.0,15268.0,12543.0,0.5361508727073669,0.5392131209373474,0.5274027585983276,0.3475884795188904,0.0,0.0,0.0,0.0,15407.0,15314.0,15377.0,12525.0,2.176452398300171,0.078399433399355,0.025139316944622174,-0.059089492720825504,0.056825023144483566,-0.20967279374599457,0.0
302,5,-0.0013505432289093733,-0.0017199837602674961,0.0017884471453726292,-0.019595058634877205,0.007495153229683638,-0.02026440016925335,0.07520568370819092,-0.017799291759729385,0.0005572753143496811,0.18260885775089264,-1.0619479417800903,0.06884820759296417,0.0,0.0,0.0,-0.011947543360292912,-0.016459260135889053,-0.0,0.0,0.0,0.0,-0.01178786437958479,-0.010311243124306202,0.0016698698746040463,15387.0,15429.0,15268.0,12543.0,0.5361508727073669,0.5392131209373474,0.5274027585983276,0.3475884795188904,0.0,0.0,0.0,0.0,15407.0,15314.0,15377.0,12525.0,1.8478410243988037,0.07497682418564851,0.02048054723575651,-0.05877433073870038,0.07327844202518463,-0.040919750928878784,0.0
307,5,-0.0015140930190682411,-0.001738203689455986,0.0019954112358391285,-0.027463998645544052,0.00518446322530508,-0.03294144198298454,0.07520568370819092,-0.017799291759729385,0.0005572753143496811,0.18260885775089264,-1.0619479417800903,0.06884820759296417,0.0,0.0,0.0,-0.011947543360292912,-0.016459260135889053,-0.0,0.0,0.0,0.0,-0.01178786437958479,-0.010311243124306202,0.0016698698746040463,15387.0,15429.0,15268.0,12543.0,0.5361508727073669,0.5392131209373474,0.5274027585983276,0.3475884795188904,0.0,0.0,0.0,0.0,15407.0,15314.0,15377.0,12525.0,1.8478410243988037,0.07175976377163812,0.017085363433976174,-0.056755298628959075,0.07327844202518463,-0.040919750928878784,0.0
312,5,-0.0014312479179352522,-0.0017455697525292635,0.0018639530753716826,-0.001044179662130773,0.0029577051755040884,0.0025983918458223343,0.0741414800286293,-0.009912381879985332,0.0005757324979640543,-0.40736064314842224,-0.886424720287323,0.05484059825539589,0.0,0.0,0.0,-0.008127273060381413,-0.023979725316166878,-0.0,0.0,0.0,0.0,-0.008392486721277237,-0.01095263846218586,0.0018002333818003535,15544.0,15677.0,15910.0,13257.0,0.5477537512779236,0.5576067566871643,0.5752236247062683,0.3911173343658447,0.0,0.0,0.0,0.0,15235.0,15815.0,15721.0,13674.0,1.9270652532577515,0.06599198494461163,0.014865464147438586,-0.05455350564762142,0.11133624613285065,-0.029029605910182,0.0
317,5,-0.0014816692564636469,-0.0017800320638343692,0.0019343311432749033,-0.0064682383090257645,0.005318561103194952,-0.0074060033075511456,0.0741414800286293,-0.009912381879985332,0.0005757324979640543,-0.40736064314842224,-0.886424720287323,0.05484059825539589,0.0,0.0,0.0,-0.008127273060381413,-0.023979725316166878,-0.0,0.0,0.0,0.0,-0.008392486721277237,-0.01095263846218586,0.0018002333818003535,15544.0,15677.0,15910.0,13257.0,0.5477537512779236,0.5576067566871643,0.5752236247062683,0.3911173343658447,0.0,0.0,0.0,0.0,15235.0,15815.0,15721.0,13674.0,1.9270652532577515,0.05842004171434837,0.013303876785638533,-0.05334108943393114,0.11133624613285065,-0.029029605910182,0.0
323,5,-0.0016261590644717216,-0.0017931944457814097,0.002257566899061203,-0.01992606557905674,0.0037069155368953943,-0.0417507030069828,0.06618518382310867,-0.001149999676272273,0.00042502162978053093,-0.8831197023391724,-0.6014322638511658,0.04102078080177307,0.0,0.0,0.0,-0.009210415184497833,-0.007718275301158428,-0.0,0.0,0.0,0.0,0.00027124653570353985,-0.005345570854842663,0.00086294359061867,15914.0,15889.0,15912.0,14192.0,0.5755387544631958,0.5736047029495239,0.5753747224807739,0.45193421840667725,0.0,0.0,0.0,0.0,15680.0,15975.0,15760.0,14523.0,1.7437494993209839,0.05268036061913442,0.010666143924420135,-0.05104000266840259,0.03242899850010872,-0.02976875752210617,0.0
328,5,-0.0014467586297541857,-0.0018127940129488707,0.001892430242151022,0.01355762779712677,0.0038347113877534866,0.02711612358689308,0.06618518382310867,-0.001149999676272273,0.00042502162978053093,-0.8831197023391724,-0.6014322638511658,0.04102078080177307,0.0,0.0,0.0,-0.009210415184497833,-0.007718275301158428,-0.0,0.0,0.0,0.0,0.00027124653570353985,-0.005345570854842663,0.00086294359061867,15914.0,15889.0,15912.0,14192.0,0.5755387544631958,0.5736047029495239,0.5753747224807739,0.45193421840667725,0.0,0.0,0.0,0.0,15680.0,15975.0,15760.0,14523.0,1.7437494993209839,0.046325739831017516,0.009364843089756745,-0.04727602642341183,0.03242899850010872,-0.02976875752210617,0.0
333,5,-0.0014219790464267135,-0.0018172613345086575,0.0019039278849959373,0.008396591991186142,0.002069964772090316,0.009466729126870632,0.05774543806910515,0.002324107103049755,0.000517956621479243,-1.209330677986145,-0.31251633167266846,0.022371884435415268,0.0,0.0,0.0,-0.007486581336706877,0.010118736885488033,-0.0,0.0,0.0,0.0,0.0033084985334426165,-0.0034532633144408464,0.0006790576153434813,14437.0,14399.0,15256.0,14396.0,0.4686568081378937,0.4659983217716217,0.5265687704086304,0.4658413231372833,0.0,0.0,0.0,0.0,14054.0,14427.0,14808.0,14055.0,1.757690191268921,0.03961993024594837,0.008971639029490252,-0.04461651822001504,-0.04285494610667229,-0.02439085766673088,-0.0
338,5,-0.001397646265104413,-0.0018049698555842042,0.0018649522680789232,0.006278579588979483,-0.0006469941581599414,0.008463772013783455,0.05774543806910515,0.002324107103049755,0.000517956621479243,-1.209330677986145,-0.31251633167266846,0.022371884435415268,0.0,0.0,0.0,-0.007486581336706877,0.010118736885488033,-0.0,0.0,0.0,0.0,0.0033084985334426165,-0.0034532633144408464,0.0006790576153434813,14437.0,14399.0,15256.0,14396.0,0.4686568081378937,0.4659983217716217,0.5265687704086304,0.4658413231372833,0.0,0.0,0.0,0.0,14054.0,14427.0,14808.0,14055.0,1.757690191268921,0.03157105197638747,0.007926459239971288,-0.0420669913806011,-0.04285494610667229,-0.02439085766673088,-0.0
343,5,-0.0013791036326438189,-0.001839179894886911,0.0018011012580245733,0.004736537113785744,0.003846411593258381,0.01104762777686119,0.04168301448225975,0.004303538240492344,0.000463709031464532,-1.431883454322815,-0.037580352276563644,0.006114955525845289,0.0,0.0,0.0,-0.002433773363009095,0.003924915101379156,-0.0,0.0,0.0,0.0,0.00627742288634181,0.00010848265083041042,0.0016257057432085276,14437.0,14399.0,15256.0,14396.0,0.4686568081378937,0.4659983217716217,0.5265687704086304,0.4658413231372833,0.0,0.0,0.0,0.0,14399.0,14308.0,15252.0,14529.0,1.6731287240982056,0.019583163594507777,0.0075202089755451165,-0.041071660073974905,-0.015823740512132645,-0.007547745946794748,-0.0
348,5,-0.0014577270485460758,-0.0018598733004182577,0.002093670656904578,-0.007540181744843721,0.0040217675268650055,-0.03068927489221096,0.04168301448225975,0.004303538240492344,0.000463709031464532,-1.431883454322815,-0.037580352276563644,0.006114955525845289,0.0,0.0,0.0,-0.002433773363009095,0.003924915101379156,-0.0,0.0,0.0,0.0,0.00627742288634181,0.00010848265083041042,0.0016257057432085276,14437.0,14399.0,15256.0,14396.0,0.4686568081378937,0.4659983217716217,0.5265687704086304,0.4658413231372833,0.0,0.0,0.0,0.0,14399.0,14308.0,15252.0,14529.0,1.6731287240982056,0.007801427765181268,0.002769581358755708,-0.04039746330115427,-0.015823740512132645,-0.007547745946794748,-0.0
353,5,-0.0014450455782935023,-0.0016999086365103722,0.0020127184689044952,-0.0014943095156922936,-0.017587048932909966,-0.0025614348705857992,0.011843428947031498,0.0019172865431755781,0.0010158444056287408,-1.3026498556137085,0.13006067276000977,-0.02138829603791237,0.0,0.0,0.0,-0.007844158448278904,-0.00864342413842678,-0.0,0.0,0.0,0.0,0.006086851004511118,0.0025010269600898027,0.000944216619245708,13960.0,13268.0,14383.0,14377.0,0.4364243447780609,0.3918144404888153,0.4649088680744171,0.46454253792762756,0.0,0.0,0.0,0.0,13999.0,12970.0,14814.0,13961.0,1.7445052862167358,0.011596882375155918,0.009969605964207106,-0.03779099855950056,0.036332160234451294,-0.02536408044397831,0.0
358,5,-0.0014075926737859845,-0.001685215742327273,0.001984687987715006,0.003896636888384819,-0.0087979631498456,0.0023390785790979862,0.011843428947031498,0.0019172865431755781,0.0010158444056287408,-1.3026498556137085,0.13006067276000977,-0.02138829603791237,0.0,0.0,0.0,-0.007844158448278904,-0.00864342413842678,-0.0,0.0,0.0,0.0,0.006086851004511118,0.0025010269600898027,0.000944216619245708,13960.0,13268.0,14383.0,14377.0,0.4364243447780609,0.3918144404888153,0.4649088680744171,0.46454253792762756,0.0,0.0,0.0,0.0,13999.0,12970.0,14814.0,13961.0,1.7445052862167358,0.006978583327628745,0.01047160259528125,-0.038008923172228794,0.036332160234451294,-0.02536408044397831,0.0
363,5,-0.0014026546850800514,-0.001676026964560151,0.00203257636167109,0.002151203341782093,-0.0046218391507864,-0.004810994490981102,0.0031997363548725843,0.001053400570526719,0.001139201456680894,-0.937867283821106,0.06268809735774994,-0.02688048966228962,0.0,0.0,0.0,0.007544871885329485,0.0016742724692448974,-0.0,0.0,0.0,0.0,0.005071686115115881,0.0020490973256528378,0.000670523673761636,13507.0,13127.0,14042.0,14034.0,0.406938374042511,0.3829720616340637,0.44186991453170776,0.4413483738899231,0.0,0.0,0.0,0.0,13777.0,13480.0,14190.0,14548.0,1.6921806335449219,0.0034729176665341814,0.010711257351519286,-0.03815319624814452,-0.0068267215974628925,0.023664627224206924,-0.0
368,5,-0.0015742072137072682,-0.001239312463440001,0.002362347673624754,-0.019725820049643517,-0.05425448715686798,-0.04149692878127098,0.0031997363548725843,0.001053400570526719,0.001139201456680894,-0.937867283821106,0.06268809735774994,-0.02688048966228962,0.0,0.0,0.0,0.007544871885329485,0.0016742724692448974,-0.0,0.0,0.0,0.0,0.005071686115115881,0.0020490973256528378,0.000670523673761636,13507.0,13127.0,14042.0,14034.0,0.406938374042511,0.3829720616340637,0.44186991453170776,0.4413483738899231,0.0,0.0,0.0,0.0,13777.0,13480.0,14190.0,14548.0,1.6921806335449219,-0.00033709608821133624,0.02117290939678905,-0.05692284604213118,-0.0068267215974628925,0.023664627224206924,-0.0
373,5,-0.0015639381017535925,-0.001228880137205124,0.0023633004166185856,-0.0066580320708453655,-0.022953661158680916,-0.016713110730051994,-0.006140675395727158,0.0007600210374221206,0.0007990723242983222,-0.6627156138420105,-0.02110961452126503,-0.0208588894456625,0.0,0.0,0.0,0.04897555708885193,-0.015853652730584145,-0.0,0.0,0.0,0.0,0.004417476709932089,0.0005952859064564109,6.277042848523706e-05,13415.0,13391.0,14078.0,14122.0,0.40108951926231384,0.3995581567287445,0.44430604577064514,0.4472269117832184,0.0,0.0,0.0,0.0,13589.0,13249.0,14214.0,13953.0,2.1669816970825195,-0.002792038245626819,0.021353850772472226,-0.05709861959153114,0.082679383456707,0.19657471776008606,0.0
378,5,-0.0016109979478642344,-0.0012529058149084449,0.0023385202512145042,-0.008310395292937756,-0.006298389285802841,-0.003711627796292305,-0.006140675395727158,0.0007600210374221206,0.0007990723242983222,-0.6627156138420105,-0.02110961452126503,-0.0208588894456625,0.0,0.0,0.0,0.04897555708885193,-0.015853652730584145,-0.0,0.0,0.0,0.0,0.004417476709932089,0.0005952859064564109,6.277042848523706e-05,13415.0,13391.0,14078.0,14122.0,0.40108951926231384,0.3995581567287445,0.44430604577064514,0.4472269117832184,0.0,0.0,0.0,0.0,13589.0,13249.0,14214.0,13953.0,2.1669816970825195,-0.005142422305548804,0.01877176405029343,-0.05575368674092759,0.082679383456707,0.19657471776008606,0.0
383,5,-0.0016374520491808653,-0.0012672508601099253,0.002365165390074253,-0.006498648785054684,-0.0007979446672834456,-0.004682072438299656,-0.01070769876241684,0.0012622742215171456,0.0011131762294098735,-0.49304693937301636,-0.14042890071868896,0.014205585233867168,0.0,0.0,0.0,0.005159437190741301,-0.009547946974635124,-0.0,0.0,0.0,0.0,0.0049211131408810616,-0.0007291243528015912,0.0011995387030765414,13782.0,13077.0,14526.0,13599.0,0.42472290992736816,0.37986868619918823,0.474750280380249,0.41283875703811646,0.0,0.0,0.0,0.0,14866.0,15004.0,16241.0,15701.0,1.7420998811721802,-0.008454460340857946,0.01718527692145586,-0.05506340966504134,0.04007952660322189,0.016660207882523537,0.0
388,5,-0.0016934663290157914,-0.001252056215889752,0.0024847860913723707,-0.009321176446974277,-0.002142543438822031,-0.016227316111326218,-0.01070769876241684,0.0012622742215171456,0.0011131762294098735,-0.49304693937301636,-0.14042890071868896,0.014205585233867168,0.0,0.0,0.0,0.005159437190741301,-0.009547946974635124,-0.0,0.0,0.0,0.0,0.0049211131408810616,-0.0007291243528015912,0.0011995387030765414,13782.0,13077.0,14526.0,13599.0,0.42472290992736816,0.37986868619918823,0.474750280380249,0.41283875703811646,0.0,0.0,0.0,0.0,14866.0,15004.0,16241.0,15701.0,1.7420998811721802,-0.01217967569053222,0.020245324723872207,-0.05756656416343915,0.04007952660322189,0.016660207882523537,0.0
393,5,-0.001711893011815846,-0.0013469733530655503,0.002396002411842346,-0.005939674563705921,0.010533038526773453,0.004163133446127176,-0.015557250007987022,0.0030749125871807337,0.0011423839023336768,-0.3231530487537384,-0.2047397941350937,0.005774153396487236,0.0,0.0,0.0,0.00033277145121246576,-0.010545331984758377,-0.0,0.0,0.0,0.0,0.008266396820545197,-0.003177290316671133,0.00021209419355727732,14905.0,15046.0,16272.0,15591.0,0.5013344883918762,0.5113465189933777,0.6030924916267395,0.5512081980705261,0.0,0.0,0.0,0.0,13578.0,13848.0,14421.0,13923.0,1.7445696592330933,-0.01568558191951271,0.01668936728946303,-0.05775430168532288,0.044329456984996796,0.0010760759469121695,0.0
398,5,-0.0017667538486421108,-0.0013510414864867926,0.0024798887316137552,-0.008959167636930943,0.004701398313045502,-0.008401117287576199,-0.015557250007987022,0.0030749125871807337,0.0011423839023336768,-0.3231530487537384,-0.2047397941350937,0.005774153396487236,0.0,0.0,0.0,0.00033277145121246576,-0.010545331984758377,-0.0,0.0,0.0,0.0,0.008266396820545197,-0.003177290316671133,0.00021209419355727732,14905.0,15046.0,16272.0,15591.0,0.5013344883918762,0.5113465189933777,0.6030924916267395,0.5512081980705261,0.0,0.0,0.0,0.0,13578.0,13848.0,14421.0,13923.0,1.7445696592330933,-0.01635953517059006,0.01747985361049062,-0.059875174690775364,0.044329456984996796,0.0010760759469121695,0.0
404,5,-0.001857760245911777,-0.0014398583443835378,0.002499126363545656,-0.014504436403512955,0.012538581155240536,-0.005668956786394119,-0.016908977180719376,0.004217063542455435,0.0013282493455335498,-0.07830838859081268,-0.14513270556926727,0.015796059742569923,0.0,0.0,0.0,-0.007706308271735907,-0.01023031398653984,-0.0,0.0,0.0,0.0,0.0027554475236684084,-0.002600541803985834,0.0004584454873111099,13824.0,13725.0,14505.0,13714.0,0.42747244238853455,0.42103251814842224,0.4733262360095978,0.4202686846256256,0.0,0.0,0.0,0.0,13713.0,13983.0,14257.0,13862.0,1.7598719596862793,-0.01602686507262343,0.012957872376870235,-0.06033258643120979,0.04338119179010391,-0.025137852877378464,0.0
409,5,-0.001994051970541477,-0.0014388753334060311,0.0026297839358448982,-0.02215677499771118,0.0048974622040987015,-0.01794649101793766,-0.016908977180719376,0.004217063542455435,0.0013282493455335498,-0.07830838859081268,-0.14513270556926727,0.015796059742569923,0.0,0.0,0.0,-0.007706308271735907,-0.01023031398653984,-0.0,0.0,0.0,0.0,0.0027554475236684084,-0.002600541803985834,0.0004584454873111099,13824.0,13725.0,14505.0,13714.0,0.42747244238853455,0.42103251814842224,0.4733262360095978,0.4202686846256256,0.0,0.0,0.0,0.0,13713.0,13983.0,14257.0,13862.0,1.7598719596862793,-0.014144656266715967,0.012085234473496857,-0.06063944777276482,0.04338119179010391,-0.025137852877378464,0.0
414,5,-0.0020256880670785904,-0.0013586850836873055,0.0025764130987226963,-0.012659053318202496,-0.0076638394966721535,-0.0007740961736999452,-0.016908977180719376,0.004217063542455435,0.0013282493455335498,-0.07830838859081268,-0.14513270556926727,0.015796059742569923,0.0,0.0,0.0,-0.007552080322057009,-0.020745258778333664,-0.0,0.0,0.0,0.0,0.0027554475236684084,-0.002600541803985834,0.0004584454873111099,13824.0,13725.0,14505.0,13714.0,0.42747244238853455,0.42103251814842224,0.4733262360095978,0.4202686846256256,0.0,0.0,0.0,0.0,13713.0,13983.0,14257.0,13862.0,1.8832058906555176,-0.0087393876098187,0.01608202025404979,-0.06115546170688224,0.09412933886051178,-0.026361215859651566,0.0
419,5,-0.0019942771177738905,-0.0013884251238778234,0.00245591695420444,-0.001294310437515378,0.0005032675107941031,0.014149903319776058,-0.016746439039707184,0.005528177134692669,0.0013821735046803951,0.05917539820075035,-0.08954272419214249,0.014151102863252163,0.0,0.0,0.0,-0.007552080322057009,-0.020745258778333664,-0.0,0.0,0.0,0.0,0.0011862859828397632,-0.002220159163698554,0.0001299091090913862,13872.0,13893.0,14307.0,13742.0,0.430663526058197,0.43198949098587036,0.45977067947387695,0.4221459627151489,0.0,0.0,0.0,0.0,13845.0,13919.0,14303.0,13748.0,1.8832058906555176,-0.007531779428313578,0.014607810531996966,-0.06263020469457085,0.09412933886051178,-0.026361215859651566,0.0
424,5,-0.0020318920724093914,-0.001346956705674529,0.0025118289049714804,-0.005031495355069637,-0.004774897824972868,-0.0010494804009795189,-0.016746439039707184,0.005528177134692669,0.0013821735046803951,0.05917539820075035,-0.08954272419214249,0.014151102863252163,0.0,0.0,0.0,-0.007552080322057009,-0.020745258778333664,-0.0,0.0,0.0,0.0,0.0011862859828397632,-0.002220159163698554,0.0001299091090913862,13872.0,13893.0,14307.0,13742.0,0.430663526058197,0.43198949098587036,0.45977067947387695,0.4221459627151489,0.0,0.0,0.0,0.0,13845.0,13919.0,14303.0,13748.0,1.8832058906555176,-0.007581055735521022,0.014733417940844571,-0.06495366098652496,0.09412933886051178,-0.026361215859651566,0.0
429,5,-0.0020671312231570482,-0.001328959595412016,0.002520296024158597,-0.006241317372769117,-0.004069616552442312,-0.0014358479529619217,-0.016217395663261414,0.006271077319979668,0.0013695100788027048,0.051699161529541016,-0.08714322000741959,-0.004561080597341061,0.0,0.0,0.0,0.003281763754785061,-0.007304680068045855,-0.0,0.0,0.0,0.0,0.0009339793468825519,-0.0022387898061424494,-0.00016361105372197926,13707.0,14072.0,14143.0,13896.0,0.4198084771633148,0.44388267397880554,0.44864609837532043,0.43223240971565247,0.0,0.0,0.0,0.0,13682.0,14091.0,14129.0,13915.0,1.711499810218811,-0.006248778863013563,0.013876999397878115,-0.06641994254142851,0.03012477047741413,0.010410972870886326,0.0
434,5,-0.0021152785047888756,-0.0013525703689083457,0.002478049835190177,-0.008274181745946407,0.0012054408434778452,0.004495210945606232,-0.016217395663261414,0.006271077319979668,0.0013695100788027048,0.051699161529541016,-0.08714322000741959,-0.004561080597341061,0.0,0.0,0.0,0.003281763754785061,-0.007304680068045855,-0.0,0.0,0.0,0.0,0.0009339793468825519,-0.0022387898061424494,-0.00016361105372197926,13707.0,14072.0,14143.0,13896.0,0.4198084771633148,0.44388267397880554,0.44864609837532043,0.43223240971565247,0.0,0.0,0.0,0.0,13682.0,14091.0,14129.0,13915.0,1.711499810218811,-0.005186774670814054,0.012501804973907283,-0.0674346657440521,0.03012477047741413,0.010410972870886326,0.0
439,5,-0.002162365475669503,-0.001346602221019566,0.0024564245250076056,-0.008960121311247349,-0.00023399486963171512,0.00439311470836401,-0.015112410299479961,0.007082702592015266,0.0014512611087411642,0.07916846126317978,-0.05211736261844635,0.017174214124679565,0.0,0.0,0.0,-0.003726271679624915,-0.010168693028390408,-0.0,0.0,0.0,0.0,0.0012183194048702717,-0.0012172793503850698,2.7968782887910493e-05,14379.0,14559.0,14780.0,14149.0,0.4646390676498413,0.47702646255493164,0.4924875497817993,0.4490528106689453,0.0,0.0,0.0,0.0,14441.0,14504.0,14804.0,14116.0,1.744771122932434,-0.00521111485375455,0.012887419443227658,-0.06926934452052219,0.042750872671604156,-0.01205090619623661,-0.0
444,5,-0.002190093044191599,-0.0014098028186708689,0.002371761715039611,-0.006911363918334246,0.007490478456020355,0.011916790157556534,-0.015112410299479961,0.007082702592015266,0.0014512611087411642,0.07916846126317978,-0.05211736261844635,0.017174214124679565,0.0,0.0,0.0,-0.003726271679624915,-0.010168693028390408,-0.0,0.0,0.0,0.0,0.0012183194048702717,-0.0012172793503850698,2.7968782887910493e-05,14379.0,14559.0,14780.0,14149.0,0.4646390676498413,0.47702646255493164,0.4924875497817993,0.4490528106689453,0.0,0.0,0.0,0.0,14441.0,14504.0,14804.0,14116.0,1.744771122932434,-0.008768804057618148,0.012515251494226116,-0.07123498044490789,0.042750872671604156,-0.01205090619623661,-0.0
449,5,-0.0023361649364233017,-0.0013898254837840796,0.00256874761544168,-0.020293153822422028,0.0005989009514451027,-0.0188716072589159,-0.014449268579483032,0.007124205119907856,0.001417537685483694,0.0521836020052433,0.01410212367773056,0.008543207310140133,0.0,0.0,0.0,-0.010981512255966663,-0.00894592609256506,-0.0,0.0,0.0,0.0,0.0007460599299520254,-0.0008381199440918863,0.0005399815854616463,13684.0,13815.0,13999.0,13821.0,0.41833940148353577,0.42687365412712097,0.439029723405838,0.4272570312023163,0.0,0.0,0.0,0.0,13961.0,13553.0,14232.0,13562.0,1.7657015323638916,-0.008111551238337294,0.008834098911115291,-0.07068765381564027,0.038059450685977936,-0.03593951091170311,-0.0
454,5,-0.0022865270730108023,-0.0012932325480505824,0.002388066379353404,-0.0021607279777526855,-0.01135158445686102,0.014133126474916935,-0.014449268579483032,0.007124205119907856,0.001417537685483694,0.0521836020052433,0.01410212367773056,0.008543207310140133,0.0,0.0,0.0,-0.010981512255966663,-0.00894592609256506,-0.0,0.0,0.0,0.0,0.0007460599299520254,-0.0008381199440918863,0.0005399815854616463,13684.0,13815.0,13999.0,13821.0,0.41833940148353577,0.42687365412712097,0.439029723405838,0.4272570312023163,0.0,0.0,0.0,0.0,13961.0,13553.0,14232.0,13562.0,1.7657015323638916,-0.004343978619642906,0.014262143763768477,-0.07065484688060905,0.038059450685977936,-0.03593951091170311,-0.0
459,5,-0.00234130653552711,-0.0012757297372445464,0.0023654375690966845,-0.0074378130957484245,-0.006640975829213858,0.008368685841560364,-0.013930619694292545,0.00656204205006361,0.0016605416312813759,-0.02055361494421959,0.056240264326334,0.0073589445091784,0.0,0.0,0.0,0.010988944210112095,-0.004969162866473198,-0.0,0.0,0.0,0.0,0.0008553328807465732,-0.0010687093017622828,0.00046748490422032773,13936.0,13868.0,14159.0,13860.0,0.434858500957489,0.4303397536277771,0.44971656799316406,0.4298563003540039,0.0,0.0,0.0,0.0,14042.0,13738.0,14305.0,13732.0,1.7358020544052124,-0.004026709940928451,0.013743501785228224,-0.07090637659358104,0.02078295685350895,0.03535483777523041,-0.0
464,5,-0.0023790595587342978,-0.0012585156364366412,0.0023819217458367348,-0.007505505811423063,-0.004722083918750286,0.001369374105706811,-0.013930619694292545,0.00656204205006361,0.0016605416312813759,-0.02055361494421959,0.056240264326334,0.0073589445091784,0.0,0.0,0.0,0.010988944210112095,-0.004969162866473198,-0.0,0.0,0.0,0.0,0.0008553328807465732,-0.0010687093017622828,0.00046748490422032773,13936.0,13868.0,14159.0,13860.0,0.434858500957489,0.4303397536277771,0.44971656799316406,0.4298563003540039,0.0,0.0,0.0,0.0,14042.0,13738.0,14305.0,13732.0,1.7358020544052124,-0.004499976100035835,0.014063313159800448,-0.07133390608803174,0.02078295685350895,0.03535483777523041,-0.0
469,5,-0.0024477464612573385,-0.001245275721885264,0.002408529631793499,-0.011244630441069603,-0.0034776178654283285,-0.0026451984886080027,-0.014013172127306461,0.006228551268577576,0.0016659825341776013,-0.02404267154633999,0.026729529723525047,0.004694729577749968,0.0,0.0,0.0,0.0033112119417637587,-0.009859464131295681,-0.0,0.0,0.0,0.0,0.0004711114743258804,-0.001321306568570435,0.0007130522863008082,13869.0,13927.0,14137.0,13890.0,0.4304475486278534,0.434246689081192,0.44825366139411926,0.4318232238292694,0.0,0.0,0.0,0.0,14253.0,13514.0,14532.0,13495.0,1.7402336597442627,-0.004603468434524016,0.013363913804535112,-0.07159184830007684,0.04134313017129898,0.010680747218430042,-0.0
