timestamp,dt,pos_x,pos_y,pos_z,vel_x,vel_y,vel_z,roll,pitch,yaw,agv_x,agv_y,agv_z,x_ref,y_ref,z_ref,roll_ref,pitch_ref,yaw_ref,x_vel_ref,y_vel_ref,z_vel_ref,x_torque,y_torque,z_torque,w0,w1,w2,w3,u0,u1,u2,u3,m0req,m1req,m2req,m3req,thrust0,thrust1,thrust2,thrust3,thrust_ref,roll_vicon,pitch_vicon,yaw_vicon,acc_x,acc_y,acc_z
5,5,0.0,0.0,0.0,0.0029237165581434965,-0.003633450483903289,0.00409869197756052,0.0,0.0,0.0,0.0,0.0,0.0,0.0,0.0,0.0,0.004393835552036762,0.002719685435295105,-0.0,0.0,0.0,0.0,0.0,0.0,0.0,0.0,0.0,0.0,0.0,0.0,0.0,0.0,0.0,0.0,0.0,0.0,0.0,0.0,0.0,0.0,0.0,1.6730183362960815,-0.05637672419909404,0.12477243921894726,0.0793882367806067,-0.010963937267661095,0.013625439256429672,0.0
41,36,0.0,0.0,0.0,0.0021466577891260386,-0.001372968195937574,-0.00010250152990920469,0.0,0.0,0.0,0.0,0.0,0.0,0.0,0.0,0.0,0.004393835552036762,0.002719685435295105,-0.0,0.0,0.0,0.0,0.0,0.0,0.0,0.0,0.0,0.0,0.0,0.0,0.0,0.0,0.0,0.0,0.0,0.0,0.0,0.0,0.0,0.0,0.0,1.6730183362960815,-0.05515065368507391,0.12273308230158184,0.07480273106412219,-0.010963937267661095,0.013625439256429672,0.0
46,5,0.0,0.0,0.0,-0.02601267769932747,0.04828157275915146,-0.08991450816392899,0.0,0.0,0.0,0.0,0.0,0.0,0.0,0.0,0.0,0.00168178032618016,0.002022687578573823,-0.0,0.0,0.0,0.0,0.0,0.0,0.0,0.0,0.0,0.0,0.0,0.0,0.0,0.0,0.0,0.0,0.0,0.0,0.0,0.0,0.0,0.0,0.0,1.651635766029358,-0.034659469322423336,0.13455152432149547,0.07839067870596353,-0.008049966767430305,0.00514863058924675,0.0
51,5,0.0,0.0,0.0,-0.009736456908285618,0.019751030951738358,-0.03646529093384743,0.0,0.0,0.0,0.0,0.0,0.0,0.0,0.0,0.0,0.00168178032618016,0.002022687578573823,-0.0,0.0,0.0,0.0,0.0,0.0,0.0,0.0,0.0,0.0,0.0,0.0,0.0,0.0,0.0,0.0,0.0,0.0,0.0,0.0,0.0,0.0,0.0,1.651635766029358,-0.03395025607467226,0.13480103259963136,0.07792685699976411,-0.008049966767430305,0.00514863058924675,0.0
56,5,0.0,0.0,0.0,-0.009736456908285618,0.019751030951738358,-0.03646529093384743,0.0,0.0,0.0,0.0,0.0,0.0,0.0,0.0,0.0,-0.021667050197720528,-0.00821698922663927,-0.0,0.0,0.0,0.0,0.0,0.0,0.0,0.0,0.0,0.0,0.0,0.0,0.0,0.0,0.0,0.0,0.0,0.0,0.0,0.0,0.0,0.0,0.0,1.8444819450378418,-0.03395025607467226,0.13480103259963136,0.07792685699976411,0.03651171177625656,-0.07406636327505112,0.0
61,5,0.0,0.0,0.0,-0.0016623152187094092,0.0034869471564888954,-0.004541419446468353,0.0,0.0,0.0,0.0,0.0,0.0,0.0,0.0,0.0,-0.021667050197720528,-0.00821698922663927,-0.0,0.0,0.0,0.0,0.0,0.0,0.0,0.0,0.0,0.0,0.0,0.0,0.0,0.0,0.0,0.0,0.0,0.0,0.0,0.0,0.0,0.0,0.0,1.8444819450378418,-0.0344188963148418,0.1344934866955973,0.07804479449232277,0.03651171177625656,-0.07406636327505112,0.0
66,5,-1.3664367543242406e-05,-3.2050768368208082e-06,9.678650712885428e-06,-0.002304650144651532,0.0017793880542740226,-0.002978005912154913,0.0,0.0,0.0,0.0,0.0,0.0,0.0,0.0,0.0,-0.004237134009599686,-0.0015538122970610857,-0.0,0.0,0.0,0.0,0.0,0.0,0.0,0.0,0.0,0.0,0.0,0.0,0.0,0.0,0.0,0.0,0.0,0.0,0.0,0.0,0.0,0.0,0.0,1.6649388074874878,-0.03434606582875151,0.13519214992655876,0.07792354721079187,0.006233681924641132,-0.013076052069664001,0.0
73,6,-1.0829245184140746e-05,-7.3559613156248815e-06,3.0489945856970735e-05,-0.0005412423051893711,0.00042363395914435387,-0.003054257482290268,0.0,0.0,0.0,0.0,0.0,0.0,0.0,0.0,0.0,-0.004237134009599686,-0.0015538122970610857,-0.0,0.0,0.0,0.0,0.0,0.0,0.0,0.0,0.0,0.0,0.0,0.0,0.0,0.0,0.0,0.0,0.0,0.0,0.0,0.0,0.0,0.0,0.0,1.6649388074874878,-0.0342451688284656,0.13481308181836027,0.07787720146333761,0.006233681924641132,-0.013076052069664001,0.0
78,5,-3.497058423818089e-05,-1.0310000106983352e-05,4.200750117888674e-05,-0.003113457467406988,0.0005239382153376937,-0.00260380981490016,0.0,0.0,0.0,0.0,0.0,0.0,0.0,0.0,0.0,-0.0005382358212955296,-0.0005309706903062761,-0.0,0.0,0.0,0.0,0.0,0.0,0.0,0.0,0.0,0.0,0.0,0.0,0.0,0.0,0.0,0.0,0.0,0.0,0.0,0.0,0.0,0.0,0.0,1.6329374313354492,-0.03583627054266037,0.1341788806069769,0.07833320444962037,0.002089257352054119,-0.0016291108913719654,0.0
83,5,-4.972670467395801e-06,-7.873478352848906e-06,-4.520712082012324e-06,0.002354366471990943,-8.280727342935279e-05,0.004541861824691296,0.0,0.0,0.0,0.0,0.0,0.0,0.0,0.0,0.0,-0.0005382358212955296,-0.0005309706903062761,-0.0,0.0,0.0,0.0,0.0,0.0,0.0,0.0,0.0,0.0,0.0,0.0,0.0,0.0,0.0,0.0,0.0,0.0,0.0,0.0,0.0,0.0,0.0,1.6329374313354492,-0.035834285246902686,0.13471156634798837,0.0780627505755771,0.002089257352054119,-0.0016291108913719654,0.0
88,5,6.265956017159624e-06,3.153142461087555e-05,-7.652158092241734e-05,0.0022903818171471357,-0.004761711228638887,0.01045684888958931,0.0,0.0,0.0,0.0,0.0,0.0,0.0,0.0,0.0,8.737720781937242e-05,0.002214230829849839,-0.0,0.0,0.0,0.0,0.0,0.0,0.0,0.0,0.0,0.0,0.0,0.0,0.0,0.0,0.0,0.0,0.0,0.0,0.0,0.0,0.0,0.0,0.0,1.6496080160140991,-0.03848507197338824,0.13368640303509335,0.07890431997816438,-0.008801469579339027,0.00026716984575614333,0.0
93,5,3.720657332451083e-05,5.876939758309163e-05,-0.00011850698501802981,0.004629026632755995,-0.0051732417196035385,0.009220988489687443,0.0,0.0,0.0,0.0,0.0,0.0,0.0,0.0,0.0,8.737720781937242e-05,0.002214230829849839,-0.0,0.0,0.0,0.0,0.0,0.0,0.0,0.0,0.0,0.0,0.0,0.0,0.0,0.0,0.0,0.0,0.0,0.0,0.0,0.0,0.0,0.0,0.0,1.6496080160140991,-0.03913536553325069,0.1332003486069533,0.07880057042174549,-0.008801469579339027,0.00026716984575614333,0.0
98,5,-9.37390996114118e-06,8.625649570603855e-06,-1.7003074390231632e-05,-0.0037380473222583532,0.003947953227907419,-0.008492073975503445,0.0,0.0,0.0,0.0,0.0,0.0,0.0,0.0,0.0,0.006270545534789562,0.004295417573302984,-0.0,0.0,0.0,0.0,0.0,0.0,0.0,0.0,0.0,0.0,0.0,0.0,0.0,0.0,0.0,0.0,0.0,0.0,0.0,0.0,0.0,0.0,0.0,1.6969348192214966,-0.03446850669246931,0.13455434903506747,0.07799842665538735,-0.017563560977578163,0.019723040983080864,0.0
103,5,6.890541044413112e-06,5.0378553169139195e-06,-2.6268297006026842e-05,0.0004565152630675584,0.002009716583415866,-0.002285002963617444,0.0,0.0,0.0,0.0,0.0,0.0,0.0,0.0,0.0,0.006270545534789562,0.004295417573302984,-0.0,0.0,0.0,0.0,0.0,0.0,0.0,0.0,0.0,0.0,0.0,0.0,0.0,0.0,0.0,0.0,0.0,0.0,0.0,0.0,0.0,0.0,0.0,1.6969348192214966,-0.03430884140517288,0.13465946641449508,0.07796414383645413,-0.017563560977578163,0.019723040983080864,0.0
109,5,8.339276064361911e-06,9.582504389982205e-07,1.1874513802467845e-05,0.0003564542857930064,0.001293439301662147,-0.005491138435900211,0.0,0.0,0.0,0.0,0.0,0.0,0.0,0.0,0.0,-0.00246007414534688,0.0004410311521496624,-0.0,0.0,0.0,0.0,0.0,0.0,0.0,0.0,0.0,0.0,0.0,0.0,0.0,0.0,0.0,0.0,0.0,0.0,0.0,0.0,0.0,0.0,0.0,1.646647572517395,-0.03433459936072158,0.13457966560770865,0.07800221502077415,-0.0017499292735010386,-0.00750855915248394,0.0
114,5,-1.5485924450331368e-05,-1.862330645963084e-05,3.3815078495536e-05,-0.0027164423372596502,0.002867162460461259,-0.004829323384910822,0.0,0.0,0.0,0.0,0.0,0.0,0.0,0.0,0.0,-0.00246007414534688,0.0004410311521496624,-0.0,0.0,0.0,0.0,0.0,0.0,0.0,0.0,0.0,0.0,0.0,0.0,0.0,0.0,0.0,0.0,0.0,0.0,0.0,0.0,0.0,0.0,0.0,1.646647572517395,-0.03362021552493432,0.1350839513234388,0.07782634060877497,-0.0017499292735010386,-0.00750855915248394,0.0
119,5,-1.8879358322010376e-05,-1.233035436598584e-05,3.308698069304228e-05,-0.0014937889063730836,0.000391710753319785,-0.0018443574663251638,0.0,0.0,0.0,0.0,0.0,0.0,0.0,0.0,0.0,-0.003514559008181095,-0.0025584555696696043,-0.0,0.0,0.0,0.0,0.0,0.0,0.0,0.0,0.0,0.0,0.0,0.0,0.0,0.0,0.0,0.0,0.0,0.0,0.0,0.0,0.0,0.0,0.0,1.6661702394485474,-0.034234743898454434,0.13489612884724972,0.07803090032833901,0.010271786712110043,-0.01085418276488781,0.0
124,5,-1.9714958398253657e-05,-3.810373300439096e-06,1.801930739020463e-05,-0.0006977875018492341,-0.0008657134021632373,0.0010703777661547065,0.0,0.0,0.0,0.0,0.0,0.0,0.0,0.0,0.0,0.0010629033204168081,-0.0006907762726768851,-0.0,0.0,0.0,0.0,0.0,0.0,0.0,0.0,0.0,0.0,0.0,0.0,0.0,0.0,0.0,0.0,0.0,0.0,0.0,0.0,0.0,0.0,0.0,1.6372042894363403,-0.03513083081615266,0.1344544037314113,0.07859645189601218,0.002725159516558051,0.003225559601560235,0.0
131,7,-1.91427916433895e-05,5.369172981772863e-07,-8.439297744189389e-06,-0.00021045515313744545,-0.0008679602178744972,0.003603183664381504,0.0,0.0,0.0,0.0,0.0,0.0,0.0,0.0,0.0,0.0010629033204168081,-0.0006907762726768851,-0.0,0.0,0.0,0.0,0.0,0.0,0.0,0.0,0.0,0.0,0.0,0.0,0.0,0.0,0.0,0.0,0.0,0.0,0.0,0.0,0.0,0.0,0.0,1.6372042894363403,-0.03515163638585022,0.13442580713748256,0.07821086444334475,0.002725159516558051,0.003225559601560235,0.0
136,5,-9.840696293395013e-06,2.8084990844945423e-05,-5.1763359806500375e-05,0.0010320694418624043,-0.0036529528442770243,0.006640160921961069,0.0,0.0,0.0,0.0,0.0,0.0,0.0,0.0,0.0,0.0010629033204168081,-0.0006907762726768851,-0.0,0.0,0.0,0.0,0.0,0.0,0.0,0.0,0.0,0.0,0.0,0.0,0.0,0.0,0.0,0.0,0.0,0.0,0.0,0.0,0.0,0.0,0.0,1.6372042894363403,-0.03630806371359444,0.13400925627012428,0.07858994356948978,0.002725159516558051,0.003225559601560235,0.0
141,5,1.6143274478963576e-05,3.099254172411747e-05,-0.00010855300934053957,0.0035309044178575277,-0.0018100874731317163,0.009470822289586067,0.0,0.0,0.0,0.0,0.0,0.0,0.0,0.0,0.0,0.0044898176565766335,0.0009513784316368401,-0.0,0.0,0.0,0.0,0.0,0.0,0.0,0.0,0.0,0.0,0.0,0.0,0.0,0.0,0.0,0.0,0.0,0.0,0.0,0.0,0.0,0.0,0.0,1.6646251678466797,-0.038163077586970705,0.13364105611953103,0.0787832206781607,-0.0038160779513418674,0.013853230513632298,0.0
146,5,3.074403139180504e-05,4.320230073062703e-05,-0.0001354772102786228,0.0031644522678107023,-0.0021892059594392776,0.0070192329585552216,0.0,0.0,0.0,0.0,0.0,0.0,0.0,0.0,0.0,0.0044898176565766335,0.0009513784316368401,-0.0,0.0,0.0,0.0,0.0,0.0,0.0,0.0,0.0,0.0,0.0,0.0,0.0,0.0,0.0,0.0,0.0,0.0,0.0,0.0,0.0,0.0,0.0,1.6646251678466797,-0.040037357443658356,0.1332228045202538,0.07901494599705143,-0.0038160779513418674,0.013853230513632298,0.0
151,5,3.843642844003625e-05,5.6072251027217135e-05,-0.00018224009545519948,0.002188868587836623,-0.0024200761690735817,0.008419239893555641,0.0,0.0,0.0,0.0,0.0,0.0,0.0,0.0,0.0,0.0027363307308405638,0.002998995827510953,-0.0,0.0,0.0,0.0,0.0,0.0,0.0,0.0,0.0,0.0,0.0,0.0,0.0,0.0,0.0,0.0,0.0,0.0,0.0,0.0,0.0,0.0,0.0,1.665523648262024,-0.04193075163905429,0.1328030835199405,0.07907704361862772,-0.012035837396979332,0.008447475731372833,0.0
156,5,8.525649172952399e-05,8.766316750552505e-05,-0.00022901289048604667,0.006493954919278622,-0.004758940543979406,0.008980431593954563,0.0,0.0,0.0,0.0,0.0,0.0,0.0,0.0,0.0,0.0027363307308405638,0.002998995827510953,-0.0,0.0,0.0,0.0,0.0,0.0,0.0,0.0,0.0,0.0,0.0,0.0,0.0,0.0,0.0,0.0,0.0,0.0,0.0,0.0,0.0,0.0,0.0,1.665523648262024,-0.045082641726250886,0.1316489296403857,0.07989663138420072,-0.012035837396979332,0.008447475731372833,0.0
161,5,0.00011695095599861816,0.0001073625753633678,-0.00029669812647625804,0.006400917656719685,-0.004267505370080471,0.01171440165489912,0.0,0.0,0.0,0.0,0.0,0.0,0.0,0.0,0.0,0.005786820314824581,0.006028331816196442,-0.0,0.0,0.0,0.0,0.0,0.0,0.0,0.0,0.0,0.0,0.0,0.0,0.0,0.0,0.0,0.0,0.0,0.0,0.0,0.0,0.0,0.0,0.0,1.7087968587875366,-0.04765421009765068,0.13098903247439372,0.08053346012544636,-0.024821588769555092,0.018328823149204254,0.0
166,5,0.00014184675819706172,0.00012610582052730024,-0.0003755853103939444,0.005547863896936178,-0.003956192173063755,0.01415222231298685,0.0,0.0,0.0,0.0,0.0,0.0,0.0,0.0,0.0,0.005786820314824581,0.006028331816196442,-0.0,0.0,0.0,0.0,0.0,0.0,0.0,0.0,0.0,0.0,0.0,0.0,0.0,0.0,0.0,0.0,0.0,0.0,0.0,0.0,0.0,0.0,0.0,1.7087968587875366,-0.04919551401783787,0.13019415751122926,0.08113849444390496,-0.024821588769555092,0.018328823149204254,0.0
172,5,0.00012844111188314855,0.00017492918414063752,-0.00045111909275874496,-0.0002610497467685491,-0.004849136341363192,0.008000277914106846,0.0,0.0,0.0,0.0,0.0,0.0,0.0,0.0,0.0,0.004936154466122389,0.005277508869767189,-0.0,0.0,0.0,0.0,0.0,0.0,0.0,0.0,0.0,0.0,0.0,0.0,0.0,0.0,0.0,0.0,0.0,0.0,0.0,0.0,0.0,0.0,0.0,1.6974161863327026,-0.05228399269948356,0.12908494874946186,0.08197062049029101,-0.02158549055457115,0.015530391596257687,0.0
177,5,0.00012073916877852753,0.00017501185357104987,-0.000479331414680928,-0.0010286526521667838,-0.0019495750311762094,0.006585591472685337,0.0,0.0,0.0,0.0,0.0,0.0,0.0,0.0,0.0,0.004936154466122389,0.005277508869767189,-0.0,0.0,0.0,0.0,0.0,0.0,0.0,0.0,0.0,0.0,0.0,0.0,0.0,0.0,0.0,0.0,0.0,0.0,0.0,0.0,0.0,0.0,0.0,1.6974161863327026,-0.054954689526314916,0.12790877766441433,0.08256956849199859,-0.02158549055457115,0.015530391596257687,0.0
182,5,0.00010889684926951304,0.00018619513139128685,-0.0004874902660958469,-0.001832539215683937,-0.0021218236070126295,0.003613297827541828,0.0,0.0,0.0,0.0,0.0,0.0,0.0,0.0,0.0,0.0027060923166573048,-0.0008029738673940301,-0.0,0.0,0.0,0.0,0.0,0.0,0.0,0.0,0.0,0.0,0.0,0.0,0.0,0.0,0.0,0.0,0.0,0.0,0.0,0.0,0.0,0.0,0.0,1.6497833728790283,-0.056231878372551926,0.12741524344108662,0.08280443183948977,0.0031921155750751495,0.008275173604488373,0.0
187,5,0.00011200541484868154,0.00019706235616467893,-0.0004876326129306108,-0.00035998766543343663,-0.002152795670554042,0.0014623993774875998,0.0,0.0,0.0,0.0,0.0,0.0,0.0,0.0,0.0,0.0027060923166573048,-0.0008029738673940301,-0.0,0.0,0.0,0.0,0.0,0.0,0.0,0.0,0.0,0.0,0.0,0.0,0.0,0.0,0.0,0.0,0.0,0.0,0.0,0.0,0.0,0.0,0.0,1.6497833728790283,-0.05609929179971573,0.12759069727977568,0.08227230653655612,0.0031921155750751495,0.008275173604488373,0.0
192,5,0.000132364992168732,0.00021314917830750346,-0.0005062241107225418,0.0022991534788161516,-0.0027915374375879765,0.0028159443754702806,0.0,0.0,0.0,0.0,0.0,0.0,0.0,0.0,0.0,0.0029936234932392836,-0.00018410464690532535,-0.0,0.0,0.0,0.0,0.0,0.0,0.0,0.0,0.0,0.0,0.0,0.0,0.0,0.0,0.0,0.0,0.0,0.0,0.0,0.0,0.0,0.0,0.0,1.6506457328796387,-0.0559020270938734,0.12729741974266262,0.08184233403705554,0.0007322655292227864,0.009159218519926071,0.0
197,5,0.0001406032097293064,0.00025274656945839524,-0.000522766902577132,0.0019082474755123258,-0.005868301261216402,0.0031115065794438124,0.0,0.0,0.0,0.0,0.0,0.0,0.0,0.0,0.0,0.0029936234932392836,-0.00018410464690532535,-0.0,0.0,0.0,0.0,0.0,0.0,0.0,0.0,0.0,0.0,0.0,0.0,0.0,0.0,0.0,0.0,0.0,0.0,0.0,0.0,0.0,0.0,0.0,1.6506457328796387,-0.056218159132239695,0.12639950278569184,0.08131775218260251,0.0007322655292227864,0.009159218519926071,0.0
202,5,0.00016654687351547182,0.0002630721719469875,-0.0005364984972402453,0.0038765394128859043,-0.0035863942466676235,0.0028923957142978907,0.0,0.0,0.0,0.0,0.0,0.0,0.0,0.0,0.0,0.007459430955350399,0.001944958115927875,-0.0,0.0,0.0,0.0,0.0,0.0,0.0,0.0,0.0,0.0,0.0,0.0,0.0,0.0,0.0,0.0,0.0,0.0,0.0,0.0,0.0,0.0,0.0,1.6923877000808716,-0.05578117976880592,0.1258134951343971,0.08051767665317024,-0.00793139636516571,0.023399511352181435,0.0
208,5,0.00018594395078253,0.00028813545941375196,-0.000583599612582475,0.003878264455124736,-0.004442150704562664,0.006809096783399582,0.0,0.0,0.0,0.0,0.0,0.0,0.0,0.0,0.0,0.007459430955350399,0.001944958115927875,-0.0,0.0,0.0,0.0,0.0,0.0,0.0,0.0,0.0,0.0,0.0,0.0,0.0,0.0,0.0,0.0,0.0,0.0,0.0,0.0,0.0,0.0,0.0,1.6923877000808716,-0.05456176441160636,0.12579058173899493,0.07890780287727357,-0.00793139636516571,0.023399511352181435,0.0
213,5,0.00018541632744017988,0.00031357849366031587,-0.0006302799447439611,0.0014879904920235276,-0.004830025602132082,0.008325271308422089,0.0,0.0,0.0,0.0,0.0,0.0,0.0,0.0,0.0,0.007459430955350399,0.001944958115927875,-0.0,0.0,0.0,0.0,0.0,0.0,0.0,0.0,0.0,0.0,0.0,0.0,0.0,0.0,0.0,0.0,0.0,0.0,0.0,0.0,0.0,0.0,0.0,1.6923877000808716,-0.05544945751434641,0.12452725561765297,0.0782850501738771,-0.00793139636516571,0.023399511352181435,0.0
218,5,0.0001863429497461766,0.00035524205304682255,-0.0006621374632231891,0.0007063918164931238,-0.006931638345122337,0.007153016049414873,0.0,0.0,0.0,0.0,0.0,0.0,0.0,0.0,0.0,0.006363458000123501,0.001628874451853335,-0.0,0.0,0.0,0.0,0.0,0.0,0.0,0.0,0.0,0.0,0.0,0.0,0.0,0.0,0.0,0.0,0.0,0.0,0.0,0.0,0.0,0.0,0.0,1.682214617729187,-0.056238618644792994,0.12366575572009082,0.07734100425851212,-0.006602553650736809,0.019841650500893593,0.0
223,5,0.00018959483713842928,0.0003621909418143332,-0.0006899853469803929,0.0006727837026119232,-0.003606521524488926,0.006202953401952982,0.0,0.0,0.0,0.0,0.0,0.0,0.0,0.0,0.0,0.006363458000123501,0.001628874451853335,-0.0,0.0,0.0,0.0,0.0,0.0,0.0,0.0,0.0,0.0,0.0,0.0,0.0,0.0,0.0,0.0,0.0,0.0,0.0,0.0,0.0,0.0,0.0,1.682214617729187,-0.05551379003843317,0.12351654041938283,0.07646717516860368,-0.006602553650736809,0.019841650500893593,0.0
228,5,0.0001746165653457865,0.00037925923243165016,-0.0007076782057993114,-0.001528280321508646,-0.003490801900625229,0.00460432143881917,0.0,0.0,0.0,0.0,0.0,0.0,0.0,0.0,0.0,0.005018071737140417,0.0008875883650034666,-0.0,0.0,0.0,0.0,0.0,0.0,0.0,0.0,0.0,0.0,0.0,0.0,0.0,0.0,0.0,0.0,0.0,0.0,0.0,0.0,0.0,0.0,0.0,1.6688207387924194,-0.055307427971497646,0.12326124376577725,0.07581674489189628,-0.003569173626601696,0.01552214752882719,0.0
233,5,0.0001775847194949165,0.00039757188642397523,-0.0007062457734718919,-0.00025513311265967786,-0.003593840403482318,0.0016698352992534637,0.0,0.0,0.0,0.0,0.0,0.0,0.0,0.0,0.0,0.005068154539912939,5.983630217087921e-06,-0.0,0.0,0.0,0.0,0.0,0.0,0.0,0.0,0.0,0.0,0.0,0.0,0.0,0.0,0.0,0.0,0.0,0.0,0.0,0.0,0.0,0.0,0.0,1.6681305170059204,-0.05496010134020012,0.12292051180480201,0.07546190069831793,-2.40514400502434e-05,0.01567057892680168,0.0
238,5,0.0001823845086619258,0.00039831630419939756,-0.0007319820579141378,0.0004739209543913603,-0.0015268649440258741,0.003756288904696703,0.0,0.0,0.0,0.0,0.0,0.0,0.0,0.0,0.0,0.005068154539912939,5.983630217087921e-06,-0.0,0.0,0.0,0.0,0.0,0.0,0.0,0.0,0.0,0.0,0.0,0.0,0.0,0.0,0.0,0.0,0.0,0.0,0.0,0.0,0.0,0.0,0.0,1.6681305170059204,-0.05529592079857093,0.12227546647416326,0.07532887584943948,-2.40514400502434e-05,0.01567057892680168,0.0
243,5,0.0001815928699215874,0.0004090254660695791,-0.0007248205365613103,9.457273699808866e-05,-0.0018958477303385735,0.0006431372021324933,0.0,0.0,0.0,0.0,0.0,0.0,0.0,0.0,0.0,0.005068154539912939,5.983630217087921e-06,-0.0,0.0,0.0,0.0,0.0,0.0,0.0,0.0,0.0,0.0,0.0,0.0,0.0,0.0,0.0,0.0,0.0,0.0,0.0,0.0,0.0,0.0,0.0,1.6681305170059204,-0.0545467923412915,0.12263990892593529,0.07518412710013436,-2.40514400502434e-05,0.01567057892680168,0.0
248,5,0.00019402192265260965,0.0004066035326104611,-0.0007238847319968045,0.0015293144388124347,-0.00046770492917858064,0.00014495229697786272,0.0,0.0,0.0,0.0,0.0,0.0,0.0,0.0,0.0,0.0030603220220655203,0.0003413031226955354,-0.0,0.0,0.0,0.0,0.0,0.0,0.0,0.0,0.0,0.0,0.0,0.0,0.0,0.0,0.0,0.0,0.0,0.0,0.0,0.0,0.0,0.0,0.0,1.6513943672180176,-0.0547324979054155,0.12265371358182517,0.07450228023152153,-0.0013581287348642945,0.009367533028125763,0.0
253,5,0.00020967735326848924,0.0004215544613543898,-0.0007232576608657837,0.002490377752110362,-0.0019811938982456923,-1.7264668713323772e-05,0.0,0.0,0.0,0.0,0.0,0.0,0.0,0.0,0.0,0.0030603220220655203,0.0003413031226955354,-0.0,0.0,0.0,0.0,0.0,0.0,0.0,0.0,0.0,0.0,0.0,0.0,0.0,0.0,0.0,0.0,0.0,0.0,0.0,0.0,0.0,0.0,0.0,1.6513943672180176,-0.05496663408976484,0.12215643681814607,0.07426327693040968,-0.0013581287348642945,0.009367533028125763,0.0
258,5,0.00022191714379005134,0.0004267322947271168,-0.000702358374837786,0.002464925404638052,-0.0014138191472738981,-0.002514819847419858,0.0,0.0,0.0,0.0,0.0,0.0,0.0,0.0,0.0,0.0031627321150153875,0.0026172844227403402,-0.0,0.0,0.0,0.0,0.0,0.0,0.0,0.0,0.0,0.0,0.0,0.0,0.0,0.0,0.0,0.0,0.0,0.0,0.0,0.0,0.0,0.0,0.0,1.6645225286483765,-0.055059604975445375,0.12233919490732857,0.07420919011806218,-0.010497596114873886,0.009757966734468937,0.0
263,5,0.00015538228035438806,0.0001881525240605697,-0.0004637747479137033,-0.006998212076723576,0.028064046055078506,-0.0296359620988369,0.0,0.0,0.0,0.0,0.0,0.0,0.0,0.0,0.0,0.0031627321150153875,0.0026172844227403402,-0.0,0.0,0.0,0.0,0.0,0.0,0.0,0.0,0.0,0.0,0.0,0.0,0.0,0.0,0.0,0.0,0.0,0.0,0.0,0.0,0.0,0.0,0.0,1.6645225286483765,-0.056878942914994866,0.12724317557290343,0.08303407228889163,-0.010497596114873886,0.009757966734468937,0.0
268,5,-1.9022168089577463e-06,-6.741531251464039e-06,3.3953172533074394e-05,-0.021673426032066345,0.034612905234098434,-0.07158173620700836,0.0,0.0,0.0,0.0,0.0,0.0,0.0,0.0,0.0,-0.029475148767232895,-0.005524350795894861,-0.0,0.0,0.0,0.0,0.0,0.0,0.0,0.0,0.0,0.0,0.0,0.0,0.0,0.0,0.0,0.0,0.0,0.0,0.0,0.0,0.0,0.0,0.0,1.9076359272003174,-0.033633360967790724,0.13493548430491117,0.0777503460294315,0.025382695719599724,-0.10419473797082901,0.0
273,5,-4.13674752053339e-06,-1.0108476999448612e-05,-1.6571497326367535e-05,-0.008937513455748558,0.014249195344746113,-0.02256973460316658,0.0,0.0,0.0,0.0,0.0,0.0,0.0,0.0,0.0,-0.029475148767232895,-0.005524350795894861,-0.0,0.0,0.0,0.0,0.0,0.0,0.0,0.0,0.0,0.0,0.0,0.0,0.0,0.0,0.0,0.0,0.0,0.0,0.0,0.0,0.0,0.0,0.0,1.9076359272003174,-0.03362656191722387,0.1352169878024031,0.07767398348931849,0.025382695719599724,-0.10419473797082901,0.0
279,5,-6.48135198844102e-07,1.2141575098212343e-05,-4.029901174362749e-05,-0.0031563721131533384,0.0030296719633042812,-0.006180591881275177,0.0,0.0,0.0,0.0,0.0,0.0,0.0,0.0,0.0,-0.016084138303995132,-0.007758159656077623,-0.0,0.0,0.0,0.0,0.0,0.0,0.0,0.0,0.0,0.0,0.0,0.0,0.0,0.0,0.0,0.0,0.0,0.0,0.0,0.0,0.0,0.0,0.0,1.793969750404358,-0.033551243888154066,0.13491321601523054,0.0779254015035793,0.03353244438767433,-0.05347951501607895,0.0
284,5,-2.7034475351683795e-05,3.1287772799259983e-06,-4.285085196897853e-06,-0.0044289096258580685,0.002293404657393694,-0.006793907843530178,0.0,0.0,0.0,0.0,0.0,0.0,0.0,0.0,0.0,-0.016084138303995132,-0.007758159656077623,-0.0,0.0,0.0,0.0,0.0,0.0,0.0,0.0,0.0,0.0,0.0,0.0,0.0,0.0,0.0,0.0,0.0,0.0,0.0,0.0,0.0,0.0,0.0,1.793969750404358,-0.03448341996324256,0.13437156793113644,0.07822047007870313,0.03353244438767433,-0.05347951501607895,0.0
289,5,-2.7168771339347586e-05,3.1375818707601866e-06,8.950474693847355e-06,-0.0017876793863251805,0.0009163052891381085,-0.004305830225348473,0.0,0.0,0.0,0.0,0.0,0.0,0.0,0.0,0.0,-0.0027585066854953766,-0.004146408289670944,-0.0,0.0,0.0,0.0,0.0,0.0,0.0,0.0,0.0,0.0,0.0,0.0,0.0,0.0,0.0,0.0,0.0,0.0,0.0,0.0,0.0,0.0,0.0,1.6765834093093872,-0.03390831056279287,0.13475529059448435,0.07778385602019368,0.016751211136579514,-0.00857248529791832,0.0
294,5,-4.431908018887043e-05,-6.017695795890177e-06,5.938191679888405e-05,-0.002773108659312129,0.0014651553938165307,-0.007774105295538902,0.0,0.0,0.0,0.0,0.0,0.0,0.0,0.0,0.0,-0.0027585066854953766,-0.004146408289670944,-0.0,0.0,0.0,0.0,0.0,0.0,0.0,0.0,0.0,0.0,0.0,0.0,0.0,0.0,0.0,0.0,0.0,0.0,0.0,0.0,0.0,0.0,0.0,1.6765834093093872,-0.034088120261983254,0.13455265240147207,0.07829049379474178,0.016751211136579514,-0.00857248529791832,0.0
299,5,-3.319916868349537e-05,-1.4416263184102718e-05,5.055468500358984e-05,0.00022514579177368432,0.001593890250660479,-0.0020503741689026356,0.0,0.0,0.0,0.0,0.0,0.0,0.0,0.0,0.0,-0.0017949469620361924,-0.0026622090954333544,-0.0,0.0,0.0,0.0,0.0,0.0,0.0,0.0,0.0,0.0,0.0,0.0,0.0,0.0,0.0,0.0,0.0,0.0,0.0,0.0,0.0,0.0,0.0,1.6581873893737793,-0.034848391913763134,0.1341323647854908,0.07826314723747557,0.010637179017066956,-0.005516877397894859,0.0
304,5,-3.58205106749665e-05,-6.951268915145192e-06,4.252520375302993e-05,-0.0002245026989839971,-0.0002582431770861149,0.00014338783512357622,0.0,0.0,0.0,0.0,0.0,0.0,0.0,0.0,0.0,-0.0017949469620361924,-0.0026622090954333544,-0.0,0.0,0.0,0.0,0.0,0.0,0.0,0.0,0.0,0.0,0.0,0.0,0.0,0.0,0.0,0.0,0.0,0.0,0.0,0.0,0.0,0.0,0.0,1.6581873893737793,-0.034483241069219066,0.13485264934747582,0.07810468256498543,0.010637179017066956,-0.005516877397894859,0.0
309,5,6.124095762061188e-06,2.1929229205852607e-06,1.0255573215545155e-05,0.004943551495671272,-0.0012006002943962812,0.0039297109469771385,0.0,0.0,0.0,0.0,0.0,0.0,0.0,0.0,0.0,0.0003114452410954982,-0.000263151217950508,-0.0,0.0,0.0,0.0,0.0,0.0,0.0,0.0,0.0,0.0,0.0,0.0,0.0,0.0,0.0,0.0,0.0,0.0,0.0,0.0,0.0,0.0,0.0,1.629539132118225,-0.033414960544324725,0.13513593851063113,0.07780188249350024,0.0010332895908504725,0.0009407084435224533,0.0
314,5,1.0951676813419908e-05,-1.8467261497789877e-06,7.609333351865644e-06,0.002556730294600129,4.517764409683878e-06,0.0018894331296905875,0.0,0.0,0.0,0.0,0.0,0.0,0.0,0.0,0.0,0.0003114452410954982,-0.000263151217950508,-0.0,0.0,0.0,0.0,0.0,0.0,0.0,0.0,0.0,0.0,0.0,0.0,0.0,0.0,0.0,0.0,0.0,0.0,0.0,0.0,0.0,0.0,0.0,1.629539132118225,-0.034164644407954754,0.1346818586595721,0.07786028149651802,0.0010332895908504725,0.0009407084435224533,0.0
319,5,2.050071270787157e-05,8.019580491236411e-06,2.2124559109215625e-06,0.002168576465919614,-0.0011821497464552522,0.0014033985789865255,0.0,0.0,0.0,0.0,0.0,0.0,0.0,0.0,0.0,-5.413800863607321e-06,0.00242524198256433,-0.0,0.0,0.0,0.0,0.0,0.0,0.0,0.0,0.0,0.0,0.0,0.0,0.0,0.0,0.0,0.0,0.0,0.0,0.0,0.0,0.0,0.0,0.0,1.6518994569778442,-0.03443278007321073,0.13487308037311901,0.07774254150334572,-0.00965361949056387,-1.6576561392867006e-05,0.0
324,5,1.838617208704818e-05,1.343438839285227e-06,8.34711408970179e-06,0.0006136856391094625,0.0003282771212980151,-0.00017479951202403754,0.0,0.0,0.0,0.0,0.0,0.0,0.0,0.0,0.0,-5.413800863607321e-06,0.00242524198256433,-0.0,0.0,0.0,0.0,0.0,0.0,0.0,0.0,0.0,0.0,0.0,0.0,0.0,0.0,0.0,0.0,0.0,0.0,0.0,0.0,0.0,0.0,0.0,1.6518994569778442,-0.03490936618536297,0.1343890928784744,0.07806790037903376,-0.00965361949056387,-1.6576561392867006e-05,0.0
329,5,2.6896721465163864e-05,3.243595074309269e-06,-3.451568409218453e-05,0.0012667402625083923,-9.670788131188601e-05,0.005073615815490484,0.0,0.0,0.0,0.0,0.0,0.0,0.0,0.0,0.0,-0.00040076792356558144,0.0006119688041508198,-0.0,0.0,0.0,0.0,0.0,0.0,0.0,0.0,0.0,0.0,0.0,0.0,0.0,0.0,0.0,0.0,0.0,0.0,0.0,0.0,0.0,0.0,0.0,1.6330652236938477,-0.0364340200157851,0.13385658569772124,0.07823430054154867,-0.002408156171441078,-0.001213123556226492,0.0
334,5,1.780871389200911e-05,2.2295003873296082e-05,-8.588816854171455e-05,-0.0005838647484779358,-0.002324852393940091,0.008194144815206528,0.0,0.0,0.0,0.0,0.0,0.0,0.0,0.0,0.0,-0.00040076792356558144,0.0006119688041508198,-0.0,0.0,0.0,0.0,0.0,0.0,0.0,0.0,0.0,0.0,0.0,0.0,0.0,0.0,0.0,0.0,0.0,0.0,0.0,0.0,0.0,0.0,0.0,1.6330652236938477,-0.037881976530123616,0.13349749377135847,0.07891906072903011,-0.002408156171441078,-0.001213123556226492,0.0
340,5,1.7392016161466017e-05,3.598552939365618e-05,-0.00013300508726388216,-0.00028354974347166717,-0.002572803758084774,0.008931688033044338,0.0,0.0,0.0,0.0,0.0,0.0,0.0,0.0,0.0,0.0028934709262102842,-0.0005244813510216773,-0.0,0.0,0.0,0.0,0.0,0.0,0.0,0.0,0.0,0.0,0.0,0.0,0.0,0.0,0.0,0.0,0.0,0.0,0.0,0.0,0.0,0.0,0.0,1.6503899097442627,-0.03989125397834206,0.13326412045554908,0.07911145671228197,0.0020857714116573334,0.008851423859596252,0.0
345,5,3.653653402579948e-05,6.632384611293674e-05,-0.00021425142767839134,0.0021839223336428404,-0.0046697198413312435,0.013322235085070133,0.0,0.0,0.0,0.0,0.0,0.0,0.0,0.0,0.0,0.0028934709262102842,-0.0005244813510216773,-0.0,0.0,0.0,0.0,0.0,0.0,0.0,0.0,0.0,0.0,0.0,0.0,0.0,0.0,0.0,0.0,0.0,0.0,0.0,0.0,0.0,0.0,0.0,1.6503899097442627,-0.04276871090673282,0.13239370737187253,0.07964863278076383,0.0020857714116573334,0.008851423859596252,0.0
350,5,6.931630923645571e-05,9.536941070109606e-05,-0.00030416829395107925,0.004807141609489918,-0.005353355314582586,0.016118919476866722,0.0,0.0,0.0,0.0,0.0,0.0,0.0,0.0,0.0,0.0057471501640975475,0.0020752702839672565,-0.0,0.0,0.0,0.0,0.0,0.0,0.0,0.0,0.0,0.0,0.0,0.0,0.0,0.0,0.0,0.0,0.0,0.0,0.0,0.0,0.0,0.0,0.0,1.6791224479675293,-0.0445992379081963,0.13157931605321607,0.08016420819177184,-0.00839656125754118,0.017887067049741745,0.0
355,5,8.050014002947137e-05,0.00012826462625525892,-0.0003471809613984078,0.0032649170607328415,-0.006088768597692251,0.011609086766839027,0.0,0.0,0.0,0.0,0.0,0.0,0.0,0.0,0.0,0.0057471501640975475,0.0020752702839672565,-0.0,0.0,0.0,0.0,0.0,0.0,0.0,0.0,0.0,0.0,0.0,0.0,0.0,0.0,0.0,0.0,0.0,0.0,0.0,0.0,0.0,0.0,0.0,1.6791224479675293,-0.0479355455876029,0.13092885418263714,0.08100675907799593,-0.00839656125754118,0.017887067049741745,0.0
360,5,0.00010940277570625767,0.00012638354382943362,-0.0003786069282796234,0.0047742826864123344,-0.0022097760811448097,0.00841475185006857,0.0,0.0,0.0,0.0,0.0,0.0,0.0,0.0,0.0,0.007483107969164848,0.003102437127381563,-0.0,0.0,0.0,0.0,0.0,0.0,0.0,0.0,0.0,0.0,0.0,0.0,0.0,0.0,0.0,0.0,0.0,0.0,0.0,0.0,0.0,0.0,0.0,1.6978555917739868,-0.049550985165169634,0.1304933614898397,0.08108067408995254,-0.012692372314631939,0.023549623787403107,0.0
365,5,0.00013194502389524132,0.00015803308633621782,-0.00040046274079941213,0.004614782053977251,-0.004681855905801058,0.005988599732518196,0.0,0.0,0.0,0.0,0.0,0.0,0.0,0.0,0.0,0.007483107969164848,0.003102437127381563,-0.0,0.0,0.0,0.0,0.0,0.0,0.0,0.0,0.0,0.0,0.0,0.0,0.0,0.0,0.0,0.0,0.0,0.0,0.0,0.0,0.0,0.0,0.0,1.6978555917739868,-0.05188859358646222,0.12945324382246187,0.08181022181063713,-0.012692372314631939,0.023549623787403107,0.0
370,5,0.000135407957714051,0.0001668453769525513,-0.00039978441782295704,0.0022614661138504744,-0.0029302178882062435,0.0023140402045100927,0.0,0.0,0.0,0.0,0.0,0.0,0.0,0.0,0.0,0.005867676809430122,0.004415672272443771,-0.0,0.0,0.0,0.0,0.0,0.0,0.0,0.0,0.0,0.0,0.0,0.0,0.0,0.0,0.0,0.0,0.0,0.0,0.0,0.0,0.0,0.0,0.0,1.6952866315841675,-0.05365700190776453,0.12889445975716501,0.08231817336808558,-0.01803777553141117,0.018437979742884636,0.0
375,5,0.00014253669360186905,0.0001710827782517299,-0.0004274830571375787,0.0017600347055122256,-0.0016805753111839294,0.004249450750648975,0.0,0.0,0.0,0.0,0.0,0.0,0.0,0.0,0.0,0.005867676809430122,0.004415672272443771,-0.0,0.0,0.0,0.0,0.0,0.0,0.0,0.0,0.0,0.0,0.0,0.0,0.0,0.0,0.0,0.0,0.0,0.0,0.0,0.0,0.0,0.0,0.0,1.6952866315841675,-0.05486943571145097,0.1282145681776566,0.0828816195369038,-0.01803777553141117,0.018437979742884636,0.0
380,5,0.0001364830241072923,0.00016819009033497423,-0.0004433890280779451,-2.2426766008720733e-05,-0.00032510762684978545,0.0036084987223148346,0.0,0.0,0.0,0.0,0.0,0.0,0.0,0.0,0.0,0.0023668957874178886,0.0018547381041571498,-0.0,0.0,0.0,0.0,0.0,0.0,0.0,0.0,0.0,0.0,0.0,0.0,0.0,0.0,0.0,0.0,0.0,0.0,0.0,0.0,0.0,0.0,0.0,1.653801679611206,-0.054734059033974915,0.12848195080699187,0.08243602690978996,-0.0073912255465984344,0.0072555504739284515,0.0
385,5,0.00012099207378923893,0.00018353464838583022,-0.0004703467420767993,-0.0018678851192817092,-0.0019713903311640024,0.0046783252619206905,0.0,0.0,0.0,0.0,0.0,0.0,0.0,0.0,0.0,0.0023668957874178886,0.0018547381041571498,-0.0,0.0,0.0,0.0,0.0,0.0,0.0,0.0,0.0,0.0,0.0,0.0,0.0,0.0,0.0,0.0,0.0,0.0,0.0,0.0,0.0,0.0,0.0,1.653801679611206,-0.05592297508941569,0.12771491727335618,0.08290115137600655,-0.0073912255465984344,0.0072555504739284515,0.0
390,5,0.0001225986343342811,0.00019315782992634922,-0.0004878751060459763,-0.000554366793949157,-0.0019433364504948258,0.003974732477217913,0.0,0.0,0.0,0.0,0.0,0.0,0.0,0.0,0.0,0.0023668957874178886,0.0018547381041571498,-0.0,0.0,0.0,0.0,0.0,0.0,0.0,0.0,0.0,0.0,0.0,0.0,0.0,0.0,0.0,0.0,0.0,0.0,0.0,0.0,0.0,0.0,0.0,1.653801679611206,-0.05549055542677082,0.12783232696718444,0.08300138994539112,-0.0073912255465984344,0.0072555504739284515,0.0
395,5,0.0001178286547656171,0.00018894595268648118,-0.0005181531887501478,-0.0007941443473100662,-0.00027191053959541023,0.005223265383392572,0.0,0.0,0.0,0.0,0.0,0.0,0.0,0.0,0.0,0.0027365621645003557,-0.00035164173459634185,-0.0,0.0,0.0,0.0,0.0,0.0,0.0,0.0,0.0,0.0,0.0,0.0,0.0,0.0,0.0,0.0,0.0,0.0,0.0,0.0,0.0,0.0,0.0,1.648727536201477,-0.05734456536076617,0.1272303546671265,0.08326801665109411,0.0013970101717859507,0.008362993597984314,0.0
401,5,0.00010908549302257597,0.00019295566016808152,-0.0004998142831027508,-0.001366836833767593,-0.0005899291136302054,-0.00011136594548588619,0.0,0.0,0.0,0.0,0.0,0.0,0.0,0.0,0.0,0.0027365621645003557,-0.00035164173459634185,-0.0,0.0,0.0,0.0,0.0,0.0,0.0,0.0,0.0,0.0,0.0,0.0,0.0,0.0,0.0,0.0,0.0,0.0,0.0,0.0,0.0,0.0,0.0,1.648727536201477,-0.05684182820138862,0.12769708813563613,0.08303161672261127,0.004517713561654091,0.003287279512733221,0.0
406,5,0.00012220298231113702,0.00019313411030452698,-0.0004855103907175362,0.0010273633524775505,-0.0002573854580987245,-0.0017610100330784917,0.0,0.0,0.0,0.0,0.0,0.0,0.0,0.0,0.0,0.001080801128409803,-0.0011425749398767948,-0.0,0.0,0.0,0.0,0.0,0.0,0.0,0.0,0.0,0.0,0.0,0.0,0.0,0.0,0.0,0.0,0.0,0.0,0.0,0.0,0.0,0.0,0.0,1.6409012079238892,-0.05784157748666666,0.1269792654915152,0.08353533069062047,0.004517713561654091,0.003287279512733221,0.0
411,5,0.00013478388427756727,0.00019494618754833937,-0.0004651627386920154,0.0019206545548513532,-0.00032040401129052043,-0.0031461240723729134,0.0,0.0,0.0,0.0,0.0,0.0,0.0,0.0,0.0,0.001080801128409803,-0.0011425749398767948,-0.0,0.0,0.0,0.0,0.0,0.0,0.0,0.0,0.0,0.0,0.0,0.0,0.0,0.0,0.0,0.0,0.0,0.0,0.0,0.0,0.0,0.0,0.0,1.6409012079238892,-0.05688537260399966,0.12745435697214275,0.08332441466030145,0.004517713561654091,0.003287279512733221,0.0
416,5,0.00013229603064246476,0.00018148342496715486,-0.00046817114343866706,0.00046971929259598255,0.001487370696850121,-0.0008974397205747664,0.0,0.0,0.0,0.0,0.0,0.0,0.0,0.0,0.0,0.0007489980780519545,0.0020023148972541094,-0.0,0.0,0.0,0.0,0.0,0.0,0.0,0.0,0.0,0.0,0.0,0.0,0.0,0.0,0.0,0.0,0.0,0.0,0.0,0.0,0.0,0.0,0.0,1.6481736898422241,-0.05670143735911578,0.12762400088105447,0.08301577985924657,-0.0079521918669343,0.0022881904151290655,0.0
421,5,0.00015039509162306786,0.000193127038073726,-0.0004927814588882029,0.0023597741965204477,-0.0008022846304811537,0.0025942609645426273,0.0,0.0,0.0,0.0,0.0,0.0,0.0,0.0,0.0,0.0007489980780519545,0.0020023148972541094,-0.0,0.0,0.0,0.0,0.0,0.0,0.0,0.0,0.0,0.0,0.0,0.0,0.0,0.0,0.0,0.0,0.0,0.0,0.0,0.0,0.0,0.0,0.0,1.6481736898422241,-0.05649156067849838,0.1274124848552829,0.08308044003875943,-0.0079521918669343,0.0022881904151290655,0.0
426,5,0.00014498535892926157,0.00020327397214714438,-0.0004976413329131901,0.00029474307666532695,-0.001538546523079276,0.0016208917368203402,0.0,0.0,0.0,0.0,0.0,0.0,0.0,0.0,0.0,0.0013325642794370651,0.0024297877680510283,-0.0,0.0,0.0,0.0,0.0,0.0,0.0,0.0,0.0,0.0,0.0,0.0,0.0,0.0,0.0,0.0,0.0,0.0,0.0,0.0,0.0,0.0,0.0,1.6542177200317383,-0.056211932374548065,0.1271670087397937,0.08323620814536198,-0.009685278870165348,0.004085913300514221,0.0
431,5,0.00014264958736021072,0.00020297006994951516,-0.0005367679987102747,-0.00016239547403529286,-0.0005789511487819254,0.005343550816178322,0.0,0.0,0.0,0.0,0.0,0.0,0.0,0.0,0.0,0.0013325642794370651,0.0024297877680510283,-0.0,0.0,0.0,0.0,0.0,0.0,0.0,0.0,0.0,0.0,0.0,0.0,0.0,0.0,0.0,0.0,0.0,0.0,0.0,0.0,0.0,0.0,0.0,1.6542177200317383,-0.05626122552193831,0.12707870994157375,0.08336580986808535,-0.009685278870165348,0.004085913300514221,0.0
436,5,0.00014539569383487105,0.0001936382905114442,-0.0005351903382688761,0.0002645743079483509,0.0008882330730557442,0.001948105520568788,0.0,0.0,0.0,0.0,0.0,0.0,0.0,0.0,0.0,0.0010901581263169646,4.6975674194982275e-05,-0.0,0.0,0.0,0.0,0.0,0.0,0.0,0.0,0.0,0.0,0.0,0.0,0.0,0.0,0.0,0.0,0.0,0.0,0.0,0.0,0.0,0.0,0.0,1.6347256898880005,-0.056359414045707865,0.1268713385654882,0.08320526834072597,-0.00018504167383071035,0.003303260076791048,0.0
441,5,0.00013626071449834853,0.00020349989063106477,-0.0004986837157048285,-0.0009903685422614217,-0.0008280987967737019,-0.0036015529185533524,0.0,0.0,0.0,0.0,0.0,0.0,0.0,0.0,0.0,0.0010901581263169646,4.6975674194982275e-05,-0.0,0.0,0.0,0.0,0.0,0.0,0.0,0.0,0.0,0.0,0.0,0.0,0.0,0.0,0.0,0.0,0.0,0.0,0.0,0.0,0.0,0.0,0.0,1.6347256898880005,-0.05661506246478343,0.1273780952844947,0.08306180769566177,-0.00018504167383071035,0.003303260076791048,0.0
446,5,0.00013047851098235697,0.0002007829025387764,-0.0004871108685620129,-0.0010900115594267845,-5.199998213356594e-06,-0.002829361939802766,0.0,0.0,0.0,0.0,0.0,0.0,0.0,0.0,0.0,0.0013953940942883492,-0.0007477438193745911,-0.0,0.0,0.0,0.0,0.0,0.0,0.0,0.0,0.0,0.0,0.0,0.0,0.0,0.0,0.0,0.0,0.0,0.0,0.0,0.0,0.0,0.0,0.0,1.6397684812545776,-0.057328682402123805,0.12699942741905315,0.08341910104518765,0.002954519120976329,0.004241189919412136,0.0
451,5,0.00013857596786692739,0.0001950857404153794,-0.0004872375284321606,0.0005356909241527319,0.0006815791712142527,-0.001116545987315476,0.0,0.0,0.0,0.0,0.0,0.0,0.0,0.0,0.0,0.0013953940942883492,-0.0007477438193745911,-0.0,0.0,0.0,0.0,0.0,0.0,0.0,0.0,0.0,0.0,0.0,0.0,0.0,0.0,0.0,0.0,0.0,0.0,0.0,0.0,0.0,0.0,0.0,1.6397684812545776,-0.057574164354184706,0.12674493094323477,0.08292550960185799,0.002954519120976329,0.004241189919412136,0.0
457,5,0.000136371556436643,0.00022766990878153592,-0.000507290184032172,0.00023082990082912147,-0.003392568789422512,0.0026472092140465975,0.0,0.0,0.0,0.0,0.0,0.0,0.0,0.0,0.0,-0.0004838486493099481,0.000706299499142915,-0.0,0.0,0.0,0.0,0.0,0.0,0.0,0.0,0.0,0.0,0.0,0.0,0.0,0.0,0.0,0.0,0.0,0.0,0.0,0.0,0.0,0.0,0.0,1.6342792510986328,-0.0561926347594565,0.12744825442178304,0.08184824777832218,-0.0027814225759357214,-0.001465697423554957,0.0
462,5,0.00014817900955677032,0.00023962165869306773,-0.0005340104689821601,0.0015092261601239443,-0.0027912368532270193,0.004265318159013987,0.0,0.0,0.0,0.0,0.0,0.0,0.0,0.0,0.0,-0.0004838486493099481,0.000706299499142915,-0.0,0.0,0.0,0.0,0.0,0.0,0.0,0.0,0.0,0.0,0.0,0.0,0.0,0.0,0.0,0.0,0.0,0.0,0.0,0.0,0.0,0.0,0.0,1.6342792510986328,-0.05557478085247587,0.12668946930657007,0.08118749526768493,-0.0027814225759357214,-0.001465697423554957,0.0
467,5,0.00014817900955677032,0.00023962165869306773,-0.0005340104689821601,0.0015092261601239443,-0.0027912368532270193,0.004265318159013987,0.0,0.0,0.0,0.0,0.0,0.0,0.0,0.0,0.0,0.0038309760857373476,0.0016192508628591895,-0.0,0.0,0.0,0.0,0.0,0.0,0.0,0.0,0.0,0.0,0.0,0.0,0.0,0.0,0.0,0.0,0.0,0.0,0.0,0.0,0.0,0.0,0.0,1.6621944904327393,-0.05557478085247587,0.12668946930657007,0.08118749526768493,-0.006485515274107456,0.011803149245679379,0.0
472,5,0.00016343520837835968,0.000295085774268955,-0.0006000295979902148,0.0018530066590756178,-0.005002901889383793,0.006187742110341787,0.0,0.0,0.0,0.0,0.0,0.0,0.0,0.0,0.0,0.0038309760857373476,0.0016192508628591895,-0.0,0.0,0.0,0.0,0.0,0.0,0.0,0.0,0.0,0.0,0.0,0.0,0.0,0.0,0.0,0.0,0.0,0.0,0.0,0.0,0.0,0.0,0.0,1.6621944904327393,-0.05586843104675032,0.12561082493078443,0.0791624882822521,-0.006485515274107456,0.011803149245679379,0.0
477,5,0.00017781862698029727,0.0003244294202886522,-0.00061650644056499,0.0024672129657119513,-0.005522396881133318,0.004452321212738752,0.0,0.0,0.0,0.0,0.0,0.0,0.0,0.0,0.0,0.0065335603430867195,0.001935948384925723,-0.0,0.0,0.0,0.0,0.0,0.0,0.0,0.0,0.0,0.0,0.0,0.0,0.0,0.0,0.0,0.0,0.0,0.0,0.0,0.0,0.0,0.0,0.0,1.6847703456878662,-0.05615984789348994,0.12421633538212487,0.07843210444090316,-0.007859173230826855,0.020402977243065834,0.0
482,5,-1.5872157064222847e-06,-1.081146183423698e-05,1.754445293045137e-05,-0.02054181508719921,0.038019947707653046,-0.07430518418550491,0.0,0.0,0.0,0.0,0.0,0.0,0.0,0.0,0.0,0.0065335603430867195,0.001935948384925723,-0.0,0.0,0.0,0.0,0.0,0.0,0.0,0.0,0.0,0.0,0.0,0.0,0.0,0.0,0.0,0.0,0.0,0.0,0.0,0.0,0.0,0.0,0.0,1.6847703456878662,-0.034168596456019655,0.1345904904203282,0.07822327185955208,-0.007859173230826855,0.020402977243065834,0.0
487,5,5.375826731324196e-06,-6.417311055884056e-07,6.537705758091761e-06,-0.007381161209195852,0.013987611047923565,-0.028401263058185577,0.0,0.0,0.0,0.0,0.0,0.0,0.0,0.0,0.0,-0.037655673921108246,-0.01565002277493477,-0.0,0.0,0.0,0.0,0.0,0.0,0.0,0.0,0.0,0.0,0.0,0.0,0.0,0.0,0.0,0.0,0.0,0.0,0.0,0.0,0.0,0.0,0.0,2.0441524982452393,-0.03331191224114693,0.13532884726331812,0.0774765089578354,0.0770290344953537,-0.1426151841878891,0.0
492,5,1.3238200153864454e-05,1.28239325931645e-05,-3.40520819008816e-05,-0.0020089796744287014,0.003979164641350508,-0.006489730440080166,0.0,0.0,0.0,0.0,0.0,0.0,0.0,0.0,0.0,-0.037655673921108246,-0.01565002277493477,-0.0,0.0,0.0,0.0,0.0,0.0,0.0,0.0,0.0,0.0,0.0,0.0,0.0,0.0,0.0,0.0,0.0,0.0,0.0,0.0,0.0,0.0,0.0,2.0441524982452393,-0.03465636801583195,0.13447337353997943,0.07824803342447317,0.0770290344953537,-0.1426151841878891,0.0
497,5,3.2885977816476952e-06,-8.880131645128131e-06,-3.574283982743509e-05,-0.0019975441973656416,0.004196153488010168,-0.002393001224845648,0.0,0.0,0.0,0.0,0.0,0.0,0.0,0.0,0.0,-0.005084290634840727,-0.0018509462242946029,-0.0,0.0,0.0,0.0,0.0,0.0,0.0,0.0,0.0,0.0,0.0,0.0,0.0,0.0,0.0,0.0,0.0,0.0,0.0,0.0,0.0,0.0,0.0,1.67289400100708,-0.033737839181567864,0.1352521109237608,0.07774874936375949,0.0074611930176615715,-0.015765361487865448,0.0
502,5,-8.944140063249506e-06,1.1246042959101032e-06,-1.2168170542281587e-05,-0.0022669462487101555,0.0004778931033797562,-0.0037861608434468508,0.0,0.0,0.0,0.0,0.0,0.0,0.0,0.0,0.0,-0.005084290634840727,-0.0018509462242946029,-0.0,0.0,0.0,0.0,0.0,0.0,0.0,0.0,0.0,0.0,0.0,0.0,0.0,0.0,0.0,0.0,0.0,0.0,0.0,0.0,0.0,0.0,0.0,1.67289400100708,-0.03445070922628036,0.1344129991429601,0.07807673950907984,0.0074611930176615715,-0.015765361487865448,0.0
507,5,-3.011976514244452e-05,2.240210505988216e-06,3.9543570892419666e-05,-0.0034478534944355488,5.728450923925266e-05,-0.007719873450696468,0.0,0.0,0.0,0.0,0.0,0.0,0.0,0.0,0.0,-0.005084290634840727,-0.0018509462242946029,-0.0,0.0,0.0,0.0,0.0,0.0,0.0,0.0,0.0,0.0,0.0,0.0,0.0,0.0,0.0,0.0,0.0,0.0,0.0,0.0,0.0,0.0,0.0,1.67289400100708,-0.03538911132556751,0.13422656508964242,0.07830347039812788,0.0074611930176615715,-0.015765361487865448,0.0
512,5,-2.2056301531847566e-05,-5.8815676311496645e-06,3.7458321457961574e-05,-0.0004115257179364562,0.0009975271532312036,-0.0028377193957567215,0.0,0.0,0.0,0.0,0.0,0.0,0.0,0.0,0.0,-5.957399480394088e-05,-0.0032686509657651186,-0.0,0.0,0.0,0.0,0.0,0.0,0.0,0.0,0.0,0.0,0.0,0.0,0.0,0.0,0.0,0.0,0.0,0.0,0.0,0.0,0.0,0.0,0.0,1.6611583232879639,-0.035383439653105815,0.1343478126993117,0.07812515872001896,0.013083703815937042,-0.00018343250849284232,0.0
517,5,-2.305330417584628e-05,1.0710426977311727e-05,2.823602881107945e-05,-0.0002842505928128958,-0.001592028420418501,-2.8412558094714768e-05,0.0,0.0,0.0,0.0,0.0,0.0,0.0,0.0,0.0,-5.957399480394088e-05,-0.0032686509657651186,-0.0,0.0,0.0,0.0,0.0,0.0,0.0,0.0,0.0,0.0,0.0,0.0,0.0,0.0,0.0,0.0,0.0,0.0,0.0,0.0,0.0,0.0,0.0,1.6611583232879639,-0.035993877720026345,0.13417648346396835,0.07836959614125553,0.013083703815937042,-0.00018343250849284232,0.0
523,5,1.741756386763882e-05,2.429571577522438e-05,-6.981404294492677e-05,0.004742803983390331,-0.002267046133056283,0.011754644103348255,0.0,0.0,0.0,0.0,0.0,0.0,0.0,0.0,0.0,0.0019866309594362974,-0.00029850684222765267,-0.0,0.0,0.0,0.0,0.0,0.0,0.0,0.0,0.0,0.0,0.0,0.0,0.0,0.0,0.0,0.0,0.0,0.0,0.0,0.0,0.0,0.0,0.0,1.6424598693847656,-0.037562383739565205,0.13414495149001215,0.0784157103395224,0.00118140853010118,0.006048114504665136,0.0
528,5,4.221225026412867e-05,4.370353781268932e-05,-0.00014435146294999868,0.004872483666986227,-0.0032357568852603436,0.01364634744822979,0.0,0.0,0.0,0.0,0.0,0.0,0.0,0.0,0.0,0.0019866309594362974,-0.00029850684222765267,-0.0,0.0,0.0,0.0,0.0,0.0,0.0,0.0,0.0,0.0,0.0,0.0,0.0,0.0,0.0,0.0,0.0,0.0,0.0,0.0,0.0,0.0,0.0,1.6424598693847656,-0.0401918900031038,0.13276554880411592,0.0792586709818871,0.00118140853010118,0.006048114504665136,0.0
533,5,8.724597137188539e-05,7.322101009776816e-05,-0.00024100474547594786,0.007353040389716625,-0.00483639957383275,0.017056932672858238,0.0,0.0,0.0,0.0,0.0,0.0,0.0,0.0,0.0,0.003966149408370256,0.004557865671813488,-0.0,0.0,0.0,0.0,0.0,0.0,0.0,0.0,0.0,0.0,0.0,0.0,0.0,0.0,0.0,0.0,0.0,0.0,0.0,0.0,0.0,0.0,0.0,1.685876727104187,-0.04192206828943122,0.13234030419191364,0.07933934146138821,-0.0185154527425766,0.012393711134791374,0.0
538,5,0.00010751112131401896,9.292314643971622e-05,-0.000280817155726254,0.005373033694922924,-0.004298815969377756,0.011600264348089695,0.0,0.0,0.0,0.0,0.0,0.0,0.0,0.0,0.0,0.003966149408370256,0.004557865671813488,-0.0,0.0,0.0,0.0,0.0,0.0,0.0,0.0,0.0,0.0,0.0,0.0,0.0,0.0,0.0,0.0,0.0,0.0,0.0,0.0,0.0,0.0,0.0,1.685876727104187,-0.04453068314625437,0.13180174140465642,0.07979507865212809,-0.0185154527425766,0.012393711134791374,0.0
543,5,0.00010885569645324722,0.00011775077291531488,-0.0003313700726721436,0.002310563111677766,-0.004698841832578182,0.010706454515457153,0.0,0.0,0.0,0.0,0.0,0.0,0.0,0.0,0.0,0.00529227452352643,0.005073620937764645,-0.0,0.0,0.0,0.0,0.0,0.0,0.0,0.0,0.0,0.0,0.0,0.0,0.0,0.0,0.0,0.0,0.0,0.0,0.0,0.0,0.0,0.0,0.0,1.6974568367004395,-0.04779361285720857,0.13116247489552824,0.08080016657918207,-0.020752035081386566,0.0166512168943882,0.0
548,5,0.00010798028233693913,0.00013408907398115844,-0.0003697211213875562,0.0008191755623556674,-0.003840132849290967,0.008884705603122711,0.0,0.0,0.0,0.0,0.0,0.0,0.0,0.0,0.0,0.00529227452352643,0.005073620937764645,-0.0,0.0,0.0,0.0,0.0,0.0,0.0,0.0,0.0,0.0,0.0,0.0,0.0,0.0,0.0,0.0,0.0,0.0,0.0,0.0,0.0,0.0,0.0,1.6974568367004395,-0.05096469815785186,0.1298450193421111,0.08157476144122103,-0.020752035081386566,0.0166512168943882,0.0
553,5,0.0001174367280327715,0.00014149902563076466,-0.0004033457371406257,0.001462443615309894,-0.002425247570499778,0.007588838692754507,0.0,0.0,0.0,0.0,0.0,0.0,0.0,0.0,0.0,0.004902963060885668,0.0009151436970569193,-0.0,0.0,0.0,0.0,0.0,0.0,0.0,0.0,0.0,0.0,0.0,0.0,0.0,0.0,0.0,0.0,0.0,0.0,0.0,0.0,0.0,0.0,0.0,1.6679342985153198,-0.05302968316576484,0.12919789994816389,0.08195252695499765,-0.0036780263762921095,0.015158036723732948,0.0
558,5,0.00011817873019026592,0.0001660120760789141,-0.0004210485494695604,0.0006740174139849842,-0.003911664709448814,0.005159872118383646,0.0,0.0,0.0,0.0,0.0,0.0,0.0,0.0,0.0,0.004902963060885668,0.0009151436970569193,-0.0,0.0,0.0,0.0,0.0,0.0,0.0,0.0,0.0,0.0,0.0,0.0,0.0,0.0,0.0,0.0,0.0,0.0,0.0,0.0,0.0,0.0,0.0,1.6679342985153198,-0.053648815180728227,0.12855891278765835,0.0823624488071904,-0.0036780263762921095,0.015158036723732948,0.0
563,5,0.0001278734125662595,0.0001741053129080683,-0.00046452772221527994,0.0014329692348837852,-0.0025358551647514105,0.007281448692083359,0.0,0.0,0.0,0.0,0.0,0.0,0.0,0.0,0.0,0.005044044926762581,0.0007933441665954888,-0.0,0.0,0.0,0.0,0.0,0.0,0.0,0.0,0.0,0.0,0.0,0.0,0.0,0.0,0.0,0.0,0.0,0.0,0.0,0.0,0.0,0.0,0.0,1.6688156127929688,-0.053868242697014714,0.12808416005443832,0.08240392792415226,-0.003190188203006983,0.01560243871062994,0.0
568,5,0.00013397699513006955,0.00018054223619401455,-0.00046797003597021103,0.0013056180905550718,-0.0017867726273834705,0.003325656522065401,0.0,0.0,0.0,0.0,0.0,0.0,0.0,0.0,0.0,0.005044044926762581,0.0007933441665954888,-0.0,0.0,0.0,0.0,0.0,0.0,0.0,0.0,0.0,0.0,0.0,0.0,0.0,0.0,0.0,0.0,0.0,0.0,0.0,0.0,0.0,0.0,0.0,1.6688156127929688,-0.05459931132283201,0.12802746237080515,0.08258693344709764,-0.003190188203006983,0.01560243871062994,0.0
574,5,0.0001342267933068797,0.00018721024389378726,-0.0004855133011005819,0.000552222365513444,-0.0015148698585107923,0.0034354543313384056,0.0,0.0,0.0,0.0,0.0,0.0,0.0,0.0,0.0,0.002519940724596381,0.0014186546904966235,-0.0,0.0,0.0,0.0,0.0,0.0,0.0,0.0,0.0,0.0,0.0,0.0,0.0,0.0,0.0,0.0,0.0,0.0,0.0,0.0,0.0,0.0,0.0,1.651648759841919,-0.05463838752624741,0.12844510759450217,0.08268843388856181,-0.005646050442010164,0.007714640814810991,0.0
579,5,0.00013249414041638374,0.00018083889153786004,-0.0004580186796374619,1.2971046999155078e-05,0.0001586149592185393,-0.001925171003676951,0.0,0.0,0.0,0.0,0.0,0.0,0.0,0.0,0.0,0.002519940724596381,0.0014186546904966235,-0.0,0.0,0.0,0.0,0.0,0.0,0.0,0.0,0.0,0.0,0.0,0.0,0.0,0.0,0.0,0.0,0.0,0.0,0.0,0.0,0.0,0.0,0.0,1.651648759841919,-0.056262852866924944,0.12773896434729018,0.08308044371402762,-0.005646050442010164,0.007714640814810991,0.0
584,5,0.00013600131205748767,0.0001890757557703182,-0.0004624732246156782,0.0004260476853232831,-0.0009249785216525197,-0.00023552247148472816,0.0,0.0,0.0,0.0,0.0,0.0,0.0,0.0,0.0,0.00013970756845083088,0.00020156263781245798,-0.0,0.0,0.0,0.0,0.0,0.0,0.0,0.0,0.0,0.0,0.0,0.0,0.0,0.0,0.0,0.0,0.0,0.0,0.0,0.0,0.0,0.0,0.0,1.6284600496292114,-0.05752806773508875,0.1270975969817251,0.08339988029392834,-0.000790931808296591,0.00042170193046331406,0.0
589,5,0.00013986487465444952,0.00019009500101674348,-0.0004625714209396392,0.0006340464460663497,-0.0004923002561554313,-8.242815238190815e-05,0.0,0.0,0.0,0.0,0.0,0.0,0.0,0.0,0.0,0.00013970756845083088,0.00020156263781245798,-0.0,0.0,0.0,0.0,0.0,0.0,0.0,0.0,0.0,0.0,0.0,0.0,0.0,0.0,0.0,0.0,0.0,0.0,0.0,0.0,0.0,0.0,0.0,1.6284600496292114,-0.05750368305561769,0.1269255564626611,0.08332690009466379,-0.000790931808296591,0.00042170193046331406,0.0
594,5,0.00012610161502379924,0.00019702815916389227,-0.0004842390480916947,-0.001397971180267632,-0.0010288986377418041,0.0025671469047665596,0.0,0.0,0.0,0.0,0.0,0.0,0.0,0.0,0.0,0.0009601832134649158,0.0008011500467546284,-0.0,0.0,0.0,0.0,0.0,0.0,0.0,0.0,0.0,0.0,0.0,0.0,0.0,0.0,0.0,0.0,0.0,0.0,0.0,0.0,0.0,0.0,0.0,1.637412190437317,-0.05718134622883734,0.12740734209411547,0.08323855624233968,-0.0031609931029379368,0.002914207987487316,0.0
599,5,0.0001298134884564206,0.00019632706244010478,-0.0005000306409783661,-0.00011376423935871571,-0.000327428977470845,0.0029218464624136686,0.0,0.0,0.0,0.0,0.0,0.0,0.0,0.0,0.0,0.0009601832134649158,0.0008011500467546284,-0.0,0.0,0.0,0.0,0.0,0.0,0.0,0.0,0.0,0.0,0.0,0.0,0.0,0.0,0.0,0.0,0.0,0.0,0.0,0.0,0.0,0.0,0.0,1.637412190437317,-0.05654020973006674,0.1274399680882645,0.08324906391108267,-0.0031609931029379368,0.002914207987487316,0.0
604,5,0.00012993765994906425,0.00019917362078558654,-0.0005299680051393807,-3.060460585402325e-05,-0.00047255755634978414,0.004761223215609789,0.0,0.0,0.0,0.0,0.0,0.0,0.0,0.0,0.0,0.000770481419749558,7.6757583883591e-05,-0.0,0.0,0.0,0.0,0.0,0.0,0.0,0.0,0.0,0.0,0.0,0.0,0.0,0.0,0.0,0.0,0.0,0.0,0.0,0.0,0.0,0.0,0.0,1.6321263313293457,-0.05641748968705433,0.12785624680856345,0.08338870795596205,-0.0003018747956957668,0.0023309041280299425,0.0
609,5,0.00014664948685094714,0.000204340904019773,-0.0005272565176710486,0.0019931772258132696,-0.0008090967312455177,0.0015791147015988827,0.0,0.0,0.0,0.0,0.0,0.0,0.0,0.0,0.0,0.000770481419749558,7.6757583883591e-05,-0.0,0.0,0.0,0.0,0.0,0.0,0.0,0.0,0.0,0.0,0.0,0.0,0.0,0.0,0.0,0.0,0.0,0.0,0.0,0.0,0.0,0.0,0.0,1.6321263313293457,-0.055709968553123185,0.1274968978524605,0.08296381005756008,-0.0003018747956957668,0.0023309041280299425,0.0
614,5,0.0001345158088952303,0.00020032555039506406,-0.0005147260380908847,-0.0006587707321159542,0.00015820330008864403,-0.0008720144396647811,0.0,0.0,0.0,0.0,0.0,0.0,0.0,0.0,0.0,0.0013666102895513177,0.002085415879264474,-0.0,0.0,0.0,0.0,0.0,0.0,0.0,0.0,0.0,0.0,0.0,0.0,0.0,0.0,0.0,0.0,0.0,0.0,0.0,0.0,0.0,0.0,0.0,1.650918960571289,-0.056075654193840634,0.12730105440967496,0.08338210204848102,-0.008296016603708267,0.00418194942176342,0.0
619,5,0.00013005698565393686,0.00020192033844068646,-0.0004988817381672561,-0.0007985669653862715,-0.00012809432519134134,-0.002250120509415865,0.0,0.0,0.0,0.0,0.0,0.0,0.0,0.0,0.0,0.0013666102895513177,0.002085415879264474,-0.0,0.0,0.0,0.0,0.0,0.0,0.0,0.0,0.0,0.0,0.0,0.0,0.0,0.0,0.0,0.0,0.0,0.0,0.0,0.0,0.0,0.0,0.0,1.650918960571289,-0.05728403197684073,0.12740308399024328,0.08348313333448655,-0.008296016603708267,0.00418194942176342,0.0
624,5,0.00013383800978772342,0.00019610353047028184,-0.00047164972056634724,0.00013429569662548602,0.0006467804196290672,-0.004167892970144749,0.0,0.0,0.0,0.0,0.0,0.0,0.0,0.0,0.0,0.0005336498143151402,-0.0005752106080763042,-0.0,0.0,0.0,0.0,0.0,0.0,0.0,0.0,0.0,0.0,0.0,0.0,0.0,0.0,0.0,0.0,0.0,0.0,0.0,0.0,0.0,0.0,0.0,1.6332951784133911,-0.057133910377603264,0.12744016696811605,0.0833669464105491,0.0022638277150690556,0.0016155841294676065,0.0
629,5,0.00012706435518339276,0.00018278055358678102,-0.00046830897917971015,-0.0007591199246235192,0.0018574693240225315,-0.002068044850602746,0.0,0.0,0.0,0.0,0.0,0.0,0.0,0.0,0.0,0.0005336498143151402,-0.0005752106080763042,-0.0,0.0,0.0,0.0,0.0,0.0,0.0,0.0,0.0,0.0,0.0,0.0,0.0,0.0,0.0,0.0,0.0,0.0,0.0,0.0,0.0,0.0,0.0,1.6332951784133911,-0.0568583905888068,0.12766483893510397,0.08315878913640642,0.0022638277150690556,0.0016155841294676065,0.0
634,5,0.00012609976693056524,0.00018477179401088506,-0.0004642510612029582,-0.00041939932270906866,0.000504037830978632,-0.0013141694944351912,0.0,0.0,0.0,0.0,0.0,0.0,0.0,0.0,0.0,-0.0019489842234179378,-0.0005385442636907101,-0.0,0.0,0.0,0.0,0.0,0.0,0.0,0.0,0.0,0.0,0.0,0.0,0.0,0.0,0.0,0.0,0.0,0.0,0.0,0.0,0.0,0.0,0.0,1.6428489685058594,-0.05675883761356883,0.12767652477875324,0.08309443235674852,0.002131916116923094,-0.0059349085204303265,0.0
640,5,0.00013849890092387795,0.00019663962302729487,-0.0004800376482307911,0.0013201367110013962,-0.0012225236278027296,0.001368725672364235,0.0,0.0,0.0,0.0,0.0,0.0,0.0,0.0,0.0,-0.0019489842234179378,-0.0005385442636907101,-0.0,0.0,0.0,0.0,0.0,0.0,0.0,0.0,0.0,0.0,0.0,0.0,0.0,0.0,0.0,0.0,0.0,0.0,0.0,0.0,0.0,0.0,0.0,1.6428489685058594,-0.056174614454685835,0.12720330625398024,0.0833454502529072,0.002131916116923094,-0.0059349085204303265,0.0
645,5,0.000145631332998164,0.00019230823090765625,-0.0005149777862243354,0.0013839463936164975,3.075804852414876e-05,0.004740301985293627,0.0,0.0,0.0,0.0,0.0,0.0,0.0,0.0,0.0,0.0018637764733284712,0.0014429177390411496,-0.0,0.0,0.0,0.0,0.0,0.0,0.0,0.0,0.0,0.0,0.0,0.0,0.0,0.0,0.0,0.0,0.0,0.0,0.0,0.0,0.0,0.0,0.0,1.64763605594635,-0.05617361877578675,0.12745420129725915,0.08314226809824704,-0.005728670861572027,0.005691978149116039,0.0
650,5,0.0001507245615357533,0.0002024198620347306,-0.0005212074029259384,0.001164766727015376,-0.0012010923819616437,0.002643680665642023,0.0,0.0,0.0,0.0,0.0,0.0,0.0,0.0,0.0,0.0018637764733284712,0.0014429177390411496,-0.0,0.0,0.0,0.0,0.0,0.0,0.0,0.0,0.0,0.0,0.0,0.0,0.0,0.0,0.0,0.0,0.0,0.0,0.0,0.0,0.0,0.0,0.0,1.64763605594635,-0.055954035446605675,0.12768533971336907,0.08321641890286584,-0.005728670861572027,0.005691978149116039,0.0
655,5,0.00013188070442993194,0.00019702562713064253,-0.0004984915140084922,-0.0017953566275537014,0.00016686970775481313,-0.0016684402944520116,0.0,0.0,0.0,0.0,0.0,0.0,0.0,0.0,0.0,0.0018492923118174076,0.0013140796218067408,-0.0,0.0,0.0,0.0,0.0,0.0,0.0,0.0,0.0,0.0,0.0,0.0,0.0,0.0,0.0,0.0,0.0,0.0,0.0,0.0,0.0,0.0,0.0,1.646576166152954,-0.057271001253467506,0.12708879754518831,0.08335092226722705,-0.0052138022147119045,0.00564411049708724,0.0
660,5,0.00013304705498740077,0.0001973088801605627,-0.0005065958248451352,-0.0005781794898211956,3.275901690358296e-05,0.00030514615355059505,0.0,0.0,0.0,0.0,0.0,0.0,0.0,0.0,0.0,0.0018492923118174076,0.0013140796218067408,-0.0,0.0,0.0,0.0,0.0,0.0,0.0,0.0,0.0,0.0,0.0,0.0,0.0,0.0,0.0,0.0,0.0,0.0,0.0,0.0,0.0,0.0,0.0,1.646576166152954,-0.05805670484365119,0.1270578580297747,0.08359157340545068,-0.0052138022147119045,0.00564411049708724,0.0
665,5,0.00012644677190110087,0.00019498876645229757,-0.0004953033640049398,-0.0010233067441731691,0.00029151610215194523,-0.0012330383760854602,0.0,0.0,0.0,0.0,0.0,0.0,0.0,0.0,0.0,0.00032749949605204165,-0.00036118278512731194,-0.0,0.0,0.0,0.0,0.0,0.0,0.0,0.0,0.0,0.0,0.0,0.0,0.0,0.0,0.0,0.0,0.0,0.0,0.0,0.0,0.0,0.0,0.0,1.630442500114441,-0.05712692871596489,0.1274608525933947,0.08344589892437267,0.0014190066140145063,0.0009897480485960841,0.0
670,5,0.00012901776062790304,0.00018842355348169804,-0.0004874492296949029,-0.00010080428182845935,0.0009044326725415885,-0.001435711164958775,0.0,0.0,0.0,0.0,0.0,0.0,0.0,0.0,0.0,0.00032749949605204165,-0.00036118278512731194,-0.0,0.0,0.0,0.0,0.0,0.0,0.0,0.0,0.0,0.0,0.0,0.0,0.0,0.0,0.0,0.0,0.0,0.0,0.0,0.0,0.0,0.0,0.0,1.630442500114441,-0.057131903682151854,0.12716363494286512,0.08327014200309331,0.0014190066140145063,0.0009897480485960841,0.0
675,5,0.00013165680866222829,0.00020320145995356143,-0.0005193616379983723,0.00027636485174298286,-0.001411575940437615,0.0032552035991102457,0.0,0.0,0.0,0.0,0.0,0.0,0.0,0.0,0.0,0.00032749949605204165,-0.00036118278512731194,-0.0,0.0,0.0,0.0,0.0,0.0,0.0,0.0,0.0,0.0,0.0,0.0,0.0,0.0,0.0,0.0,0.0,0.0,0.0,0.0,0.0,0.0,0.0,1.630442500114441,-0.05650505839718448,0.12735572413268173,0.08319317479149191,-0.0017783490475267172,0.006439124699681997,0.0
680,5,-8.658380465931259e-07,8.352062650374137e-06,-2.5007511794683523e-05,-0.01579217240214348,0.022817296907305717,-0.05802041292190552,0.0,0.0,0.0,0.0,0.0,0.0,0.0,0.0,0.0,0.002113263588398695,0.00044895298196934164,-0.0,0.0,0.0,0.0,0.0,0.0,0.0,0.0,0.0,0.0,0.0,0.0,0.0,0.0,0.0,0.0,0.0,0.0,0.0,0.0,0.0,0.0,0.0,1.6438615322113037,-0.03360097937940463,0.13485047637252875,0.0779783189764878,-0.0017783490475267172,0.006439124699681997,0.0
685,5,-1.1777912732213736e-05,3.880755684804171e-06,1.727103381199413e-06,-0.007626317907124758,0.009663475677371025,-0.026416318491101265,0.0,0.0,0.0,0.0,0.0,0.0,0.0,0.0,0.0,0.002113263588398695,0.00044895298196934164,-0.0,0.0,0.0,0.0,0.0,0.0,0.0,0.0,0.0,0.0,0.0,0.0,0.0,0.0,0.0,0.0,0.0,0.0,0.0,0.0,0.0,0.0,0.0,1.6438615322113037,-0.034270859560621314,0.13455489598858067,0.07809290706153675,-0.0017783490475267172,0.006439124699681997,0.0
691,5,-2.2776237528887577e-05,4.4148764573037624e-06,3.6582325265044346e-05,-0.004370326176285744,0.003801295766606927,-0.014749154448509216,0.0,0.0,0.0,0.0,0.0,0.0,0.0,0.0,0.0,-0.011160689406096935,-0.006795929279178381,-0.0,0.0,0.0,0.0,0.0,0.0,0.0,0.0,0.0,0.0,0.0,0.0,0.0,0.0,0.0,0.0,0.0,0.0,0.0,0.0,0.0,0.0,0.0,1.7493963241577148,-0.03456760105754951,0.13469436722718214,0.07818553364169645,0.028645643964409828,-0.03618856891989708,0.0
696,5,-6.391162060026545e-06,-8.462581718049478e-06,4.5086326281307265e-05,0.00021807858138345182,0.003065813332796097,-0.006920141633599997,0.0,0.0,0.0,0.0,0.0,0.0,0.0,0.0,0.0,-0.011160689406096935,-0.006795929279178381,-0.0,0.0,0.0,0.0,0.0,0.0,0.0,0.0,0.0,0.0,0.0,0.0,0.0,0.0,0.0,0.0,0.0,0.0,0.0,0.0,0.0,0.0,0.0,1.7493963241577148,-0.03435232406501077,0.1345575297952222,0.07812255102463103,0.028645643964409828,-0.03618856891989708,0.0
701,5,1.298098709412443e-06,-1.7563321307534352e-05,6.181601202115417e-05,0.0010099427308887243,0.0023184139281511307,-0.004775619134306908,0.0,0.0,0.0,0.0,0.0,0.0,0.0,0.0,0.0,-0.003749237861484289,0.0002004751586355269,-0.0,0.0,0.0,0.0,0.0,0.0,0.0,0.0,0.0,0.0,0.0,0.0,0.0,0.0,0.0,0.0,0.0,0.0,0.0,0.0,0.0,0.0,0.0,1.657004952430725,-0.03370939199506808,0.13509331293158533,0.07780978747159548,-0.0008004481787793338,-0.011515253223478794,0.0
706,5,2.114423296006862e-05,-2.0401487290655496e-06,6.577517524419818e-06,0.0027855131775140762,-0.0009354150388389826,0.004718371666967869,0.0,0.0,0.0,0.0,0.0,0.0,0.0,0.0,0.0,-0.003749237861484289,0.0002004751586355269,-0.0,0.0,0.0,0.0,0.0,0.0,0.0,0.0,0.0,0.0,0.0,0.0,0.0,0.0,0.0,0.0,0.0,0.0,0.0,0.0,0.0,0.0,0.0,1.657004952430725,-0.03482252883292717,0.13420408874466583,0.0779372394403009,-0.0008004481787793338,-0.011515253223478794,0.0
711,5,2.6108513338840567e-05,7.48191496313666e-06,-5.3940879297442734e-05,0.0017099189572036266,-0.0015168136451393366,0.009149556048214436,0.0,0.0,0.0,0.0,0.0,0.0,0.0,0.0,0.0,0.0011483236448839307,0.002651444636285305,-0.0,0.0,0.0,0.0,0.0,0.0,0.0,0.0,0.0,0.0,0.0,0.0,0.0,0.0,0.0,0.0,0.0,0.0,0.0,0.0,0.0,0.0,0.0,1.6559442281723022,-0.035066998653417183,0.13434838920250905,0.07797752311430164,-0.010579846799373627,0.003524669213220477,0.0
716,5,1.3173147635825444e-05,2.758516711764969e-05,-0.0001056551918736659,-0.0008682762854732573,-0.003019115887582302,0.009865540079772472,0.0,0.0,0.0,0.0,0.0,0.0,0.0,0.0,0.0,0.0011483236448839307,0.002651444636285305,-0.0,0.0,0.0,0.0,0.0,0.0,0.0,0.0,0.0,0.0,0.0,0.0,0.0,0.0,0.0,0.0,0.0,0.0,0.0,0.0,0.0,0.0,0.0,1.6559442281723022,-0.03603190079823077,0.13408380972729506,0.07810485177215071,-0.010579846799373627,0.003524669213220477,0.0
721,5,4.469003397389315e-05,6.213960296008736e-05,-0.00019780625007115304,0.0034347157925367355,-0.005354179069399834,0.01500434335321188,0.0,0.0,0.0,0.0,0.0,0.0,0.0,0.0,0.0,0.0037424336187541485,-0.0007923525990918279,-0.0,0.0,0.0,0.0,0.0,0.0,0.0,0.0,0.0,0.0,0.0,0.0,0.0,0.0,0.0,0.0,0.0,0.0,0.0,0.0,0.0,0.0,0.0,1.658046841621399,-0.03849874029217495,0.13346758949739185,0.07812019962011027,0.0031656587962061167,0.011501583270728588,0.0
726,5,6.129260873422027e-05,7.812407420715317e-05,-0.0002393680188106373,0.0033661953639239073,-0.004059807863086462,0.01098914910107851,0.0,0.0,0.0,0.0,0.0,0.0,0.0,0.0,0.0,0.0037424336187541485,-0.0007923525990918279,-0.0,0.0,0.0,0.0,0.0,0.0,0.0,0.0,0.0,0.0,0.0,0.0,0.0,0.0,0.0,0.0,0.0,0.0,0.0,0.0,0.0,0.0,0.0,1.658046841621399,-0.040184756037633856,0.1322029783230861,0.07799442275805975,0.0031656587962061167,0.011501583270728588,0.0
