timestamp,dt,pos_x,pos_y,pos_z,vel_x,vel_y,vel_z,roll,pitch,yaw,agv_x,agv_y,agv_z,x_ref,y_ref,z_ref,roll_ref,pitch_ref,yaw_ref,x_vel_ref,y_vel_ref,z_vel_ref,x_torque,y_torque,z_torque,w0,w1,w2,w3,u0,u1,u2,u3,m0req,m1req,m2req,m3req,thrust0,thrust1,thrust2,thrust3,thrust_ref,roll_vicon,pitch_vicon,yaw_vicon,acc_x,acc_y,acc_z,roll_received,pitch_received,yaw_received
5,5,0.0,0.0,0.0,-0.0007458936888724566,-0.0006275446503423154,-0.0021579242311418056,0.014055285602807999,-0.273944616317749,0.0004808494122698903,0.0,0.0,0.0,0.0,0.0,0.0,0.0007761983433738351,-0.0007096786866895854,-0.0,0.0,0.0,0.0,-0.002809592057019472,0.08210880309343338,3.244869367335923e-05,1495.0,1495.0,1495.0,1495.0,0.0,0.0,0.0,0.0,0.0,0.0,0.0,0.0,0.0,0.0,0.0,0.0,1.6356662511825562,0.08809478523079045,0.4818476063060291,-0.062471382489000325,0.002797101391479373,0.0023532924242317677,0.0,-0.0,-0.0,0.0
34,29,0.0,0.0,0.0,0.0015625242376700044,0.00027911720098927617,-0.003161634085699916,0.014055285602807999,-0.273944616317749,0.0004808494122698903,0.0,0.0,0.0,0.0,0.0,0.0,0.0007761983433738351,-0.0007096786866895854,-0.0,0.0,0.0,0.0,-0.002809592057019472,0.08210880309343338,3.244869367335923e-05,1495.0,1495.0,1495.0,1495.0,0.0,0.0,0.0,0.0,0.0,0.0,0.0,0.0,0.0,0.0,0.0,0.0,1.6356662511825562,0.09687076037747,0.48632762100752236,-0.06587845927775986,0.002797101391479373,0.0023532924242317677,0.0,-0.0,-0.0,0.0
39,5,0.0,0.0,0.0,0.0015625242376700044,0.00027911720098927617,-0.003161634085699916,0.014066573232412338,-0.27400296926498413,0.00046381590072996914,0.0,0.0,0.0,0.0,0.0,0.0,0.0007761983433738351,-0.0007096786866895854,-0.0,0.0,0.0,0.0,-0.002681773155927658,0.08211212605237961,-1.3856584700988606e-05,1495.0,1495.0,1495.0,1495.0,0.0,0.0,0.0,0.0,0.0,0.0,0.0,0.0,0.0,0.0,0.0,0.0,1.6356662511825562,0.09687076037747,0.48632762100752236,-0.06587845927775986,0.002797101391479373,0.0023532924242317677,0.0,0.0007761983433738351,-0.0007096786866895854,0.0
44,5,0.0,0.0,0.0,-0.004898480139672756,-0.005057440605014563,0.011260473169386387,0.014066573232412338,-0.27400296926498413,0.00046381590072996914,0.0,0.0,0.0,0.0,0.0,0.0,-0.00034392630914226174,0.0014810250140726566,-0.0,0.0,0.0,0.0,-0.002681773155927658,0.08211212605237961,-1.3856584700988606e-05,1495.0,1495.0,1495.0,1495.0,0.0,0.0,0.0,0.0,0.0,0.0,0.0,0.0,0.0,0.0,0.0,0.0,1.6418894529342651,0.09431662319169998,0.4794985010292681,-0.06477963440835037,-0.005859465803951025,-0.00104668946005404,0.0,0.0007761983433738351,-0.0007096786866895854,0.0
49,5,0.0,0.0,0.0,-0.004898480139672756,-0.005057440605014563,0.011260473169386387,0.014081457629799843,-0.2740233540534973,0.0004597297520376742,0.0,0.0,0.0,0.0,0.0,0.0,-0.00034392630914226174,0.0014810250140726566,-0.0,0.0,0.0,0.0,-0.0026883119717240334,0.08202970027923584,9.729635348776355e-05,1495.0,1495.0,1495.0,1495.0,0.0,0.0,0.0,0.0,0.0,0.0,0.0,0.0,0.0,0.0,0.0,0.0,1.6418894529342651,0.09431662319169998,0.4794985010292681,-0.06477963440835037,-0.005859465803951025,-0.00104668946005404,0.0,0.0007761983433738351,-0.0007096786866895854,0.0
55,5,0.0,0.0,0.0,-0.004898480139672756,-0.005057440605014563,0.011260473169386387,0.014081457629799843,-0.2740233540534973,0.0004597297520376742,0.0,0.0,0.0,0.0,0.0,0.0,0.006029732525348663,-0.004492518026381731,-0.0,0.0,0.0,0.0,-0.0026883119717240334,0.08202970027923584,9.729635348776355e-05,1495.0,1495.0,1495.0,1495.0,0.0,0.0,0.0,0.0,0.0,0.0,0.0,0.0,0.0,0.0,0.0,0.0,1.696915626525879,0.09431662319169998,0.4794985010292681,-0.06477963440835037,0.018369300290942192,0.018965402618050575,0.0,0.0007761983433738351,-0.0007096786866895854,0.0
67,12,-1.257392159459414e-05,3.467995338723995e-05,-4.5485587179427966e-05,-0.004898480139672756,-0.005057440605014563,0.011260473169386387,0.014081457629799843,-0.2740233540534973,0.0004597297520376742,0.0,0.0,0.0,0.0,0.0,0.0,0.006029732525348663,-0.004492518026381731,-0.0,0.0,0.0,0.0,-0.0026883119717240334,0.08202970027923584,9.729635348776355e-05,1495.0,1495.0,1495.0,1495.0,0.0,0.0,0.0,0.0,0.0,0.0,0.0,0.0,0.0,0.0,0.0,0.0,1.696915626525879,0.09554435907830218,0.4780713680554247,-0.06610326459395519,0.018369300290942192,0.018965402618050575,0.0,0.0007761983433738351,-0.0007096786866895854,0.0
72,5,-1.257392159459414e-05,3.467995338723995e-05,-4.5485587179427966e-05,-0.004898480139672756,-0.005057440605014563,0.011260473169386387,0.014058854430913925,-0.27400368452072144,0.00042996142292395234,0.0,0.0,0.0,0.0,0.0,0.0,0.006088636815547943,-0.0045081269927322865,-0.0,0.0,0.0,0.0,-0.002864401089027524,0.08261378109455109,3.948590165236965e-05,18539.0,5210.0,3928.0,18292.0,0.7924917936325073,0.048560284078121185,0.02396932616829872,0.7706448435783386,0.0,0.0,0.0,0.0,0.0,0.0,0.0,0.0,1.697411298751831,0.09554435907830218,0.4780713680554247,-0.06610326459395519,0.01843850128352642,0.019156264141201973,0.0,-0.00034392630914226174,0.0014810250140726566,0.0
78,6,-4.307153358240612e-05,5.615234840661287e-05,-0.00015757347864564508,-0.005619105417281389,-0.004599663428962231,0.017954735085368156,0.014058854430913925,-0.27400368452072144,0.00042996142292395234,0.0,0.0,0.0,0.0,0.0,0.0,0.006088636815547943,-0.0045081269927322865,-0.0,0.0,0.0,0.0,-0.002864401089027524,0.08261378109455109,3.948590165236965e-05,18539.0,5210.0,3928.0,18292.0,0.7924917936325073,0.048560284078121185,0.02396932616829872,0.7706448435783386,0.0,0.0,0.0,0.0,0.0,0.0,0.0,0.0,1.697411298751831,0.09070458439334385,0.47161873415770345,-0.06363110573782299,0.01843850128352642,0.019156264141201973,0.0,-0.00034392630914226174,0.0014810250140726566,0.0
83,5,-2.9904958864790387e-05,8.851594611769542e-05,-0.0001571505272295326,-0.005619105417281389,-0.004599663428962231,0.017954735085368156,0.014074539765715599,-0.2739497423171997,0.0004225476295687258,0.0,0.0,0.0,0.0,0.0,0.0,0.006088636815547943,-0.0045081269927322865,-0.0,0.0,0.0,0.0,-0.0016258338000625372,0.0810096263885498,-9.028268323163502e-06,18606.0,5856.0,5250.0,18453.0,0.798529326915741,0.06404966861009598,0.049447864294052124,0.7848888039588928,0.0,0.0,0.0,0.0,0.0,0.0,0.0,0.0,1.697411298751831,0.09337256079792816,0.4717839725199119,-0.06523613978854645,0.01843850128352642,0.019156264141201973,0.0,0.006029732525348663,-0.004492518026381731,0.0
88,5,-2.9904958864790387e-05,8.851594611769542e-05,-0.0001571505272295326,-0.005619105417281389,-0.004599663428962231,0.017954735085368156,0.014074539765715599,-0.2739497423171997,0.0004225476295687258,0.0,0.0,0.0,0.0,0.0,0.0,0.0056276521645486355,-0.005183354951441288,-0.0,0.0,0.0,0.0,-0.0016258338000625372,0.0810096263885498,-9.028268323163502e-06,18606.0,5856.0,5250.0,18453.0,0.798529326915741,0.06404966861009598,0.049447864294052124,0.7848888039588928,0.0,0.0,0.0,0.0,0.0,0.0,0.0,0.0,1.7002947330474854,0.09337256079792816,0.4717839725199119,-0.06523613978854645,0.021236270666122437,0.017736006528139114,0.0,0.006029732525348663,-0.004492518026381731,0.0
93,5,-2.9904958864790387e-05,8.851594611769542e-05,-0.0001571505272295326,-0.005619105417281389,-0.004599663428962231,0.017954735085368156,0.014086024835705757,-0.2739250063896179,0.00039419857785105705,0.0,0.0,0.0,0.0,0.0,0.0,0.0056276521645486355,-0.005183354951441288,-0.0,0.0,0.0,0.0,-0.0016330723883584142,0.081030935049057,3.416666629618703e-07,18620.0,5803.0,5233.0,18459.0,0.799733579158783,0.06271251291036606,0.04906292259693146,0.7854065895080566,0.0,0.0,0.0,0.0,0.0,0.0,0.0,0.0,1.7002947330474854,0.09337256079792816,0.4717839725199119,-0.06523613978854645,0.021236270666122437,0.017736006528139114,0.0,0.006088636815547943,-0.0045081269927322865,0.0
98,5,-3.717955405591056e-05,5.639724258799106e-05,-0.00013571111776400357,-0.005619105417281389,-0.004599663428962231,0.017954735085368156,0.014086024835705757,-0.2739250063896179,0.00039419857785105705,0.0,0.0,0.0,0.0,0.0,0.0,0.0056276521645486355,-0.005183354951441288,-0.0,0.0,0.0,0.0,-0.0016330723883584142,0.081030935049057,3.416666629618703e-07,18620.0,5803.0,5233.0,18459.0,0.799733579158783,0.06271251291036606,0.04906292259693146,0.7854065895080566,0.0,0.0,0.0,0.0,0.0,0.0,0.0,0.0,1.7002947330474854,0.0922616685574908,0.47271565208201305,-0.06427754809041365,0.021236270666122437,0.017736006528139114,0.0,0.006088636815547943,-0.0045081269927322865,0.0
103,5,-1.060942577169044e-05,4.961330705555156e-05,-0.00013886261149309576,0.00094077322864905,-0.0010257932590320706,0.007560073398053646,0.014082175679504871,-0.27392303943634033,0.000392548565287143,0.0,0.0,0.0,0.0,0.0,0.0,0.005572378635406494,-0.005193819757550955,-0.0,0.0,0.0,0.0,-0.0016920212656259537,0.08086296170949936,6.816773384343833e-05,18611.0,5841.0,5191.0,18473.0,0.7989669442176819,0.06367263942956924,0.048118170350790024,0.7866535782814026,0.0,0.0,0.0,0.0,0.0,0.0,0.0,0.0,1.7000759840011597,0.09404127509033536,0.475497840174059,-0.06523151492639599,0.021276412531733513,0.01755955070257187,0.0,0.0056276521645486355,-0.005183354951441288,0.0
108,5,-1.060942577169044e-05,4.961330705555156e-05,-0.00013886261149309576,0.00094077322864905,-0.0010257932590320706,0.007560073398053646,0.014082175679504871,-0.27392303943634033,0.000392548565287143,0.0,0.0,0.0,0.0,0.0,0.0,0.005572378635406494,-0.005193819757550955,-0.0,0.0,0.0,0.0,-0.0016920212656259537,0.08086296170949936,6.816773384343833e-05,18611.0,5841.0,5191.0,18473.0,0.7989669442176819,0.06367263942956924,0.048118170350790024,0.7866535782814026,0.0,0.0,0.0,0.0,0.0,0.0,0.0,0.0,1.7000759840011597,0.09404127509033536,0.475497840174059,-0.06523151492639599,0.021276412531733513,0.01755955070257187,0.0,0.0056276521645486355,-0.005183354951441288,0.0
113,5,-2.6210878786514513e-05,5.645938290399499e-05,-0.00017796111933421344,-0.0014958649408072233,-0.0012318463996052742,0.007715851068496704,0.014082175679504871,-0.27392303943634033,0.000392548565287143,0.0,0.0,0.0,0.0,0.0,0.0,0.0013551660813391209,0.0008776943432167172,-0.0,0.0,0.0,0.0,-0.0016920212656259537,0.08086296170949936,6.816773384343833e-05,18611.0,5841.0,5191.0,18473.0,0.7989669442176819,0.06367263942956924,0.048118170350790024,0.7866535782814026,0.0,0.0,0.0,0.0,0.0,0.0,0.0,0.0,1.6403577327728271,0.09321228260959766,0.4746408940256827,-0.06526457399163627,-0.0034692317713052034,0.004120400175452232,0.0,0.0056276521645486355,-0.005183354951441288,0.0
118,5,-2.6210878786514513e-05,5.645938290399499e-05,-0.00017796111933421344,-0.0014958649408072233,-0.0012318463996052742,0.007715851068496704,0.014068970456719398,-0.27390623092651367,0.00038219132693484426,0.0,0.0,0.0,0.0,0.0,0.0,0.0013551660813391209,0.0008776943432167172,-0.0,0.0,0.0,0.0,-0.0017022888641804457,0.08090457320213318,-7.829241803847253e-05,18644.0,5800.0,5383.0,18436.0,0.801874041557312,0.06262454390525818,0.052493587136268616,0.7833025455474854,0.0,0.0,0.0,0.0,0.0,0.0,0.0,0.0,1.6403577327728271,0.09321228260959766,0.4746408940256827,-0.06526457399163627,-0.0034692317713052034,0.004120400175452232,0.0,0.005572378635406494,-0.005193819757550955,0.0
123,5,-5.5345753935398534e-05,9.472531382925808e-05,-0.0001847559178713709,-0.0040945312939584255,-0.005084650125354528,0.0039017153903841972,0.014068970456719398,-0.27390623092651367,0.00038219132693484426,0.0,0.0,0.0,0.0,0.0,0.0,0.0016159064834937453,-0.001450497773475945,-0.0,0.0,0.0,0.0,-0.0017022888641804457,0.08090457320213318,-7.829241803847253e-05,18644.0,5800.0,5383.0,18436.0,0.801874041557312,0.06262454390525818,0.052493587136268616,0.7833025455474854,0.0,0.0,0.0,0.0,0.0,0.0,0.0,0.0,1.6462894678115845,0.09076569819329047,0.4685083762904035,-0.06347883548042736,0.005754061043262482,0.0049309502355754375,0.0,0.005572378635406494,-0.005193819757550955,0.0
128,5,-5.5345753935398534e-05,9.472531382925808e-05,-0.0001847559178713709,-0.0040945312939584255,-0.005084650125354528,0.0039017153903841972,0.014046181924641132,-0.2738786041736603,0.00036055842065252364,0.0,0.0,0.0,0.0,0.0,0.0,0.006241253111511469,-0.0038377929013222456,-0.0,0.0,0.0,0.0,-0.0025652237236499786,0.08272149413824081,-1.6978458006633446e-05,18621.0,5895.0,5243.0,18464.0,0.7998826503753662,0.06505130231380463,0.04928893968462944,0.7858530879020691,0.0,0.0,0.0,0.0,0.0,0.0,0.0,0.0,1.6933778524398804,0.09076569819329047,0.4685083762904035,-0.06347883548042736,0.015659496188163757,0.019589759409427643,0.0,0.0013551660813391209,0.0008776943432167172,0.0
134,5,-9.369716281071305e-05,8.504402649123222e-05,-0.00027839330141432583,-0.0040945312939584255,-0.005084650125354528,0.0039017153903841972,0.014046181924641132,-0.2738786041736603,0.00036055842065252364,0.0,0.0,0.0,0.0,0.0,0.0,0.006241253111511469,-0.0038377929013222456,-0.0,0.0,0.0,0.0,-0.0025652237236499786,0.08272149413824081,-1.6978458006633446e-05,18621.0,5895.0,5243.0,18464.0,0.7998826503753662,0.06505130231380463,0.04928893968462944,0.7858530879020691,0.0,0.0,0.0,0.0,0.0,0.0,0.0,0.0,1.6933778524398804,0.08769928847071633,0.4665391730523545,-0.06229795675539755,0.015659496188163757,0.019589759409427643,0.0,0.0013551660813391209,0.0008776943432167172,0.0
139,5,-9.369716281071305e-05,8.504402649123222e-05,-0.00027839330141432583,-0.0040945312939584255,-0.005084650125354528,0.0039017153903841972,0.014031430706381798,-0.2738056778907776,0.00034359260462224483,0.0,0.0,0.0,0.0,0.0,0.0,0.006241253111511469,-0.0038377929013222456,-0.0,0.0,0.0,0.0,-0.0024473783560097218,0.08222904801368713,0.00011184220056748018,18596.0,5128.0,4204.0,18323.0,0.797623872756958,0.046728815883398056,0.028569858521223068,0.7733669281005859,0.0,0.0,0.0,0.0,0.0,0.0,0.0,0.0,1.6933778524398804,0.08769928847071633,0.4665391730523545,-0.06229795675539755,0.015659496188163757,0.019589759409427643,0.0,0.0016159064834937453,-0.001450497773475945,0.0
144,5,-2.5153914975817315e-05,8.489543688483536e-05,-0.00016680339467711747,0.006587377283722162,-0.0020160293206572533,-0.011830104514956474,0.014031430706381798,-0.2738056778907776,0.00034359260462224483,0.0,0.0,0.0,0.0,0.0,0.0,0.006223485805094242,-0.0038890070281922817,-0.0,0.0,0.0,0.0,-0.0024473783560097218,0.08222904801368713,0.00011184220056748018,18596.0,5128.0,4204.0,18323.0,0.797623872756958,0.046728815883398056,0.028569858521223068,0.7733669281005859,0.0,0.0,0.0,0.0,0.0,0.0,0.0,0.0,1.6936219930648804,0.09274020666110534,0.47192854259844835,-0.06466208767490389,0.015870755538344383,0.019536809995770454,0.0,0.0016159064834937453,-0.001450497773475945,0.0
149,5,-2.5153914975817315e-05,8.489543688483536e-05,-0.00016680339467711747,0.006587377283722162,-0.0020160293206572533,-0.011830104514956474,0.014014925807714462,-0.2738516330718994,0.00033612691913731396,0.0,0.0,0.0,0.0,0.0,0.0,0.006223485805094242,-0.0038890070281922817,-0.0,0.0,0.0,0.0,-0.0015942445024847984,0.0816044881939888,-4.5757619773212355e-06,18609.0,5758.0,4974.0,18506.0,0.7987972497940063,0.06156476214528084,0.04341345652937889,0.7896023988723755,0.0,0.0,0.0,0.0,0.0,0.0,0.0,0.0,1.6936219930648804,0.09274020666110534,0.47192854259844835,-0.06466208767490389,0.015870755538344383,0.019536809995770454,0.0,0.006241253111511469,-0.0038377929013222456,0.0
154,5,-1.8912081941380166e-05,7.270461355801672e-05,-0.00015905327745713294,0.006587377283722162,-0.0020160293206572533,-0.011830104514956474,0.014014925807714462,-0.2738516330718994,0.00033612691913731396,0.0,0.0,0.0,0.0,0.0,0.0,0.002554923063144088,0.006012638099491596,-0.0,0.0,0.0,0.0,-0.0015942445024847984,0.0816044881939888,-4.5757619773212355e-06,18609.0,5758.0,4974.0,18506.0,0.7987972497940063,0.06156476214528084,0.04341345652937889,0.7896023988723755,0.0,0.0,0.0,0.0,0.0,0.0,0.0,0.0,1.6954063177108765,0.09311083554729054,0.4719203499722052,-0.06490177614173183,-0.024563301354646683,0.008028960786759853,0.0,0.006241253111511469,-0.0038377929013222456,0.0
159,5,-1.8912081941380166e-05,7.270461355801672e-05,-0.00015905327745713294,0.006587377283722162,-0.0020160293206572533,-0.011830104514956474,0.014008126221597195,-0.27386799454689026,0.0003283170808572322,0.0,0.0,0.0,0.0,0.0,0.0,0.002554923063144088,0.006012638099491596,-0.0,0.0,0.0,0.0,-0.0015470345970243216,0.08157183229923248,3.151016790070571e-05,18645.0,5624.0,5147.0,18468.0,0.8020306825637817,0.05825776234269142,0.047151584178209305,0.7861819267272949,0.0,0.0,0.0,0.0,0.0,0.0,0.0,0.0,1.6954063177108765,0.09311083554729054,0.4719203499722052,-0.06490177614173183,-0.024563301354646683,0.008028960786759853,0.0,0.006241253111511469,-0.0038377929013222456,0.0
164,5,-0.00014346858370117843,0.00015233556041494012,-0.0006434188690036535,0.006587377283722162,-0.0020160293206572533,-0.011830104514956474,0.014008126221597195,-0.27386799454689026,0.0003283170808572322,0.0,0.0,0.0,0.0,0.0,0.0,0.0025336206890642643,0.00602091196924448,-0.0,0.0,0.0,0.0,-0.0015470345970243216,0.08157183229923248,3.151016790070571e-05,18645.0,5624.0,5147.0,18468.0,0.8020306825637817,0.05825776234269142,0.047151584178209305,0.7861819267272949,0.0,0.0,0.0,0.0,0.0,0.0,0.0,0.0,1.6954381465911865,0.07350574654191447,0.45297492408793605,-0.05812356067594318,-0.024597564712166786,0.007962166331708431,0.0,0.006241253111511469,-0.0038377929013222456,0.0
169,5,-0.00014346858370117843,0.00015233556041494012,-0.0006434188690036535,0.006587377283722162,-0.0020160293206572533,-0.011830104514956474,0.014055369421839714,-0.27390480041503906,0.0005830020527355373,0.0,0.0,0.0,0.0,0.0,0.0,0.0025336206890642643,0.00602091196924448,-0.0,0.0,0.0,0.0,-0.001520965015515685,0.08178560435771942,0.0011509383330121636,19096.0,3943.0,5471.0,18326.0,0.8429923057556152,0.024217622354626656,0.054557181894779205,0.7736392617225647,0.0,0.0,0.0,0.0,0.0,0.0,0.0,0.0,1.6954381465911865,0.07350574654191447,0.45297492408793605,-0.05812356067594318,-0.024597564712166786,0.007962166331708431,0.0,0.006223485805094242,-0.0038890070281922817,0.0
174,5,-0.00014734547585248947,8.951080963015556e-05,-0.0006165805971249938,0.006587377283722162,-0.0020160293206572533,-0.011830104514956474,0.014055369421839714,-0.27390480041503906,0.0005830020527355373,0.0,0.0,0.0,0.0,0.0,0.0,0.0026753051206469536,0.005857807584106922,-0.0,0.0,0.0,0.0,-0.001520965015515685,0.08178560435771942,0.0011509383330121636,19096.0,3943.0,5471.0,18326.0,0.8429923057556152,0.024217622354626656,0.054557181894779205,0.7736392617225647,0.0,0.0,0.0,0.0,0.0,0.0,0.0,0.0,1.6940762996673584,0.07633504168413176,0.45719512480425445,-0.06023540045449577,-0.02391200140118599,0.008400669321417809,0.0,0.006223485805094242,-0.0038890070281922817,0.0
179,5,-0.00014734547585248947,8.951080963015556e-05,-0.0006165805971249938,0.006587377283722162,-0.0020160293206572533,-0.011830104514956474,0.013820533640682697,-0.2737727463245392,-0.00028918724274262786,0.0,0.0,0.0,0.0,0.0,0.0,0.0026753051206469536,0.005857807584106922,-0.0,0.0,0.0,0.0,-0.002313861856237054,0.08433500677347183,-0.0035276897251605988,18397.0,6722.0,1495.0,18988.0,0.7798532247543335,0.08813591301441193,-0.005681546404957771,0.8330987691879272,0.0,0.0,0.0,0.0,0.0,0.0,0.0,0.0,1.6940762996673584,0.07633504168413176,0.45719512480425445,-0.06023540045449577,-0.02391200140118599,0.008400669321417809,0.0,0.002554923063144088,0.006012638099491596,0.0
185,5,0.00012518420408014208,0.00034451985266059637,-0.0017979975091293454,0.006587377283722162,-0.0020160293206572533,-0.011830104514956474,0.013820533640682697,-0.2737727463245392,-0.00028918724274262786,0.0,0.0,0.0,0.0,0.0,0.0,0.002565902890637517,0.005853686016052961,-0.0,0.0,0.0,0.0,-0.002313861856237054,0.08433500677347183,-0.0035276897251605988,18397.0,6722.0,1495.0,18988.0,0.7798532247543335,0.08813591301441193,-0.005681546404957771,0.8330987691879272,0.0,0.0,0.0,0.0,0.0,0.0,0.0,0.0,1.6937203407287598,0.040225603395176016,0.43603729677694014,-0.06130037591783652,-0.023890163749456406,0.008055446669459343,0.0,0.002554923063144088,0.006012638099491596,0.0
190,5,0.00012518420408014208,0.00034451985266059637,-0.0017979975091293454,0.006587377283722162,-0.0020160293206572533,-0.011830104514956474,0.014195984229445457,-0.2734230160713196,0.0004057327751070261,0.0,0.0,0.0,0.0,0.0,0.0,0.002565902890637517,0.005853686016052961,-0.0,0.0,0.0,0.0,-0.0025947256945073605,0.08395273983478546,0.002238617744296789,18892.0,5010.0,4674.0,18492.0,0.824309229850769,0.04416821524500847,0.03727063164114952,0.7883281707763672,0.0,0.0,0.0,0.0,0.0,0.0,0.0,0.0,1.6937203407287598,0.040225603395176016,0.43603729677694014,-0.06130037591783652,-0.023890163749456406,0.008055446669459343,0.0,0.0025336206890642643,0.00602091196924448,0.0
195,5,0.0003199548809789121,0.0003127528470940888,-0.0014748950488865376,0.026007434353232384,0.003005627077072859,-0.043504342436790466,0.014195984229445457,-0.2734230160713196,0.0004057327751070261,0.0,0.0,0.0,0.0,0.0,0.0,0.003004116704687476,0.006202644668519497,-0.0,0.0,0.0,0.0,-0.0025947256945073605,0.08395273983478546,0.002238617744296789,18892.0,5010.0,4674.0,18492.0,0.824309229850769,0.04416821524500847,0.03727063164114952,0.7883281707763672,0.0,0.0,0.0,0.0,0.0,0.0,0.0,0.0,1.6987534761428833,0.05541604647989529,0.45325800999946697,-0.06871009145376283,-0.02538951486349106,0.00945920217782259,0.0,0.0025336206890642643,0.00602091196924448,0.0
200,5,0.0003199548809789121,0.0003127528470940888,-0.0014748950488865376,0.026007434353232384,0.003005627077072859,-0.043504342436790466,0.013993645086884499,-0.2731991708278656,-0.00015757993969600648,0.0,0.0,0.0,0.0,0.0,0.0,0.003004116704687476,0.006202644668519497,-0.0,0.0,0.0,0.0,-0.0021334674675017595,0.08402037620544434,0.0001453706354368478,19241.0,2902.0,6204.0,18104.0,0.8563793301582336,0.010241787880659103,0.07329195737838745,0.7541632652282715,0.0,0.0,0.0,0.0,0.0,0.0,0.0,0.0,1.6987534761428833,0.05541604647989529,0.45325800999946697,-0.06871009145376283,-0.02538951486349106,0.00945920217782259,0.0,0.0026753051206469536,0.005857807584106922,0.0
205,5,0.00041071907617151737,0.00026746990624815226,-0.001244032522663474,0.026007434353232384,0.003005627077072859,-0.043504342436790466,0.013993645086884499,-0.2731991708278656,-0.00015757993969600648,0.0,0.0,0.0,0.0,0.0,0.0,-0.0027273071464151144,0.021822966635227203,-0.0,0.0,0.0,0.0,-0.0021334674675017595,0.08402037620544434,0.0001453706354368478,19241.0,2902.0,6204.0,18104.0,0.8563793301582336,0.010241787880659103,0.07329195737838745,0.7541632652282715,0.0,0.0,0.0,0.0,0.0,0.0,0.0,0.0,1.88826584815979,0.06333180388457682,0.4610909728672291,-0.07142910339386475,-0.09928708523511887,-0.00954563356935978,0.0,0.0026753051206469536,0.005857807584106922,0.0
210,5,0.00041071907617151737,0.00026746990624815226,-0.001244032522663474,0.026007434353232384,0.003005627077072859,-0.043504342436790466,0.014191005378961563,-0.27293315529823303,-6.689123983960599e-05,0.0,0.0,0.0,0.0,0.0,0.0,-0.0027273071464151144,0.021822966635227203,-0.0,0.0,0.0,0.0,-0.0025089990813285112,0.08414646238088608,-0.0013823297340422869,18392.0,6674.0,1495.0,18975.0,0.7794526219367981,0.08668564260005951,-0.004316065460443497,0.8318980932235718,0.0,0.0,0.0,0.0,0.0,0.0,0.0,0.0,1.88826584815979,0.06333180388457682,0.4610909728672291,-0.07142910339386475,-0.09928708523511887,-0.00954563356935978,0.0,0.002565902890637517,0.005853686016052961,0.0
215,5,0.0004330537049099803,0.00022963884111959487,-0.001127504394389689,0.013083130121231079,0.005741978529840708,-0.03138510882854462,0.014191005378961563,-0.27293315529823303,-6.689123983960599e-05,0.0,0.0,0.0,0.0,0.0,0.0,-0.0027962299063801765,0.021917596459388733,-0.0,0.0,0.0,0.0,-0.0025089990813285112,0.08414646238088608,-0.0013823297340422869,18392.0,6674.0,1495.0,18975.0,0.7794526219367981,0.08668564260005951,-0.004316065460443497,0.8318980932235718,0.0,0.0,0.0,0.0,0.0,0.0,0.0,0.0,1.8895952701568604,0.06725808262893394,0.4665295233151168,-0.07461043536697072,-0.09978772699832916,-0.009793753735721111,0.0,0.002565902890637517,0.005853686016052961,0.0
220,5,0.0004330537049099803,0.00022963884111959487,-0.001127504394389689,0.013083130121231079,0.005741978529840708,-0.03138510882854462,0.014168447814881802,-0.27240458130836487,0.00020809512352570891,0.0,0.0,0.0,0.0,0.0,0.0,-0.0027962299063801765,0.021917596459388733,-0.0,0.0,0.0,0.0,-0.0023417684715241194,0.08216892182826996,0.0016206435393542051,18937.0,5003.0,5867.0,18194.0,0.8284015655517578,0.04402589052915573,0.06434266269207001,0.761983335018158,0.0,0.0,0.0,0.0,0.0,0.0,0.0,0.0,1.8895952701568604,0.06725808262893394,0.4665295233151168,-0.07461043536697072,-0.09978772699832916,-0.009793753735721111,0.0,0.003004116704687476,0.006202644668519497,0.0
225,5,0.0005092768697068095,0.00019692437490448356,-0.0009905172046273947,0.014380032196640968,0.00622252793982625,-0.028992511332035065,0.014168447814881802,-0.27240458130836487,0.00020809512352570891,0.0,0.0,0.0,0.0,0.0,0.0,-0.00616421876475215,0.012039543129503727,-0.0,0.0,0.0,0.0,-0.0023417684715241194,0.08216892182826996,0.0016206435393542051,18937.0,5003.0,5867.0,18194.0,0.8284015655517578,0.04402589052915573,0.06434266269207001,0.761983335018158,0.0,0.0,0.0,0.0,0.0,0.0,0.0,0.0,1.7734051942825317,0.07396924450566188,0.47458646714968983,-0.07797168445113228,-0.051445942372083664,-0.02026233822107315,0.0,0.003004116704687476,0.006202644668519497,0.0
230,5,0.0005092768697068095,0.00019692437490448356,-0.0009905172046273947,0.014380032196640968,0.00622252793982625,-0.028992511332035065,0.014416517689824104,-0.27004408836364746,0.00019273129873909056,0.0,0.0,0.0,0.0,0.0,0.0,-0.00616421876475215,0.012039543129503727,-0.0,0.0,0.0,0.0,-0.003548878477886319,0.08427631855010986,1.469448488933267e-05,19590.0,6593.0,7066.0,18802.0,0.8890731334686279,0.08429831266403198,0.0987410843372345,0.816153347492218,0.0,0.0,0.0,0.0,0.0,0.0,0.0,0.0,1.7734051942825317,0.07396924450566188,0.47458646714968983,-0.07797168445113228,-0.051445942372083664,-0.02026233822107315,0.0,-0.0027273071464151144,0.021822966635227203,0.0
235,5,0.0005758876213803887,0.0004807995865121484,-0.0009067923529073596,0.013745302334427834,-0.031576015055179596,-0.0216439850628376,0.014416517689824104,-0.27004408836364746,0.00019273129873909056,0.0,0.0,0.0,0.0,0.0,0.0,-0.006711073685437441,0.01316662784665823,-0.0,0.0,0.0,0.0,-0.003548878477886319,0.08427631855010986,1.469448488933267e-05,19590.0,6593.0,7066.0,18802.0,0.8890731334686279,0.08429831266403198,0.0987410843372345,0.816153347492218,0.0,0.0,0.0,0.0,0.0,0.0,0.0,0.0,1.7881799936294556,0.06470294549377442,0.4710741695418248,-0.0818517914965972,-0.05673033744096756,-0.022243639454245567,0.0,-0.0027273071464151144,0.021822966635227203,0.0
240,5,0.0005758876213803887,0.0004807995865121484,-0.0009067923529073596,0.013745302334427834,-0.031576015055179596,-0.0216439850628376,0.014474978670477867,-0.2669249176979065,0.00051280134357512,0.0,0.0,0.0,0.0,0.0,0.0,-0.006711073685437441,0.01316662784665823,-0.0,0.0,0.0,0.0,-0.003576722927391529,0.0771440789103508,0.0011515362421050668,19094.0,7994.0,8032.0,18452.0,0.8428448438644409,0.13032440841197968,0.13168177008628845,0.7847442030906677,0.0,0.0,0.0,0.0,0.0,0.0,0.0,0.0,1.7881799936294556,0.06470294549377442,0.4710741695418248,-0.0818517914965972,-0.05673033744096756,-0.022243639454245567,0.0,-0.0027962299063801765,0.021917596459388733,0.0
245,5,0.0004702144069597125,0.00031401540036313236,-0.0005448866868391633,0.013745302334427834,-0.031576015055179596,-0.0216439850628376,0.014474978670477867,-0.2669249176979065,0.00051280134357512,0.0,0.0,0.0,0.0,0.0,0.0,0.03313117101788521,0.01152169518172741,-0.0,0.0,0.0,0.0,-0.003576722927391529,0.0771440789103508,0.0011515362421050668,19094.0,7994.0,8032.0,18452.0,0.8428448438644409,0.13032440841197968,0.13168177008628845,0.7847442030906677,0.0,0.0,0.0,0.0,0.0,0.0,0.0,0.0,1.972030758857727,0.06441349362285448,0.45538278995539194,-0.074922134924376,-0.05471847206354141,0.12106389552354813,0.0,-0.0027962299063801765,0.021917596459388733,0.0
250,5,0.0004702144069597125,0.00031401540036313236,-0.0005448866868391633,0.013745302334427834,-0.031576015055179596,-0.0216439850628376,0.01444688718765974,-0.25459352135658264,0.0008136106189340353,0.0,0.0,0.0,0.0,0.0,0.0,0.03313117101788521,0.01152169518172741,-0.0,0.0,0.0,0.0,-0.004411022178828716,0.05623277649283409,0.0018072804668918252,17987.0,9307.0,10803.0,16165.0,0.7440443634986877,0.18236510455608368,0.2521853446960449,0.5948103666305542,0.0,0.0,0.0,0.0,0.0,0.0,0.0,0.0,1.972030758857727,0.06441349362285448,0.45538278995539194,-0.074922134924376,-0.05471847206354141,0.12106389552354813,0.0,-0.00616421876475215,0.012039543129503727,0.0
255,5,0.0001331893290625885,0.000485845870571211,0.0001585333375260234,0.013745302334427834,-0.031576015055179596,-0.0216439850628376,0.01444688718765974,-0.25459352135658264,0.0008136106189340353,0.0,0.0,0.0,0.0,0.0,0.0,0.03292500227689743,0.011415079236030579,-0.0,0.0,0.0,0.0,-0.004411022178828716,0.05623277649283409,0.0018072804668918252,17987.0,9307.0,10803.0,16165.0,0.7440443634986877,0.18236510455608368,0.2521853446960449,0.5948103666305542,0.0,0.0,0.0,0.0,0.0,0.0,0.0,0.0,1.969353199005127,0.06863900251810276,0.42454600420635125,-0.07637954292584404,-0.0541389174759388,0.12014768272638321,0.0,-0.00616421876475215,0.012039543129503727,0.0
261,5,0.0001331893290625885,0.000485845870571211,0.0001585333375260234,0.013745302334427834,-0.031576015055179596,-0.0216439850628376,0.014384794980287552,-0.23762743175029755,0.0015855543315410614,0.0,0.0,0.0,0.0,0.0,0.0,0.03292500227689743,0.011415079236030579,-0.0,0.0,0.0,0.0,-0.004277914296835661,0.02622504159808159,0.00403708266094327,16957.0,11175.0,13816.0,13897.0,0.6575849056243896,0.2713295817375183,0.42696887254714966,0.43229663372039795,0.0,0.0,0.0,0.0,0.0,0.0,0.0,0.0,1.969353199005127,0.06863900251810276,0.42454600420635125,-0.07637954292584404,-0.0541389174759388,0.12014768272638321,0.0,-0.006711073685437441,0.01316662784665823,0.0
266,5,-0.001210196758620441,4.0075407014228404e-05,-0.00014442064275499433,0.013745302334427834,-0.031576015055179596,-0.0216439850628376,0.014384794980287552,-0.23762743175029755,0.0015855543315410614,0.0,0.0,0.0,0.0,0.0,0.0,0.033179547637701035,0.011022732593119144,-0.0,0.0,0.0,0.0,-0.004277914296835661,0.02622504159808159,0.00403708266094327,16957.0,11175.0,13816.0,13897.0,0.6575849056243896,0.2713295817375183,0.42696887254714966,0.43229663372039795,0.0,0.0,0.0,0.0,0.0,0.0,0.0,0.0,1.9696543216705322,0.07595962981571878,0.3264740077618882,-0.06845848966121645,-0.05228574573993683,0.12109445035457611,0.0,-0.006711073685437441,0.01316662784665823,0.0
271,5,-0.001210196758620441,4.0075407014228404e-05,-0.00014442064275499433,0.013745302334427834,-0.031576015055179596,-0.0216439850628376,0.012503157369792461,-0.19766327738761902,0.002331131836399436,0.0,0.0,0.0,0.0,0.0,0.0,0.033179547637701035,0.011022732593119144,-0.0,0.0,0.0,0.0,0.01011703722178936,-0.0470542274415493,0.004672863055020571,13909.0,14716.0,16856.0,13423.0,0.4330845773220062,0.4879688322544098,0.6493983864784241,0.40157899260520935,0.0,0.0,0.0,0.0,0.0,0.0,0.0,0.0,1.9696543216705322,0.07595962981571878,0.3264740077618882,-0.06845848966121645,-0.05228574573993683,0.12109445035457611,0.0,0.03292500227689743,0.011415079236030579,0.0
276,5,-0.001686296658590436,0.00011994321539532393,0.0012143297353759408,0.013745302334427834,-0.031576015055179596,-0.0216439850628376,0.012503157369792461,-0.19766327738761902,0.002331131836399436,0.0,0.0,0.0,0.0,0.0,0.0,0.032716862857341766,0.009524945169687271,-0.0,0.0,0.0,0.0,0.01011703722178936,-0.0470542274415493,0.004672863055020571,13909.0,14716.0,16856.0,13423.0,0.4330845773220062,0.4879688322544098,0.6493983864784241,0.40157899260520935,0.0,0.0,0.0,0.0,0.0,0.0,0.0,0.0,1.9570510387420654,0.0698429699801767,0.2867489940205835,-0.059440055119682776,-0.04489288479089737,0.11864285171031952,0.0,0.03292500227689743,0.011415079236030579,0.0
281,5,-0.001686296658590436,0.00011994321539532393,0.0012143297353759408,0.013745302334427834,-0.031576015055179596,-0.0216439850628376,0.008967213332653046,-0.1612277328968048,0.003092259867116809,0.0,0.0,0.0,0.0,0.0,0.0,0.032716862857341766,0.009524945169687271,-0.0,0.0,0.0,0.0,0.01011703722178936,-0.0470542274415493,0.004672863055020571,12494.0,15515.0,19788.0,9043.0,0.3447010815143585,0.5455586910247803,0.9078921675682068,0.1712011694908142,0.0,0.0,0.0,0.0,0.0,0.0,0.0,0.0,1.9570510387420654,0.0698429699801767,0.2867489940205835,-0.059440055119682776,-0.04489288479089737,0.11864285171031952,0.0,0.03292500227689743,0.011415079236030579,0.0
286,5,-0.0020033209584653378,0.0003374369989614934,0.002414850750938058,0.013745302334427834,-0.031576015055179596,-0.0216439850628376,0.008967213332653046,-0.1612277328968048,0.003092259867116809,0.0,0.0,0.0,0.0,0.0,0.0,0.032858725637197495,0.008973745629191399,-0.0,0.0,0.0,0.0,0.01011703722178936,-0.0470542274415493,0.004672863055020571,12494.0,15515.0,19788.0,9043.0,0.3447010815143585,0.5455586910247803,0.9078921675682068,0.1712011694908142,0.0,0.0,0.0,0.0,0.0,0.0,0.0,0.0,1.9558286666870117,0.05059684583955298,0.23310447889537453,-0.054144746609770214,-0.042268432676792145,0.11908254027366638,0.0,0.03292500227689743,0.011415079236030579,0.0
291,5,-0.0020033209584653378,0.0003374369989614934,0.002414850750938058,0.013745302334427834,-0.031576015055179596,-0.0216439850628376,0.008967213332653046,-0.1612277328968048,0.003092259867116809,0.0,0.0,0.0,0.0,0.0,0.0,0.032858725637197495,0.008973745629191399,-0.0,0.0,0.0,0.0,0.01011703722178936,-0.0470542274415493,0.004672863055020571,12494.0,15515.0,19788.0,9043.0,0.3447010815143585,0.5455586910247803,0.9078921675682068,0.1712011694908142,0.0,0.0,0.0,0.0,0.0,0.0,0.0,0.0,1.9558286666870117,0.05059684583955298,0.23310447889537453,-0.054144746609770214,-0.042268432676792145,0.11908254027366638,0.0,0.03292500227689743,0.011415079236030579,0.0
296,5,-0.0025743062142282724,0.000526964373420924,0.0043676430359482765,-0.06302013248205185,-0.03537369146943092,-0.24299265444278717,-0.0019370883237570524,-0.09338568150997162,0.005290472414344549,0.0,0.0,0.0,0.0,0.0,0.0,0.03316548839211464,0.008595975115895271,-0.0,0.0,0.0,0.0,0.03447698801755905,-0.11559105664491653,0.001208798261359334,6572.0,17686.0,21628.0,6288.0,0.08369363844394684,0.7182425856590271,1.0921212434768677,0.07559690624475479,0.0,0.0,0.0,0.0,0.0,0.0,0.0,0.0,1.9572347402572632,0.04125473689692596,0.1964766937724486,-0.04751050869474566,-0.040517788380384445,0.1202799379825592,0.0,0.032716862857341766,0.009524945169687271,0.0
301,5,-0.0025743062142282724,0.000526964373420924,0.0043676430359482765,-0.06302013248205185,-0.03537369146943092,-0.24299265444278717,-0.0019370883237570524,-0.09338568150997162,0.005290472414344549,0.0,0.0,0.0,0.0,0.0,0.0,0.03316548839211464,0.008595975115895271,-0.0,0.0,0.0,0.0,0.03447698801755905,-0.11559105664491653,0.001208798261359334,6572.0,17686.0,21628.0,6288.0,0.08369363844394684,0.7182425856590271,1.0921212434768677,0.07559690624475479,0.0,0.0,0.0,0.0,0.0,0.0,0.0,0.0,1.9572347402572632,0.04125473689692596,0.1964766937724486,-0.04751050869474566,-0.040517788380384445,0.1202799379825592,0.0,0.032716862857341766,0.009524945169687271,0.0
307,5,-0.0032992272172123194,0.0008405513945035636,0.005816981196403503,-0.06302013248205185,-0.03537369146943092,-0.24299265444278717,-0.01515912264585495,-0.041962530463933945,0.006217713002115488,0.0,0.0,0.0,0.0,0.0,0.0,0.03140142187476158,-0.044657763093709946,-0.0,0.0,0.0,0.0,0.05028877407312393,-0.13174936175346375,-0.0012550241081044078,1495.0,18964.0,22726.0,6634.0,-0.1695711314678192,0.8309053778648376,1.2101963758468628,0.08552032709121704,0.0,0.0,0.0,0.0,0.0,0.0,0.0,0.0,2.3298120498657227,0.009843068022319153,0.14438468660357257,-0.040258787146121085,0.2505020201206207,0.13556547462940216,0.0,0.032858725637197495,0.008973745629191399,0.0
312,5,-0.0032992272172123194,0.0008405513945035636,0.005816981196403503,-0.06302013248205185,-0.03537369146943092,-0.24299265444278717,-0.01515912264585495,-0.041962530463933945,0.006217713002115488,0.0,0.0,0.0,0.0,0.0,0.0,0.03140142187476158,-0.044657763093709946,-0.0,0.0,0.0,0.0,0.05028877407312393,-0.13174936175346375,-0.0012550241081044078,1495.0,18964.0,22726.0,6634.0,-0.1695711314678192,0.8309053778648376,1.2101963758468628,0.08552032709121704,0.0,0.0,0.0,0.0,0.0,0.0,0.0,0.0,2.3298120498657227,0.009843068022319153,0.14438468660357257,-0.040258787146121085,0.2505020201206207,0.13556547462940216,0.0,0.032858725637197495,0.008973745629191399,0.0
317,5,-0.004090636037290096,0.001219338271766901,0.006507107522338629,-0.06302013248205185,-0.03537369146943092,-0.24299265444278717,-0.04541327431797981,0.03802451118826866,0.008625668473541737,0.0,0.0,0.0,0.0,0.0,0.0,0.03167092055082321,-0.0451846644282341,-0.0,0.0,0.0,0.0,0.06631207466125488,-0.14567700028419495,-0.0031979673076421022,1495.0,20276.0,23325.0,9129.0,-0.45118623971939087,0.9551271796226501,1.2770847082138062,0.17480306327342987,0.0,0.0,0.0,0.0,0.0,0.0,0.0,0.0,2.339437961578369,-0.0400377378482298,0.07084224774759497,-0.04392987380324359,0.2545006275177002,0.13729314506053925,0.0,0.03316548839211464,0.008595975115895271,0.0
322,5,-0.0047605508007109165,0.0016539139905944467,0.007689370308071375,-0.10559782385826111,-0.06629856675863266,-0.23906858265399933,-0.04541327431797981,0.03802451118826866,0.008625668473541737,0.0,0.0,0.0,0.0,0.0,0.0,0.03167092055082321,-0.0451846644282341,-0.0,0.0,0.0,0.0,0.06631207466125488,-0.14567700028419495,-0.0031979673076421022,1495.0,20276.0,23325.0,9129.0,-0.45118623971939087,0.9551271796226501,1.2770847082138062,0.17480306327342987,0.0,0.0,0.0,0.0,0.0,0.0,0.0,0.0,2.339437961578369,-0.09133251762627892,0.03126412319159637,-0.05264037298111018,0.2545006275177002,0.13729314506053925,0.0,0.03316548839211464,0.008595975115895271,0.0
327,5,-0.0047605508007109165,0.0016539139905944467,0.007689370308071375,-0.10559782385826111,-0.06629856675863266,-0.23906858265399933,-0.07083731144666672,0.08911962807178497,0.010104688815772533,0.0,0.0,0.0,0.0,0.0,0.0,0.050464704632759094,-0.06366676092147827,-0.0,0.0,0.0,0.0,0.07949604839086533,-0.15834924578666687,-0.010454433038830757,1495.0,19803.0,24155.0,9399.0,-0.5112726092338562,0.9093630313873291,1.372828722000122,0.18631552159786224,0.0,0.0,0.0,0.0,0.0,0.0,0.0,0.0,2.7575395107269287,-0.09133251762627892,0.03126412319159637,-0.05264037298111018,0.422220915555954,0.25774070620536804,0.0,0.03140142187476158,-0.044657763093709946,0.0
332,5,-0.0055271233431994915,0.0019571392331272364,0.008288434706628323,-0.10559782385826111,-0.06629856675863266,-0.23906858265399933,-0.07083731144666672,0.08911962807178497,0.010104688815772533,0.0,0.0,0.0,0.0,0.0,0.0,0.050464704632759094,-0.06366676092147827,-0.0,0.0,0.0,0.0,0.07949604839086533,-0.15834924578666687,-0.010454433038830757,1495.0,19803.0,24155.0,9399.0,-0.5112726092338562,0.9093630313873291,1.372828722000122,0.18631552159786224,0.0,0.0,0.0,0.0,0.0,0.0,0.0,0.0,2.7575395107269287,-0.12628664758916333,-0.01713884373058313,-0.05412213305117839,0.422220915555954,0.25774070620536804,0.0,0.03140142187476158,-0.044657763093709946,0.0
337,5,-0.0055271233431994915,0.0019571392331272364,0.008288434706628323,-0.10559782385826111,-0.06629856675863266,-0.23906858265399933,-0.11462967842817307,0.1580222100019455,0.012979531660676003,0.0,0.0,0.0,0.0,0.0,0.0,0.05064065754413605,-0.06411392986774445,-0.0,0.0,0.0,0.0,0.08437410742044449,-0.1598314642906189,-0.007178260944783688,1495.0,22135.0,24660.0,14290.0,-0.6976945400238037,1.1458096504211426,1.4327173233032227,0.45860549807548523,0.0,0.0,0.0,0.0,0.0,0.0,0.0,0.0,2.765827178955078,-0.12628664758916333,-0.01713884373058313,-0.05412213305117839,0.42645642161369324,0.25941529870033264,0.0,0.03167092055082321,-0.0451846644282341,0.0
342,5,-0.0055271233431994915,0.0019571392331272364,0.008288434706628323,-0.10559782385826111,-0.06629856675863266,-0.23906858265399933,-0.11462967842817307,0.1580222100019455,0.012979531660676003,0.0,0.0,0.0,0.0,0.0,0.0,0.05064065754413605,-0.06411392986774445,-0.0,0.0,0.0,0.0,0.08437410742044449,-0.1598314642906189,-0.007178260944783688,1495.0,22135.0,24660.0,14290.0,-0.6976945400238037,1.1458096504211426,1.4327173233032227,0.45860549807548523,0.0,0.0,0.0,0.0,0.0,0.0,0.0,0.0,2.765827178955078,-0.12628664758916333,-0.01713884373058313,-0.05412213305117839,0.42645642161369324,0.25941529870033264,0.0,0.03167092055082321,-0.0451846644282341,0.0
347,5,-0.0059942989610135555,0.0019876558799296618,0.007917406968772411,-0.10559782385826111,-0.06629856675863266,-0.23906858265399933,-0.14389097690582275,0.19753549993038177,0.015445753931999207,0.0,0.0,0.0,0.0,0.0,0.0,0.050641320645809174,-0.0641159862279892,-0.0,0.0,0.0,0.0,0.08819574862718582,-0.15638448297977448,-0.004004205111414194,1495.0,21465.0,27120.0,13364.0,-0.45840775966644287,1.0750938653945923,1.743039846420288,0.3978135585784912,0.0,0.0,0.0,0.0,0.0,0.0,0.0,0.0,2.765864133834839,-0.14368309817437344,-0.07785318412556956,-0.05991347157004855,0.42647576332092285,0.2594221532344818,0.0,0.050464704632759094,-0.06366676092147827,0.0
352,5,-0.0059942989610135555,0.0019876558799296618,0.007917406968772411,-0.10559782385826111,-0.06629856675863266,-0.23906858265399933,-0.14389097690582275,0.19753549993038177,0.015445753931999207,0.0,0.0,0.0,0.0,0.0,0.0,0.050641320645809174,-0.0641159862279892,-0.0,0.0,0.0,0.0,0.08819574862718582,-0.15638448297977448,-0.004004205111414194,1495.0,21465.0,27120.0,13364.0,-0.45840775966644287,1.0750938653945923,1.743039846420288,0.3978135585784912,0.0,0.0,0.0,0.0,0.0,0.0,0.0,0.0,2.765864133834839,-0.14368309817437344,-0.07785318412556956,-0.05991347157004855,0.42647576332092285,0.2594221532344818,0.0,0.050464704632759094,-0.06366676092147827,0.0
357,5,-0.006477404851466417,0.002048106398433447,0.007840069942176342,-0.10559782385826111,-0.06629856675863266,-0.23906858265399933,-0.18431656062602997,0.24423739314079285,0.01932007074356079,0.0,0.0,0.0,0.0,0.0,0.0,0.050597891211509705,-0.06440706551074982,-0.0,0.0,0.0,0.0,0.0841895341873169,-0.15165087580680847,-0.003792734583839774,1495.0,21641.0,26393.0,13961.0,-0.41225072741508484,1.0935015678405762,1.6480954885482788,0.43648073077201843,0.0,0.0,0.0,0.0,0.0,0.0,0.0,0.0,2.770099639892578,-0.20071307000488384,-0.12599716106495715,-0.06601798436763369,0.4290662109851837,0.25959694385528564,0.0,0.05064065754413605,-0.06411392986774445,0.0
362,5,-0.0068384213373064995,0.0022125637624412775,0.0082131028175354,-0.10559782385826111,-0.06629856675863266,-0.23906858265399933,-0.18431656062602997,0.24423739314079285,0.01932007074356079,0.0,0.0,0.0,0.0,0.0,0.0,0.050597891211509705,-0.06440706551074982,-0.0,0.0,0.0,0.0,0.0841895341873169,-0.15165087580680847,-0.003792734583839774,1495.0,21641.0,26393.0,13961.0,-0.41225072741508484,1.0935015678405762,1.6480954885482788,0.43648073077201843,0.0,0.0,0.0,0.0,0.0,0.0,0.0,0.0,2.770099639892578,-0.21442180216401197,-0.1379081097931685,-0.07165273811765431,0.4290662109851837,0.25959694385528564,0.0,0.05064065754413605,-0.06411392986774445,0.0
368,5,-0.0068384213373064995,0.0022125637624412775,0.0082131028175354,-0.10559782385826111,-0.06629856675863266,-0.23906858265399933,-0.22859524190425873,0.29394102096557617,0.026277661323547363,0.0,0.0,0.0,0.0,0.0,0.0,0.05068504810333252,-0.06490930169820786,-0.0,0.0,0.0,0.0,0.07326243072748184,-0.1414061337709427,-0.0005417640204541385,1495.0,21026.0,26219.0,12915.0,-0.25999051332473755,1.0300196409225464,1.6258900165557861,0.3699449598789215,0.0,0.0,0.0,0.0,0.0,0.0,0.0,0.0,2.7786030769348145,-0.21442180216401197,-0.1379081097931685,-0.07165273811765431,0.433732807636261,0.2608416676521301,0.0,0.050641320645809174,-0.0641159862279892,0.0
373,5,-0.007133876904845238,0.00251994701102376,0.00819691363722086,-0.07769377529621124,-0.06340540200471878,-0.09368467330932617,-0.22859524190425873,0.29394102096557617,0.026277661323547363,0.0,0.0,0.0,0.0,0.0,0.0,0.05068504810333252,-0.06490930169820786,-0.0,0.0,0.0,0.0,0.07326243072748184,-0.1414061337709427,-0.0005417640204541385,1495.0,21026.0,26219.0,12915.0,-0.25999051332473755,1.0300196409225464,1.6258900165557861,0.3699449598789215,0.0,0.0,0.0,0.0,0.0,0.0,0.0,0.0,2.7786030769348145,-0.2182809266973377,-0.1499257584275915,-0.07185715363115486,0.433732807636261,0.2608416676521301,0.0,0.050641320645809174,-0.0641159862279892,0.0
378,5,-0.007133876904845238,0.00251994701102376,0.00819691363722086,-0.07769377529621124,-0.06340540200471878,-0.09368467330932617,-0.23396719992160797,0.30372706055641174,0.02801429107785225,0.0,0.0,0.0,0.0,0.0,0.0,0.05214953050017357,-0.05276705324649811,-0.0,0.0,0.0,0.0,0.06080768257379532,-0.1295165866613388,0.00296143745072186,1495.0,19515.0,26506.0,10326.0,-0.0032742172479629517,0.8819983005523682,1.662670612335205,0.22870498895645142,0.0,0.0,0.0,0.0,0.0,0.0,0.0,0.0,2.6059601306915283,-0.2182809266973377,-0.1499257584275915,-0.07185715363115486,0.33074259757995605,0.2516917288303375,0.0,0.050641320645809174,-0.0641159862279892,0.0
383,5,-0.007588490843772888,0.0020591160282492638,0.008844687603414059,-0.07769377529621124,-0.06340540200471878,-0.09368467330932617,-0.23396719992160797,0.30372706055641174,0.02801429107785225,0.0,0.0,0.0,0.0,0.0,0.0,0.05214953050017357,-0.05276705324649811,-0.0,0.0,0.0,0.0,0.06080768257379532,-0.1295165866613388,0.00296143745072186,1495.0,19515.0,26506.0,10326.0,-0.0032742172479629517,0.8819983005523682,1.662670612335205,0.22870498895645142,0.0,0.0,0.0,0.0,0.0,0.0,0.0,0.0,2.6059601306915283,-0.18924284231219904,-0.14761990923909307,-0.03597242628428946,0.33074259757995605,0.2516917288303375,0.0,0.050641320645809174,-0.0641159862279892,0.0
388,5,-0.007588490843772888,0.0020591160282492638,0.008844687603414059,-0.07769377529621124,-0.06340540200471878,-0.09368467330932617,-0.23389297723770142,0.3099600672721863,0.031948741525411606,0.0,0.0,0.0,0.0,0.0,0.0,0.05160607397556305,-0.05314958095550537,-0.0,0.0,0.0,0.0,0.05329185724258423,-0.11970289796590805,0.00804086122661829,7548.0,18980.0,26252.0,9745.0,0.11459614336490631,0.8323304057121277,1.6300139427185059,0.20166276395320892,0.0,0.0,0.0,0.0,0.0,0.0,0.0,0.0,2.606915235519409,-0.18924284231219904,-0.14761990923909307,-0.03597242628428946,0.33326953649520874,0.2491643726825714,0.0,0.05068504810333252,-0.06490930169820786,0.0
393,5,-0.007687683682888746,0.0022268411703407764,0.008120493032038212,-0.07769377529621124,-0.06340540200471878,-0.09368467330932617,-0.23389297723770142,0.3099600672721863,0.031948741525411606,0.0,0.0,0.0,0.0,0.0,0.0,0.05160607397556305,-0.05314958095550537,-0.0,0.0,0.0,0.0,0.05329185724258423,-0.11970289796590805,0.00804086122661829,7548.0,18980.0,26252.0,9745.0,0.11459614336490631,0.8323304057121277,1.6300139427185059,0.20166276395320892,0.0,0.0,0.0,0.0,0.0,0.0,0.0,0.0,2.606915235519409,-0.20522596150505112,-0.16898591939107463,-0.042550840861441584,0.33326953649520874,0.2491643726825714,0.0,0.05068504810333252,-0.06490930169820786,0.0
398,5,-0.007687683682888746,0.0022268411703407764,0.008120493032038212,-0.07769377529621124,-0.06340540200471878,-0.09368467330932617,-0.22863925993442535,0.3100334703922272,0.032674338668584824,0.0,0.0,0.0,0.0,0.0,0.0,0.05175875872373581,-0.05319998413324356,-0.0,0.0,0.0,0.0,0.04596051946282387,-0.10899393260478973,0.00654649268835783,9451.0,17696.0,25417.0,9096.0,0.18859446048736572,0.719035267829895,1.5249207019805908,0.1734096109867096,0.0,0.0,0.0,0.0,0.0,0.0,0.0,0.0,2.6089420318603516,-0.20522596150505112,-0.16898591939107463,-0.042550840861441584,0.333842009305954,0.2500946521759033,0.0,0.05068504810333252,-0.06490930169820786,0.0
403,5,-0.007954838685691357,0.0024366015568375587,0.00799295399338007,-0.06313607841730118,-0.05053340643644333,-0.022169163450598717,-0.22863925993442535,0.3100334703922272,0.032674338668584824,0.0,0.0,0.0,0.0,0.0,0.0,0.05175875872373581,-0.05319998413324356,-0.0,0.0,0.0,0.0,0.04596051946282387,-0.10899393260478973,0.00654649268835783,9451.0,17696.0,25417.0,9096.0,0.18859446048736572,0.719035267829895,1.5249207019805908,0.1734096109867096,0.0,0.0,0.0,0.0,0.0,0.0,0.0,0.0,2.6089420318603516,-0.19955941923216194,-0.16498101592123557,-0.04121865175961553,0.333842009305954,0.2500946521759033,0.0,0.05068504810333252,-0.06490930169820786,0.0
408,5,-0.007954838685691357,0.0024366015568375587,0.00799295399338007,-0.06313607841730118,-0.05053340643644333,-0.022169163450598717,-0.22863925993442535,0.3100334703922272,0.032674338668584824,0.0,0.0,0.0,0.0,0.0,0.0,0.04447579383850098,-0.047354429960250854,-0.0,0.0,0.0,0.0,0.04596051946282387,-0.10899393260478973,0.00654649268835783,9451.0,17696.0,25417.0,9096.0,0.18859446048736572,0.719035267829895,1.5249207019805908,0.1734096109867096,0.0,0.0,0.0,0.0,0.0,0.0,0.0,0.0,2.4637458324432373,-0.19955941923216194,-0.16498101592123557,-0.04121865175961553,0.28074783086776733,0.20298688113689423,0.0,0.05068504810333252,-0.06490930169820786,0.0
413,5,-0.008321884088218212,0.002526479074731469,0.008210403844714165,-0.06929995864629745,-0.030998677015304565,-0.03496159613132477,-0.21873681247234344,0.3041917085647583,0.0341893695294857,0.0,0.0,0.0,0.0,0.0,0.0,0.04447579383850098,-0.047354429960250854,-0.0,0.0,0.0,0.0,0.04421243816614151,-0.0946078896522522,0.009397655725479126,11135.0,17027.0,25057.0,9546.0,0.26922476291656494,0.6632660627365112,1.4807100296020508,0.19275937974452972,0.0,0.0,0.0,0.0,0.0,0.0,0.0,0.0,2.4637458324432373,-0.17632272542598273,-0.15151354054231977,-0.031207298706591842,0.28074783086776733,0.20298688113689423,0.0,0.05214953050017357,-0.05276705324649811,0.0
418,5,-0.008321884088218212,0.002526479074731469,0.008210403844714165,-0.06929995864629745,-0.030998677015304565,-0.03496159613132477,-0.2105097621679306,0.2978401780128479,0.03447817638516426,0.0,0.0,0.0,0.0,0.0,0.0,0.02887977659702301,-0.05221390724182129,-0.0,0.0,0.0,0.0,0.039405256509780884,-0.08715102076530457,0.008806806989014149,12207.0,16773.0,24848.0,9319.0,0.32795700430870056,0.6427104473114014,1.4553934335708618,0.1828811913728714,0.0,0.0,0.0,0.0,0.0,0.0,0.0,0.0,2.4335172176361084,-0.17632272542598273,-0.15151354054231977,-0.031207298706591842,0.30591025948524475,0.13023482263088226,0.0,0.05175875872373581,-0.05319998413324356,0.0
423,5,-0.008376291021704674,0.0026095928624272346,0.007560517638921738,-0.06929995864629745,-0.030998677015304565,-0.03496159613132477,-0.2105097621679306,0.2978401780128479,0.03447817638516426,0.0,0.0,0.0,0.0,0.0,0.0,0.02887977659702301,-0.05221390724182129,-0.0,0.0,0.0,0.0,0.039405256509780884,-0.08715102076530457,0.008806806989014149,12207.0,16773.0,24848.0,9319.0,0.32795700430870056,0.6427104473114014,1.4553934335708618,0.1828811913728714,0.0,0.0,0.0,0.0,0.0,0.0,0.0,0.0,2.4335172176361084,-0.18741913726107343,-0.15156836036599305,-0.03667286061473273,0.30591025948524475,0.13023482263088226,0.0,0.05175875872373581,-0.05319998413324356,0.0
429,5,-0.008376291021704674,0.0026095928624272346,0.007560517638921738,-0.06929995864629745,-0.030998677015304565,-0.03496159613132477,-0.2105097621679306,0.2978401780128479,0.03447817638516426,0.0,0.0,0.0,0.0,0.0,0.0,0.028970852494239807,-0.05224785953760147,-0.0,0.0,0.0,0.0,0.039405256509780884,-0.08715102076530457,0.008806806989014149,12207.0,16773.0,24848.0,9319.0,0.32795700430870056,0.6427104473114014,1.4553934335708618,0.1828811913728714,0.0,0.0,0.0,0.0,0.0,0.0,0.0,0.0,2.434555768966675,-0.18741913726107343,-0.15156836036599305,-0.03667286061473273,0.3062388300895691,0.13070107996463776,0.0,0.05175875872373581,-0.05319998413324356,0.0
434,5,-0.008807124570012093,0.002601799787953496,0.007320649456232786,-0.06929995864629745,-0.030998677015304565,-0.03496159613132477,-0.19611796736717224,0.286747545003891,0.03537800535559654,0.0,0.0,0.0,0.0,0.0,0.0,0.028970852494239807,-0.05224785953760147,-0.0,0.0,0.0,0.0,0.033855535089969635,-0.08153790235519409,0.010509617626667023,12892.0,15938.0,24223.0,8178.0,0.3685201406478882,0.577349066734314,1.380791425704956,0.1370851993560791,0.0,0.0,0.0,0.0,0.0,0.0,0.0,0.0,2.434555768966675,-0.17187605837073683,-0.14807667841851793,-0.025649934815587767,0.3062388300895691,0.13070107996463776,0.0,0.04447579383850098,-0.047354429960250854,0.0
439,5,-0.008807124570012093,0.002601799787953496,0.007320649456232786,-0.06929995864629745,-0.030998677015304565,-0.03496159613132477,-0.19611796736717224,0.286747545003891,0.03537800535559654,0.0,0.0,0.0,0.0,0.0,0.0,0.028907744213938713,-0.05255650728940964,-0.0,0.0,0.0,0.0,0.033855535089969635,-0.08153790235519409,0.010509617626667023,12892.0,15938.0,24223.0,8178.0,0.3685201406478882,0.577349066734314,1.380791425704956,0.1370851993560791,0.0,0.0,0.0,0.0,0.0,0.0,0.0,0.0,2.4392378330230713,-0.17187605837073683,-0.14807667841851793,-0.025649934815587767,0.3086392283439636,0.1306673288345337,0.0,0.04447579383850098,-0.047354429960250854,0.0
444,5,-0.009532410651445389,0.002898040460422635,0.008407939225435257,-0.06929995864629745,-0.030998677015304565,-0.03496159613132477,-0.18739254772663116,0.2785538136959076,0.03597381338477135,0.0,0.0,0.0,0.0,0.0,0.0,0.028907744213938713,-0.05255650728940964,-0.0,0.0,0.0,0.0,0.0311905425041914,-0.0781477689743042,0.009815461002290249,12661.0,16109.0,23872.0,8482.0,0.35456758737564087,0.5904809832572937,1.3398306369781494,0.14863793551921844,0.0,0.0,0.0,0.0,0.0,0.0,0.0,0.0,2.4392378330230713,-0.12685220980837175,-0.10909524497032974,-0.00918181451268332,0.3086392283439636,0.1306673288345337,0.0,0.02887977659702301,-0.05221390724182129,0.0
449,5,-0.009532410651445389,0.002898040460422635,0.008407939225435257,-0.06929995864629745,-0.030998677015304565,-0.03496159613132477,-0.18739254772663116,0.2785538136959076,0.03597381338477135,0.0,0.0,0.0,0.0,0.0,0.0,0.029160035774111748,-0.0530412495136261,-0.0,0.0,0.0,0.0,0.0311905425041914,-0.0781477689743042,0.009815461002290249,12661.0,16109.0,23872.0,8482.0,0.35456758737564087,0.5904809832572937,1.3398306369781494,0.14863793551921844,0.0,0.0,0.0,0.0,0.0,0.0,0.0,0.0,2.448484420776367,-0.12685220980837175,-0.10909524497032974,-0.00918181451268332,0.31266167759895325,0.1323067843914032,0.0,0.02887977659702301,-0.05221390724182129,0.0
454,5,-0.009920302778482437,0.0029947522561997175,0.007914424873888493,-0.06929995864629745,-0.030998677015304565,-0.03496159613132477,-0.1771906167268753,0.2666935920715332,0.03630465641617775,0.0,0.0,0.0,0.0,0.0,0.0,0.029160035774111748,-0.0530412495136261,-0.0,0.0,0.0,0.0,0.03323490917682648,-0.07772084325551987,0.008566206321120262,12232.0,16240.0,23673.0,9433.0,0.32941341400146484,0.6005818843841553,1.3167449235916138,0.18781569600105286,0.0,0.0,0.0,0.0,0.0,0.0,0.0,0.0,2.448484420776367,-0.1339305669478412,-0.112580241235013,-0.011581085659205865,0.31266167759895325,0.1323067843914032,0.0,0.028970852494239807,-0.05224785953760147,0.0
459,5,-0.009920302778482437,0.0029947522561997175,0.007914424873888493,-0.06929995864629745,-0.030998677015304565,-0.03496159613132477,-0.1771906167268753,0.2666935920715332,0.03630465641617775,0.0,0.0,0.0,0.0,0.0,0.0,0.029160035774111748,-0.0530412495136261,-0.0,0.0,0.0,0.0,0.03323490917682648,-0.07772084325551987,0.008566206321120262,12232.0,16240.0,23673.0,9433.0,0.32941341400146484,0.6005818843841553,1.3167449235916138,0.18781569600105286,0.0,0.0,0.0,0.0,0.0,0.0,0.0,0.0,2.448484420776367,-0.1339305669478412,-0.112580241235013,-0.011581085659205865,0.31266167759895325,0.1323067843914032,0.0,0.028970852494239807,-0.05224785953760147,0.0
464,5,-0.010392080061137676,0.0030628149397671223,0.007570371031761169,-0.06929995864629745,-0.030998677015304565,-0.03496159613132477,-0.17285855114459991,0.2597322463989258,0.03676249086856842,0.0,0.0,0.0,0.0,0.0,0.0,0.029223676770925522,-0.05330737680196762,-0.0,0.0,0.0,0.0,0.03541005030274391,-0.07795048505067825,0.008881020359694958,11763.0,16284.0,23801.0,9724.0,0.30292394757270813,0.603989839553833,1.3315974473953247,0.20072661340236664,0.0,0.0,0.0,0.0,0.0,0.0,0.0,0.0,2.4531707763671875,-0.14025990654668294,-0.11652531173266696,-0.011486124767240142,0.3148297965526581,0.13284918665885925,0.0,0.028907744213938713,-0.05255650728940964,0.0
469,5,-0.010392080061137676,0.0030628149397671223,0.007570371031761169,-0.06929995864629745,-0.030998677015304565,-0.03496159613132477,-0.17285855114459991,0.2597322463989258,0.03676249086856842,0.0,0.0,0.0,0.0,0.0,0.0,0.029223676770925522,-0.05330737680196762,-0.0,0.0,0.0,0.0,0.03541005030274391,-0.07795048505067825,0.008881020359694958,11763.0,16284.0,23801.0,9724.0,0.30292394757270813,0.603989839553833,1.3315974473953247,0.20072661340236664,0.0,0.0,0.0,0.0,0.0,0.0,0.0,0.0,2.4531707763671875,-0.14025990654668294,-0.11652531173266696,-0.011486124767240142,0.3148297965526581,0.13284918665885925,0.0,0.028907744213938713,-0.05255650728940964,0.0
474,5,-0.011157413944602013,0.003356218570843339,0.008226998150348663,-0.06929995864629745,-0.030998677015304565,-0.03496159613132477,-0.17000479996204376,0.2518933415412903,0.036768004298210144,0.0,0.0,0.0,0.0,0.0,0.0,0.029243407770991325,-0.053634047508239746,-0.0,0.0,0.0,0.0,0.04223247990012169,-0.0819382518529892,0.006068035494536161,9959.0,17091.0,23436.0,11319.0,0.2114121913909912,0.6685264706611633,1.2896283864974976,0.2789173126220703,0.0,0.0,0.0,0.0,0.0,0.0,0.0,0.0,2.4586222171783447,-0.12658524495933285,-0.08556195462916703,-0.009709158167619598,0.31746095418930054,0.13323424756526947,0.0,0.029223676770925522,-0.05330737680196762,0.0
479,5,-0.011157413944602013,0.003356218570843339,0.008226998150348663,-0.06929995864629745,-0.030998677015304565,-0.03496159613132477,-0.17000479996204376,0.2518933415412903,0.036768004298210144,0.0,0.0,0.0,0.0,0.0,0.0,0.029243407770991325,-0.053634047508239746,-0.0,0.0,0.0,0.0,0.04223247990012169,-0.0819382518529892,0.006068035494536161,9959.0,17091.0,23436.0,11319.0,0.2114121913909912,0.6685264706611633,1.2896283864974976,0.2789173126220703,0.0,0.0,0.0,0.0,0.0,0.0,0.0,0.0,2.4586222171783447,-0.12658524495933285,-0.08556195462916703,-0.009709158167619598,0.31746095418930054,0.13323424756526947,0.0,0.029223676770925522,-0.05330737680196762,0.0
484,5,-0.01174679771065712,0.0033667597454041243,0.007718471810221672,-0.09844603389501572,-0.013664396479725838,0.047038473188877106,-0.1705293357372284,0.24795925617218018,0.036913905292749405,0.0,0.0,0.0,0.0,0.0,0.0,0.029485132545232773,-0.05414118990302086,-0.0,0.0,0.0,0.0,0.040243737399578094,-0.08328472822904587,0.0045669954270124435,9901.0,16886.0,23717.0,11162.0,0.20877450704574585,0.6518734097480774,1.3219053745269775,0.2706175446510315,0.0,0.0,0.0,0.0,0.0,0.0,0.0,0.0,2.468226194381714,-0.13695008495837913,-0.09633772515619789,-0.015862406920492705,0.3217093348503113,0.13485972583293915,0.0,0.029243407770991325,-0.053634047508239746,0.0
489,5,-0.01174679771065712,0.0033667597454041243,0.007718471810221672,-0.09844603389501572,-0.013664396479725838,0.047038473188877106,-0.1705293357372284,0.24795925617218018,0.036913905292749405,0.0,0.0,0.0,0.0,0.0,0.0,0.029485132545232773,-0.05414118990302086,-0.0,0.0,0.0,0.0,0.040243737399578094,-0.08328472822904587,0.0045669954270124435,9901.0,16886.0,23717.0,11162.0,0.20877450704574585,0.6518734097480774,1.3219053745269775,0.2706175446510315,0.0,0.0,0.0,0.0,0.0,0.0,0.0,0.0,2.468226194381714,-0.13695008495837913,-0.09633772515619789,-0.015862406920492705,0.3217093348503113,0.13485972583293915,0.0,0.029243407770991325,-0.053634047508239746,0.0
494,5,-0.01241863239556551,0.003700859611853957,0.007970794104039669,-0.11999855190515518,-0.04555774852633476,-0.011463264003396034,-0.17104694247245789,0.2434977889060974,0.03679089993238449,0.0,0.0,0.0,0.0,0.0,0.0,0.014224214479327202,-0.06801090389490128,-0.0,0.0,0.0,0.0,0.037915632128715515,-0.0812988355755806,0.0027912710793316364,8446.0,17884.0,23055.0,12234.0,0.14727360010147095,0.7351383566856384,1.2466604709625244,0.32954978942871094,0.0,0.0,0.0,0.0,0.0,0.0,0.0,0.0,2.6523327827453613,-0.13395602754135066,-0.08107136600186786,-0.017900781440141053,0.4342898428440094,0.06992592662572861,-0.0,0.029485132545232773,-0.05414118990302086,0.0
