timestamp,dt,pos_x,pos_y,pos_z,vel_x,vel_y,vel_z,roll,pitch,yaw,agv_x,agv_y,agv_z,x_ref,y_ref,z_ref,roll_ref,pitch_ref,yaw_ref,x_vel_ref,y_vel_ref,z_vel_ref,x_torque,y_torque,z_torque,w0,w1,w2,w3,u0,u1,u2,u3,m0req,m1req,m2req,m3req,thrust0,thrust1,thrust2,thrust3,thrust_ref,roll_vicon,pitch_vicon,yaw_vicon,acc_x,acc_y,acc_z,roll_received,pitch_received,yaw_received
5,5,0.0,0.0,0.0,-0.0011114244116470218,0.0006113491836003959,0.0010446293745189905,-0.005520409904420376,-0.13611449301242828,0.00810899119824171,0.002946331165730953,0.0031922331545501947,-0.004619428422302008,0.0,0.0,0.0,-0.0007547889254055917,-0.001055535627529025,-0.0,0.0,0.0,0.0,0.0,0.0,0.0,0.0,0.0,0.0,0.0,0.0,0.0,0.0,0.0,0.0,0.0,0.0,0.0,0.0,0.0,0.0,0.0,1.6386516094207764,0.03440823390283741,-0.020684642097313972,-0.13216120719185828,0.004167841747403145,-0.0022925594821572304,0.0,0.0,0.0,0.0
34,29,0.0,0.0,0.0,0.0018184843938797712,0.00030623929342254996,0.0021951899398118258,-0.005520409904420376,-0.13611449301242828,0.00810899119824171,0.002946331165730953,0.0031922331545501947,-0.004619428422302008,0.0,0.0,0.0,-0.0007547889254055917,-0.001055535627529025,-0.0,0.0,0.0,0.0,0.0,0.0,0.0,0.0,0.0,0.0,0.0,0.0,0.0,0.0,0.0,0.0,0.0,0.0,0.0,0.0,0.0,0.0,0.0,1.6386516094207764,0.03442540293577345,-0.02127634322916204,-0.1319268543592977,0.004167841747403145,-0.0022925594821572304,0.0,0.0,0.0,0.0
39,5,0.0,0.0,0.0,-0.0004574125341605395,-0.0005280945915728807,-0.0036155101843178272,-0.005520409904420376,-0.13611449301242828,0.00810899119824171,0.002946331165730953,0.0031922331545501947,-0.004619428422302008,0.0,0.0,0.0,-0.0007547889254055917,-0.001055535627529025,-0.0,0.0,0.0,0.0,0.0,0.0,0.0,0.0,0.0,0.0,0.0,0.0,0.0,0.0,0.0,0.0,0.0,0.0,0.0,0.0,0.0,0.0,0.0,1.6386516094207764,0.034440495428991025,-0.020296110794089346,-0.132165963694187,0.004167841747403145,-0.0022925594821572304,0.0,0.0,0.0,0.0
50,11,0.0,0.0,0.0,0.00069032097235322,0.0007691927021369338,0.0016667405143380165,-0.00550534063950181,-0.136080801486969,0.008127358742058277,-0.0021930672228336334,-0.0012925441842526197,-0.0006934815319254994,0.0,0.0,0.0,-0.0009510528179816902,0.0006565643707290292,-0.0,0.0,0.0,0.0,0.0,0.0,0.0,0.0,0.0,0.0,0.0,0.0,0.0,0.0,0.0,0.0,0.0,0.0,0.0,0.0,0.0,0.0,0.0,1.6362639665603638,0.03448150308737817,-0.020798411315568966,-0.13187314780215,-0.0025887037627398968,-0.002884472720324993,0.0,0.0,0.0,0.0
56,6,0.0,0.0,0.0,0.00069032097235322,0.0007691927021369338,0.0016667405143380165,-0.00550534063950181,-0.136080801486969,0.008127358742058277,-0.0021930672228336334,-0.0012925441842526197,-0.0006934815319254994,0.0,0.0,0.0,-0.0009510528179816902,0.0006565643707290292,-0.0,0.0,0.0,0.0,0.0,0.0,0.0,0.0,0.0,0.0,0.0,0.0,0.0,0.0,0.0,0.0,0.0,0.0,0.0,0.0,0.0,0.0,0.0,1.6362639665603638,0.03448150308737817,-0.020798411315568966,-0.13187314780215,-0.0025887037627398968,-0.002884472720324993,0.0,0.0,0.0,0.0
61,5,0.0,0.0,0.0,-0.00033772559254430234,-0.0010518135968595743,-0.0013485057279467583,-0.00550534063950181,-0.136080801486969,0.008127358742058277,-0.0021930672228336334,-0.0012925441842526197,-0.0006934815319254994,0.0,0.0,0.0,-0.0009510528179816902,0.0006565643707290292,-0.0,0.0,0.0,0.0,0.0,0.0,0.0,0.0,0.0,0.0,0.0,0.0,0.0,0.0,0.0,0.0,0.0,0.0,0.0,0.0,0.0,0.0,0.0,1.6362639665603638,0.03447025163786767,-0.02084237832875343,-0.13220007348298404,-0.0025887037627398968,-0.002884472720324993,0.0,0.0,0.0,0.0
66,5,7.293302587640937e-06,-1.4161819308355916e-06,6.7135083554603625e-06,0.0007401061011478305,-0.0002507836034055799,-0.0013450232800096273,-0.00550534063950181,-0.136080801486969,0.008127358742058277,-0.0021930672228336334,-0.0012925441842526197,-0.0006934815319254994,0.0,0.0,0.0,-0.0009510528179816902,0.0006565643707290292,-0.0,0.0,0.0,0.0,0.0,0.0,0.0,0.0,0.0,0.0,0.0,0.0,0.0,0.0,0.0,0.0,0.0,0.0,0.0,0.0,0.0,0.0,0.0,1.6362639665603638,0.03424208852567286,-0.02072522251148266,-0.13226362541588288,-0.0025887037627398968,-0.002884472720324993,0.0,0.0,0.0,0.0
71,5,1.0788785402837675e-05,-1.726803748169914e-05,-1.5552344848401845e-05,0.0007155003258958459,0.001801909296773374,0.002133893081918359,-0.005476752761751413,-0.13613347709178925,0.00814051553606987,0.0020784211810678244,-3.07558111671824e-05,-0.0022616551723331213,0.0,0.0,0.0,0.00030797088402323425,0.0007151734316721559,-0.0,0.0,0.0,0.0,0.0,0.0,0.0,0.0,0.0,0.0,0.0,0.0,0.0,0.0,0.0,0.0,0.0,0.0,0.0,0.0,0.0,0.0,0.0,1.6337964534759521,0.03484453279653261,-0.02092401041515017,-0.1319842044402442,-0.002815536456182599,0.0009326445288024843,0.0,0.0,0.0,0.0
77,6,-1.4229054841052857e-06,-7.321455996134318e-06,-1.2907597920275293e-05,-0.0011792026925832033,-0.0004728261264972389,0.0005361875519156456,-0.005476752761751413,-0.13613347709178925,0.00814051553606987,0.0020784211810678244,-3.07558111671824e-05,-0.0022616551723331213,0.0,0.0,0.0,0.00030797088402323425,0.0007151734316721559,-0.0,0.0,0.0,0.0,0.0,0.0,0.0,0.0,0.0,0.0,0.0,0.0,0.0,0.0,0.0,0.0,0.0,0.0,0.0,0.0,0.0,0.0,0.0,1.6337964534759521,0.034429577736741414,-0.020713395252832393,-0.13209090382019997,-0.002815536456182599,0.0009326445288024843,0.0,0.0,0.0,0.0
82,5,-4.232756964483997e-06,-6.542582013935316e-06,-6.988140739849769e-06,-0.0008088632603175938,-0.00028259531245566905,-0.0004958598292432725,-0.0054774354211986065,-0.13614025712013245,0.00815352238714695,0.0003970049729105085,0.0021223619114607573,0.004291861318051815,0.0,0.0,0.0,0.0005704968352802098,-0.0011218824656680226,-0.0,0.0,0.0,0.0,0.0,0.0,0.0,0.0,0.0,0.0,0.0,0.0,0.0,0.0,0.0,0.0,0.0,0.0,0.0,0.0,0.0,0.0,0.0,1.6386512517929077,0.033762631964023876,-0.020593599300359044,-0.13171674331717165,0.004429815337061882,0.0017327993409708142,0.0,0.0,0.0,0.0
87,5,-8.436537427769508e-06,-2.7323251288180472e-06,-5.678561137756333e-06,-0.0008279990288428962,-0.0005702689522877336,-0.00035549351014196873,-0.0054774354211986065,-0.13614025712013245,0.00815352238714695,0.0003970049729105085,0.0021223619114607573,0.004291861318051815,0.0,0.0,0.0,0.0005704968352802098,-0.0011218824656680226,-0.0,0.0,0.0,0.0,0.0,0.0,0.0,0.0,0.0,0.0,0.0,0.0,0.0,0.0,0.0,0.0,0.0,0.0,0.0,0.0,0.0,0.0,0.0,1.6386512517929077,0.03457954152559027,-0.020554425143783115,-0.13200358598859935,0.004429815337061882,0.0017327993409708142,0.0,0.0,0.0,0.0
92,5,2.1050168470537756e-06,-9.027948181028478e-06,-2.46971412707353e-05,0.0009337869705632329,0.0005273671704344451,0.002140032360330224,-0.005464658141136169,-0.1361205279827118,0.008161867968738079,-0.0005391950835473835,-0.0013853567652404308,0.0009543509222567081,0.0,0.0,0.0,0.000700217264238745,-0.0007993809995241463,-0.0,0.0,0.0,0.0,0.0,0.0,0.0,0.0,0.0,0.0,0.0,0.0,0.0,0.0,0.0,0.0,0.0,0.0,0.0,0.0,0.0,0.0,0.0,1.6360584497451782,0.03450160024441439,-0.020571223017264963,-0.13181409750920403,0.0031514063011854887,0.0021234406158328056,0.0,0.0,0.0,0.0
102,9,2.1050168470537756e-06,-9.027948181028478e-06,-2.46971412707353e-05,0.0009337869705632329,0.0005273671704344451,0.002140032360330224,-0.005480603314936161,-0.13614803552627563,0.008145712316036224,-0.0025294728111475706,0.002617481630295515,0.0011368364794179797,0.0,0.0,0.0,-0.0006682478706352413,0.0008907943847589195,-0.0,0.0,0.0,0.0,0.0,0.0,0.0,0.0,0.0,0.0,0.0,0.0,0.0,0.0,0.0,0.0,0.0,0.0,0.0,0.0,0.0,0.0,0.0,1.6367530822753906,0.03450160024441439,-0.020571223017264963,-0.13181409750920403,-0.003513277042657137,-0.0020273523405194283,0.0,0.0,0.0,0.0
107,5,5.078558388049714e-06,-5.999687346047722e-06,-2.0476256395340897e-05,0.000771367282141,0.0010916952742263675,-5.313284418662079e-05,-0.005480603314936161,-0.13614803552627563,0.008145712316036224,-0.0025294728111475706,0.002617481630295515,0.0011368364794179797,0.0,0.0,0.0,-0.0006682478706352413,0.0008907943847589195,-0.0,0.0,0.0,0.0,0.0,0.0,0.0,0.0,0.0,0.0,0.0,0.0,0.0,0.0,0.0,0.0,0.0,0.0,0.0,0.0,0.0,0.0,0.0,1.6367530822753906,0.03448412853483197,-0.021198038825101607,-0.13182040385727148,-0.003513277042657137,-0.0020273523405194283,0.0,0.0,0.0,0.0
112,5,-6.260486316023162e-06,1.33963396820036e-06,9.908547326631378e-06,-0.0010521385120227933,-0.0004440404300112277,-0.003667429555207491,-0.005502784159034491,-0.13615700602531433,0.008121443912386894,-1.5966557839419693e-05,0.002040996914729476,-0.0053744143806397915,0.0,0.0,0.0,0.0005510207265615463,-0.0010086804395541549,-0.0,0.0,0.0,0.0,0.0,0.0,0.0,0.0,0.0,0.0,0.0,0.0,0.0,0.0,0.0,0.0,0.0,0.0,0.0,0.0,0.0,0.0,0.0,1.6374598741531372,0.03476564563059591,-0.0204324637278973,-0.13221122470774208,0.003979935776442289,0.0016724268207326531,0.0,0.0,0.0,0.0
117,5,4.50739798907307e-06,-5.2910913836967666e-06,-9.825963388720993e-06,0.000871290743816644,0.0006180708878673613,0.0009011694928631186,-0.005502784159034491,-0.13615700602531433,0.008121443912386894,-1.5966557839419693e-05,0.002040996914729476,-0.0053744143806397915,0.0,0.0,0.0,0.0005510207265615463,-0.0010086804395541549,-0.0,0.0,0.0,0.0,0.0,0.0,0.0,0.0,0.0,0.0,0.0,0.0,0.0,0.0,0.0,0.0,0.0,0.0,0.0,0.0,0.0,0.0,0.0,1.6374598741531372,0.03464405205862916,-0.020805668723568406,-0.13206933505453744,0.003979935776442289,0.0016724268207326531,0.0,0.0,0.0,0.0
122,5,2.0212378331052605e-06,1.9947756868532451e-07,2.9568266199930804e-06,5.0177055527456105e-05,-0.0004116399213671684,-0.001173467026092112,-0.005505110137164593,-0.13615618646144867,0.008146008476614952,0.0032084505073726177,-0.002836517756804824,0.004688865505158901,0.0,0.0,0.0,-0.0007736185216344893,0.0008347489638254046,-0.0,0.0,0.0,0.0,0.0,0.0,0.0,0.0,0.0,0.0,0.0,0.0,0.0,0.0,0.0,0.0,0.0,0.0,0.0,0.0,0.0,0.0,0.0,1.636717438697815,0.03413884484131873,-0.02051512615092841,-0.1322470533159623,-0.0032921629026532173,-0.0023469780571758747,0.0,0.0,0.0,0.0
128,5,2.37540848502249e-06,-9.427909390069544e-06,-1.3643273632624187e-05,6.25713073532097e-05,0.0009906303603202105,0.001522625214420259,-0.005505110137164593,-0.13615618646144867,0.008146008476614952,0.0032084505073726177,-0.002836517756804824,0.004688865505158901,0.0,0.0,0.0,-0.0007736185216344893,0.0008347489638254046,-0.0,0.0,0.0,0.0,0.0,0.0,0.0,0.0,0.0,0.0,0.0,0.0,0.0,0.0,0.0,0.0,0.0,0.0,0.0,0.0,0.0,0.0,0.0,1.636717438697815,0.034595720465467404,-0.021133835965407605,-0.13189561725417157,-0.0032921629026532173,-0.0023469780571758747,0.0,0.0,0.0,0.0
133,5,1.2272530511836521e-05,-2.5406900476809824e-06,-8.461308425466996e-06,0.0012126831570640206,-0.0004302141023799777,-1.278578656638274e-05,-0.005506913643330336,-0.13616231083869934,0.008182951249182224,-0.001571268541738391,0.0016258389223366976,0.0006415472598746419,0.0,0.0,0.0,-0.0012421967694535851,6.28458583378233e-05,-0.0,0.0,0.0,0.0,0.0,0.0,0.0,0.0,0.0,0.0,0.0,0.0,0.0,0.0,0.0,0.0,0.0,0.0,0.0,0.0,0.0,0.0,0.0,1.6359909772872925,0.03425412150987879,-0.021235762413510172,-0.13176852696521246,-0.0002477474045008421,-0.0037668615113943815,0.0,0.0,0.0,0.0
138,5,5.357629561331123e-06,-6.628426945098909e-06,-1.4825114703853615e-05,-0.00034471487742848694,0.00031844276236370206,0.0007585424464195967,-0.005506913643330336,-0.13616231083869934,0.008182951249182224,-0.001571268541738391,0.0016258389223366976,0.0006415472598746419,0.0,0.0,0.0,-0.0012421967694535851,6.28458583378233e-05,-0.0,0.0,0.0,0.0,0.0,0.0,0.0,0.0,0.0,0.0,0.0,0.0,0.0,0.0,0.0,0.0,0.0,0.0,0.0,0.0,0.0,0.0,0.0,1.6359909772872925,0.03394069554416593,-0.020658011893700867,-0.13209006810272245,-0.0002477474045008421,-0.0037668615113943815,0.0,0.0,0.0,0.0
143,5,3.50352524947084e-06,-3.825387011602288e-06,-1.2489753316913266e-05,-0.0003603784425649792,-0.00020898767979815602,2.317364123882726e-05,-0.0055073280818760395,-0.1361614614725113,0.008194559253752232,0.000702525139786303,0.00013269729970488697,-0.0004582768597174436,0.0,0.0,0.0,0.0002523891453165561,-0.0003391717909835279,-0.0,0.0,0.0,0.0,0.0,0.0,0.0,0.0,0.0,0.0,0.0,0.0,0.0,0.0,0.0,0.0,0.0,0.0,0.0,0.0,0.0,0.0,0.0,1.6299126148223877,0.03430422302449719,-0.020512401797261475,-0.132149442961965,0.0013320972211658955,0.0007625065045431256,0.0,0.0,0.0,0.0
148,5,-1.4649863260274287e-06,-8.458890079054981e-06,-1.1343184269207995e-05,-0.0007403727504424751,0.0004724253376480192,-0.0001283188903471455,-0.0055073280818760395,-0.1361614614725113,0.008194559253752232,0.000702525139786303,0.00013269729970488697,-0.0004582768597174436,0.0,0.0,0.0,0.0002523891453165561,-0.0003391717909835279,-0.0,0.0,0.0,0.0,0.0,0.0,0.0,0.0,0.0,0.0,0.0,0.0,0.0,0.0,0.0,0.0,0.0,0.0,0.0,0.0,0.0,0.0,0.0,1.6299126148223877,0.0343625242101571,-0.02001921234834392,-0.1322756564402056,0.0013320972211658955,0.0007625065045431256,0.0,0.0,0.0,0.0
153,5,-4.503701802605065e-06,-2.7866801701748045e-06,-1.4408310562430415e-05,-0.0006607949617318809,-0.000491695071104914,0.0003164876834489405,-0.0055073280818760395,-0.1361614614725113,0.008194559253752232,0.000702525139786303,0.00013269729970488697,-0.0004582768597174436,0.0,0.0,0.0,0.0002523891453165561,-0.0003391717909835279,-0.0,0.0,0.0,0.0,0.0,0.0,0.0,0.0,0.0,0.0,0.0,0.0,0.0,0.0,0.0,0.0,0.0,0.0,0.0,0.0,0.0,0.0,0.0,1.6299126148223877,0.03422340136155272,-0.020335354856406192,-0.13223028673283677,0.0025027147494256496,0.0018283623503521085,0.0,0.0,0.0,0.0
158,5,-9.244805454500238e-08,-4.024432200822048e-06,-2.5317611289210618e-05,0.00026503248955123127,-4.8147816414712e-05,0.0014357110485434532,-0.0054876478388905525,-0.13615119457244873,0.008193917572498322,-0.003437143750488758,0.0010736165568232536,0.0008571186335757375,0.0,0.0,0.0,0.0006036143749952316,-0.0006355728837661445,-0.0,0.0,0.0,0.0,0.0,0.0,0.0,0.0,0.0,0.0,0.0,0.0,0.0,0.0,0.0,0.0,0.0,0.0,0.0,0.0,0.0,0.0,0.0,1.6341584920883179,0.034325568246148644,-0.02055829847158695,-0.13172448421570607,0.0025027147494256496,0.0018283623503521085,0.0,0.0,0.0,0.0
163,5,5.168544248590479e-06,-9.906130799208768e-06,-2.4554594347137026e-05,0.0007373320404440165,0.0006865446921437979,0.0004827223892789334,-0.0054876478388905525,-0.13615119457244873,0.008193917572498322,-0.003437143750488758,0.0010736165568232536,0.0008571186335757375,0.0,0.0,0.0,0.0006036143749952316,-0.0006355728837661445,-0.0,0.0,0.0,0.0,0.0,0.0,0.0,0.0,0.0,0.0,0.0,0.0,0.0,0.0,0.0,0.0,0.0,0.0,0.0,0.0,0.0,0.0,0.0,1.6341584920883179,0.03428673274231762,-0.020628932172927675,-0.13199254370973632,0.0025027147494256496,0.0018283623503521085,0.0,0.0,0.0,0.0
168,5,-1.7688654452285846e-06,-6.387959956555278e-07,-9.857275472313631e-06,-0.0005375563050620258,-0.000837462255731225,-0.0015705892583355308,-0.00550293130800128,-0.1361641138792038,0.00819570105522871,-0.003424624679610133,-0.00031121642678044736,-0.0033443274442106485,0.0,0.0,0.0,-0.0008669518865644932,0.0007085467805154622,-0.0,0.0,0.0,0.0,0.0,0.0,0.0,0.0,0.0,0.0,0.0,0.0,0.0,0.0,0.0,0.0,0.0,0.0,0.0,0.0,0.0,0.0,0.0,1.6361565589904785,0.03389575769505775,-0.020711520199036475,-0.13201098957025087,-0.002793476916849613,-0.00262922840192914,0.0,0.0,0.0,0.0
173,5,-3.0816377147857565e-06,-9.382449206896126e-06,-3.01455315820931e-07,-0.000372555194189772,0.0007142535177990794,-0.0017749341204762459,-0.00550293130800128,-0.1361641138792038,0.00819570105522871,-0.003424624679610133,-0.00031121642678044736,-0.0033443274442106485,0.0,0.0,0.0,-0.0008669518865644932,0.0007085467805154622,-0.0,0.0,0.0,0.0,0.0,0.0,0.0,0.0,0.0,0.0,0.0,0.0,0.0,0.0,0.0,0.0,0.0,0.0,0.0,0.0,0.0,0.0,0.0,1.6361565589904785,0.03399749021712402,-0.020667522198287953,-0.13205457170324694,-0.002793476916849613,-0.00262922840192914,0.0,0.0,0.0,0.0
178,5,9.22507570066955e-06,-8.860302841640078e-06,-4.879238531430019e-06,0.0013277834514155984,0.00022304378217086196,-0.00016063966904766858,-0.00550293130800128,-0.1361641138792038,0.00819570105522871,-0.003424624679610133,-0.00031121642678044736,-0.0033443274442106485,0.0,0.0,0.0,-0.0009014129173010588,-0.00035910154110752046,-0.0,0.0,0.0,0.0,0.0,0.0,0.0,0.0,0.0,0.0,0.0,0.0,0.0,0.0,0.0,0.0,0.0,0.0,0.0,0.0,0.0,0.0,0.0,1.6340916156768799,0.03437560373391462,-0.020657969171034837,-0.13172624899466687,0.0014139869017526507,-0.0027302890084683895,0.0,0.0,0.0,0.0
183,5,7.911974535090849e-06,-2.0240267986082472e-05,-3.3348521810694365e-06,0.00037354123196564615,0.0014548132894560695,-0.0002495822263881564,-0.005511293653398752,-0.13613425195217133,0.008175232447683811,0.004480237606912851,-0.0027343740221112967,0.009017322212457657,0.0,0.0,0.0,-0.0009014129173010588,-0.00035910154110752046,-0.0,0.0,0.0,0.0,0.0,0.0,0.0,0.0,0.0,0.0,0.0,0.0,0.0,0.0,0.0,0.0,0.0,0.0,0.0,0.0,0.0,0.0,0.0,1.6340916156768799,0.034628361414852364,-0.02079981394901493,-0.13243075660865572,0.0014139869017526507,-0.0027302890084683895,0.0,0.0,0.0,0.0
189,5,2.734447207330959e-06,-2.0022966054966673e-05,-1.771371353243012e-05,-0.0004718867421615869,0.0005558491684496403,0.0016256305389106274,-0.005511293653398752,-0.13613425195217133,0.008175232447683811,0.004480237606912851,-0.0027343740221112967,0.009017322212457657,0.0,0.0,0.0,-0.0018298964714631438,0.0003651960287243128,-0.0,0.0,0.0,0.0,0.0,0.0,0.0,0.0,0.0,0.0,0.0,0.0,0.0,0.0,0.0,0.0,0.0,0.0,0.0,0.0,0.0,0.0,0.0,1.641347050666809,0.034478536554547544,-0.020824564331433187,-0.13227052310521917,-0.0014443672262132168,-0.005567177198827267,0.0,0.0,0.0,0.0
194,5,7.311354693229077e-06,-5.931784016866004e-06,-3.4014152333838865e-05,0.00036047419416718185,-0.0014686022186651826,0.002606304595246911,-0.0055168382823467255,-0.13610154390335083,0.007960570976138115,-0.0011961024720221758,-0.007374477572739124,-0.09324518591165543,0.0,0.0,0.0,-0.0018298964714631438,0.0003651960287243128,-0.0,0.0,0.0,0.0,0.0,0.0,0.0,0.0,0.0,0.0,0.0,0.0,0.0,0.0,0.0,0.0,0.0,0.0,0.0,0.0,0.0,0.0,0.0,1.641347050666809,0.034549086107270845,-0.02126798160050086,-0.131094659285751,-0.0014443672262132168,-0.005567177198827267,0.0,0.0,0.0,0.0
199,5,3.2184623250941513e-06,3.062070391024463e-06,-1.4413588360184804e-05,-0.0003469573857728392,-0.0016667033778503537,-0.001309545710682869,-0.0055168382823467255,-0.13610154390335083,0.007960570976138115,-0.0011961024720221758,-0.007374477572739124,-0.09324518591165543,0.0,0.0,0.0,0.0017996763344854116,0.00035203745937906206,-0.0,0.0,0.0,0.0,0.0,0.0,0.0,0.0,0.0,0.0,0.0,0.0,0.0,0.0,0.0,0.0,0.0,0.0,0.0,0.0,0.0,0.0,0.0,1.6410682201385498,0.03471978929500444,-0.020736564110984113,-0.131592127613727,-0.001392088015563786,0.005474307108670473,0.0,0.0,0.0,0.0
204,5,3.555793171017285e-07,-3.258324068156071e-05,-6.036916238372214e-05,-0.0004823289345949888,0.003610756015405059,0.004990850575268269,-0.005516642704606056,-0.13605095446109772,0.008264892734587193,0.017093462869524956,0.006923047825694084,0.19398942589759827,0.0,0.0,0.0,0.0017996763344854116,0.00035203745937906206,-0.0,0.0,0.0,0.0,0.0,0.0,0.0,0.0,0.0,0.0,0.0,0.0,0.0,0.0,0.0,0.0,0.0,0.0,0.0,0.0,0.0,0.0,0.0,1.6410682201385498,0.03457698416600463,-0.02115527479592335,-0.1327176772363931,-0.001392088015563786,0.005474307108670473,0.0,0.0,0.0,0.0
209,5,-9.666122423368506e-06,-1.238414597537485e-06,-4.1149516619043425e-05,-0.0013955357717350125,-0.0023170767817646265,-0.00031001746538095176,-0.005516642704606056,-0.13605095446109772,0.008264892734587193,0.017093462869524956,0.006923047825694084,0.19398942589759827,0.0,0.0,0.0,-0.004450454842299223,-0.00045080651761963964,-0.0,0.0,0.0,0.0,0.0,0.0,0.0,0.0,0.0,0.0,0.0,0.0,0.0,0.0,0.0,0.0,0.0,0.0,0.0,0.0,0.0,0.0,0.0,1.6631953716278076,0.03418267772656265,-0.021478068924303793,-0.13174758265017672,0.001806679181754589,-0.013719983398914337,0.0,0.0,0.0,0.0
215,6,-7.641355296073016e-06,1.2777034498867579e-05,-5.270372275845148e-05,-0.0003152421850245446,-0.002608684590086341,0.0012624980881810188,-0.00542247761040926,-0.1359700709581375,0.0072193630039691925,-0.004671038594096899,-0.01817932166159153,-0.18942978978157043,0.0,0.0,0.0,-0.004450454842299223,-0.00045080651761963964,-0.0,0.0,0.0,0.0,0.0,0.0,0.0,0.0,0.0,0.0,0.0,0.0,0.0,0.0,0.0,0.0,0.0,0.0,0.0,0.0,0.0,0.0,0.0,1.6631953716278076,0.03454140096343601,-0.02089145933819427,-0.13136139558129387,0.001806679181754589,-0.013719983398914337,0.0,0.0,0.0,0.0
220,5,-1.5495181287406012e-05,-1.216170312545728e-05,-3.3345546398777515e-05,-0.0010685559827834368,0.0019491746788844466,-0.0018179822945967317,-0.00542247761040926,-0.1359700709581375,0.0072193630039691925,-0.004671038594096899,-0.01817932166159153,-0.18942978978157043,0.0,0.0,0.0,0.0032163059804588556,-0.0003073920961469412,-0.0,0.0,0.0,0.0,0.0,0.0,0.0,0.0,0.0,0.0,0.0,0.0,0.0,0.0,0.0,0.0,0.0,0.0,0.0,0.0,0.0,0.0,0.0,1.6526446342468262,0.034553036186129704,-0.021416758766873847,-0.13201461904507708,0.0012241138610988855,0.009852444753050804,0.0,0.0,0.0,0.0
225,5,-3.296535578556359e-05,-1.098094890039647e-05,-8.27421558824426e-07,-0.0025238434318453074,0.00063797936309129,-0.004629367496818304,-0.005431761033833027,-0.13600151240825653,0.008829604834318161,-0.008399047888815403,0.020207444205880165,0.046006929129362106,0.0,0.0,0.0,0.0032163059804588556,-0.0003073920961469412,-0.0,0.0,0.0,0.0,0.0,0.0,0.0,0.0,0.0,0.0,0.0,0.0,0.0,0.0,0.0,0.0,0.0,0.0,0.0,0.0,0.0,0.0,0.0,1.6526446342468262,0.034509427639923915,-0.02115961000939824,-0.13257486148874575,0.0012241138610988855,0.009852444753050804,0.0,0.0,0.0,0.0
230,5,-2.7416253942647018e-05,-9.901206794893369e-06,2.106554529746063e-05,-0.0003436450206208974,0.00012562272604554892,-0.004478903021663427,-0.005382202565670013,-0.13545353710651398,0.0074078054167330265,0.036359451711177826,-0.09354520589113235,0.011634306982159615,0.0,0.0,0.0,-0.0008008250151760876,-0.0024220843333750963,-0.0,0.0,0.0,0.0,0.0,0.0,0.0,0.0,0.0,0.0,0.0,0.0,0.0,0.0,0.0,0.0,0.0,0.0,0.0,0.0,0.0,0.0,0.0,1.6527079343795776,0.03453779122650666,-0.021678227157837404,-0.13180487596033127,0.009645765647292137,-0.0024532522074878216,0.0,0.0,0.0,0.0
235,5,-1.4114972145762295e-05,-3.1769312045071274e-05,1.1352797628205735e-05,0.0014586958568543196,0.002674421761184931,-0.0006260315421968699,-0.005382202565670013,-0.13545353710651398,0.0074078054167330265,0.036359451711177826,-0.09354520589113235,0.011634306982159615,0.0,0.0,0.0,-0.0008008250151760876,-0.0024220843333750963,-0.0,0.0,0.0,0.0,0.0,0.0,0.0,0.0,0.0,0.0,0.0,0.0,0.0,0.0,0.0,0.0,0.0,0.0,0.0,0.0,0.0,0.0,0.0,1.6527079343795776,0.034792418276227643,-0.021906371587222858,-0.13253110794808942,0.009645765647292137,-0.0024532522074878216,0.0,0.0,0.0,0.0
240,5,-8.310707926284522e-06,-1.9943909137509763e-05,4.5120938011677936e-05,0.001279990072362125,-0.00034927978413179517,-0.004302589688450098,-0.005382202565670013,-0.13545353710651398,0.0074078054167330265,0.036359451711177826,-0.09354520589113235,0.011634306982159615,0.0,0.0,0.0,-0.0033224322833120823,0.0013505448587238789,-0.0,0.0,0.0,0.0,0.0,0.0,0.0,0.0,0.0,0.0,0.0,0.0,0.0,0.0,0.0,0.0,0.0,0.0,0.0,0.0,0.0,0.0,0.0,1.6569998264312744,0.034798342474789426,-0.022823219978277583,-0.13271773816847446,-0.005392384249716997,-0.010204358026385307,0.0,0.0,0.0,0.0
246,5,-3.7794736272189766e-05,-1.5447247278643772e-05,9.463793685426936e-05,-0.0030260873027145863,-0.0006793113425374031,-0.007663075812160969,-0.004871025215834379,-0.13486619293689728,0.008233563043177128,0.02258523739874363,-0.08349351584911346,-0.09925874322652817,0.0,0.0,0.0,-0.0033224322833120823,0.0013505448587238789,-0.0,0.0,0.0,0.0,0.0,0.0,0.0,0.0,0.0,0.0,0.0,0.0,0.0,0.0,0.0,0.0,0.0,0.0,0.0,0.0,0.0,0.0,0.0,1.6569998264312744,0.03472883007093005,-0.023536700878009523,-0.1327064857653806,-0.005392384249716997,-0.010204358026385307,0.0,0.0,0.0,0.0
251,5,-9.819020488066599e-05,-5.8745725254993886e-05,0.0001383209746563807,-0.008457891643047333,0.004924092907458544,-0.008307194337248802,-0.004769050981849432,-0.13327285647392273,0.007749626412987709,0.03274131566286087,-0.1901446133852005,0.11174649000167847,0.0,0.0,0.0,-0.0058729443699121475,-0.00775610888376832,-0.0,0.0,0.0,0.0,0.0,0.0,0.0,0.0,0.0,0.0,0.0,0.0,0.0,0.0,0.0,0.0,0.0,0.0,0.0,0.0,0.0,0.0,0.0,1.7260164022445679,0.03556352792515976,-0.02468871594246445,-0.13312614743068876,0.03225736320018768,-0.018789049237966537,0.0,0.0,0.0,0.0
256,5,-0.00014427707355935127,-8.855428313836455e-05,0.00020952503837179393,-0.008913581259548664,0.005546663887798786,-0.01186736486852169,-0.004769050981849432,-0.13327285647392273,0.007749626412987709,0.03274131566286087,-0.1901446133852005,0.11174649000167847,0.0,0.0,0.0,-0.0058729443699121475,-0.00775610888376832,-0.0,0.0,0.0,0.0,0.0,0.0,0.0,0.0,0.0,0.0,0.0,0.0,0.0,0.0,0.0,0.0,0.0,0.0,0.0,0.0,0.0,0.0,0.0,1.7260164022445679,0.03565450560882762,-0.027325836159115633,-0.1334203333615519,0.03225736320018768,-0.018789049237966537,0.0,0.0,0.0,0.0
261,5,-0.0001843659847509116,-8.241169416578487e-05,0.00031107364338822663,-0.008376101963222027,0.0014815549366176128,-0.01693277806043625,-0.0042667631059885025,-0.13124167919158936,0.0072888596914708614,0.07069437950849533,-0.4376106560230255,-0.1279395967721939,0.0,0.0,0.0,-0.0018912262748926878,-0.007849015295505524,-0.0,0.0,0.0,0.0,0.0,0.0,0.0,0.0,0.0,0.0,0.0,0.0,0.0,0.0,0.0,0.0,0.0,0.0,0.0,0.0,0.0,0.0,0.0,1.7144376039505005,0.035526993775277,-0.029491318287874598,-0.13374558918406512,0.03242526575922966,-0.006009983364492655,0.0,0.0,0.0,0.0
266,5,-0.00024585361825302243,-6.480986485257745e-05,0.00041709805373102427,-0.010728957131505013,-0.001519597601145506,-0.019496040418744087,-0.0042667631059885025,-0.13124167919158936,0.0072888596914708614,0.07069437950849533,-0.4376106560230255,-0.1279395967721939,0.0,0.0,0.0,-0.0018912262748926878,-0.007849015295505524,-0.0,0.0,0.0,0.0,0.0,0.0,0.0,0.0,0.0,0.0,0.0,0.0,0.0,0.0,0.0,0.0,0.0,0.0,0.0,0.0,0.0,0.0,0.0,1.7144376039505005,0.036480532918353535,-0.03342807220303969,-0.13334342322534715,0.03242526575922966,-0.006009983364492655,0.0,0.0,0.0,0.0
271,5,-0.00044841394992545247,-6.729445158271119e-05,0.0007403530762530863,-0.02006720006465912,-0.0006165545783005655,-0.03167228400707245,-0.0042667631059885025,-0.13124167919158936,0.0072888596914708614,0.07069437950849533,-0.4376106560230255,-0.1279395967721939,0.0,0.0,0.0,-0.0018912262748926878,-0.007849015295505524,-0.0,0.0,0.0,0.0,0.0,0.0,0.0,0.0,0.0,0.0,0.0,0.0,0.0,0.0,0.0,0.0,0.0,0.0,0.0,0.0,0.0,0.0,0.0,1.7144376039505005,0.035227214316215893,-0.04641896159830478,-0.13372099709359878,0.03242526575922966,-0.006009983364492655,0.0,0.0,0.0,0.0
276,5,-0.00044841394992545247,-6.729445158271119e-05,0.0007403530762530863,-0.02006720006465912,-0.0006165545783005655,-0.03167228400707245,-0.0034761778078973293,-0.12382158637046814,0.007618066854774952,0.05782509967684746,-0.8835331797599792,0.07538589835166931,0.0,0.0,0.0,0.0005716006271541119,-0.017608389258384705,-0.0,0.0,0.0,0.0,0.0,0.0,0.0,0.0,0.0,0.0,0.0,0.0,0.0,0.0,0.0,0.0,0.0,0.0,0.0,0.0,0.0,0.0,0.0,1.8318411111831665,0.035227214316215893,-0.04641896159830478,-0.13372099709359878,0.07772071659564972,0.001940836664289236,0.0,0.0,0.0,0.0
281,5,-0.0006039571017026901,-1.866501224867534e-05,0.0009666344267316163,-0.02669205702841282,-0.006082154810428619,-0.03982267901301384,-0.0034761778078973293,-0.12382158637046814,0.007618066854774952,0.05782509967684746,-0.8835331797599792,0.07538589835166931,0.0,0.0,0.0,0.0005716006271541119,-0.017608389258384705,-0.0,0.0,0.0,0.0,0.0,0.0,0.0,0.0,0.0,0.0,0.0,0.0,0.0,0.0,0.0,0.0,0.0,0.0,0.0,0.0,0.0,0.0,0.0,1.8318411111831665,0.035323396939742666,-0.054429340662914424,-0.1331187910622612,0.10342153161764145,0.0227042343467474,0.0,0.0,0.0,0.0
286,5,-0.0010395845165476203,1.2708336726063862e-05,0.0015189333353191614,-0.04263683781027794,-0.0033685218077152967,-0.05475396662950516,-0.002948848297819495,-0.11456800252199173,0.006770205218344927,0.02665555290877819,-1.513963222503662,-0.07616673409938812,0.0,0.0,0.0,0.006433769594877958,-0.02254584990441799,-0.0,0.0,0.0,0.0,0.0,0.0,0.0,0.0,0.0,0.0,0.0,0.0,0.0,0.0,0.0,0.0,0.0,0.0,0.0,0.0,0.0,0.0,0.0,1.903874158859253,0.03233587541048504,-0.07467132522006541,-0.13326341537291123,0.10342153161764145,0.0227042343467474,0.0,0.0,0.0,0.0
291,5,-0.0010395845165476203,1.2708336726063862e-05,0.0015189333353191614,-0.04263683781027794,-0.0033685218077152967,-0.05475396662950516,-0.002948848297819495,-0.11456800252199173,0.006770205218344927,0.02665555290877819,-1.513963222503662,-0.07616673409938812,0.0,0.0,0.0,0.006433769594877958,-0.02254584990441799,-0.0,0.0,0.0,0.0,0.0,0.0,0.0,0.0,0.0,0.0,0.0,0.0,0.0,0.0,0.0,0.0,0.0,0.0,0.0,0.0,0.0,0.0,0.0,1.903874158859253,0.03233587541048504,-0.07467132522006541,-0.13326341537291123,0.10342153161764145,0.0227042343467474,0.0,0.0,0.0,0.0
297,5,-0.0015639042248949409,0.000157788279466331,0.0021553870756179094,-0.05020378530025482,-0.013133439235389233,-0.06151789799332619,-0.0029314407147467136,-0.09366946667432785,0.007255244068801403,-0.042270172387361526,-2.1087963581085205,-0.06157681345939636,0.0,0.0,0.0,0.003337051020935178,-0.03347887471318245,-0.0,0.0,0.0,0.0,0.0,0.0,0.0,0.0,0.0,0.0,0.0,0.0,0.0,0.0,0.0,0.0,0.0,0.0,0.0,0.0,0.0,0.0,0.0,2.053326368331909,0.027086420170897296,-0.10069350803586335,-0.13263646693333023,0.165614053606987,0.012700708582997322,0.0,0.0,0.0,0.0
302,5,-0.0015639042248949409,0.000157788279466331,0.0021553870756179094,-0.05020378530025482,-0.013133439235389233,-0.06151789799332619,-0.0029314407147467136,-0.09366946667432785,0.007255244068801403,-0.042270172387361526,-2.1087963581085205,-0.06157681345939636,0.0,0.0,0.0,0.003337051020935178,-0.03347887471318245,-0.0,0.0,0.0,0.0,0.0,0.0,0.0,0.0,0.0,0.0,0.0,0.0,0.0,0.0,0.0,0.0,0.0,0.0,0.0,0.0,0.0,0.0,0.0,2.053326368331909,0.027086420170897296,-0.10069350803586335,-0.13263646693333023,0.165614053606987,0.012700708582997322,0.0,0.0,0.0,0.0
307,5,-0.0021967526990920305,0.00026438970235176384,0.0027889451012015343,-0.06298941373825073,-0.011170112527906895,-0.06526149064302444,-0.003607161110267043,-0.07446325570344925,0.005896361544728279,-0.07830838114023209,-2.711040496826172,-0.0047971997410058975,0.0,0.0,0.0,0.012622369453310966,-0.03815276548266411,-0.0,0.0,0.0,0.0,0.0,0.0,0.0,0.0,0.0,0.0,0.0,0.0,0.0,0.0,0.0,0.0,0.0,0.0,0.0,0.0,0.0,0.0,0.0,2.1422104835510254,0.023325740171163074,-0.13323011148561573,-0.13234259167333923,0.1968793272972107,0.05011764168739319,0.0,0.0,0.0,0.0
312,5,-0.0021967526990920305,0.00026438970235176384,0.0027889451012015343,-0.06298941373825073,-0.011170112527906895,-0.06526149064302444,-0.003607161110267043,-0.07446325570344925,0.005896361544728279,-0.07830838114023209,-2.711040496826172,-0.0047971997410058975,0.0,0.0,0.0,0.012622369453310966,-0.03815276548266411,-0.0,0.0,0.0,0.0,0.0,0.0,0.0,0.0,0.0,0.0,0.0,0.0,0.0,0.0,0.0,0.0,0.0,0.0,0.0,0.0,0.0,0.0,0.0,2.1422104835510254,0.023325740171163074,-0.13323011148561573,-0.13234259167333923,0.1968793272972107,0.05011764168739319,0.0,0.0,0.0,0.0
317,5,-0.00312700099311769,0.0004372982366476208,0.0031231020111590624,-0.10174041241407394,-0.01828530617058277,-0.033559512346982956,-0.004649412352591753,-0.03993789851665497,0.005927763879299164,-0.0815485343337059,-3.125037908554077,-0.11925815045833588,0.0,0.0,0.0,0.010366571135818958,-0.045702509582042694,-0.0,0.0,0.0,0.0,0.0,0.0,0.0,0.0,0.0,0.0,0.0,0.0,0.0,0.0,0.0,0.0,0.0,0.0,0.0,0.0,0.0,0.0,0.0,2.2557108402252197,0.022776577883814424,-0.17963580873202176,-0.13752455074510472,0.2483137995004654,0.04334240034222603,0.0,0.0,0.0,0.0
322,5,-0.003506740555167198,0.0005034842761233449,0.003405200084671378,-0.08626490831375122,-0.015256449580192566,-0.04727557301521301,-0.004649412352591753,-0.03993789851665497,0.005927763879299164,-0.0815485343337059,-3.125037908554077,-0.11925815045833588,0.0,0.0,0.0,0.010366571135818958,-0.045702509582042694,-0.0,0.0,0.0,0.0,0.0,0.0,0.0,0.0,0.0,0.0,0.0,0.0,0.0,0.0,0.0,0.0,0.0,0.0,0.0,0.0,0.0,0.0,0.0,2.2557108402252197,0.019515393560455976,-0.19627942363169296,-0.13703921895389023,0.2483137995004654,0.04334240034222603,0.0,0.0,0.0,0.0
327,5,-0.003863500664010644,0.0005666298093274236,0.003702431218698621,-0.07731719315052032,-0.013680042698979378,-0.054577965289354324,-0.005320022348314524,-0.01411254983395338,0.005284096579998732,-0.08116034418344498,-3.347585678100586,0.003989517688751221,0.0,0.0,0.0,0.013122581876814365,-0.05772484838962555,-0.0,0.0,0.0,0.0,0.0,0.0,0.0,0.0,0.0,0.0,0.0,0.0,0.0,0.0,0.0,0.0,0.0,0.0,0.0,0.0,0.0,0.0,0.0,2.466167688369751,0.017120714050282707,-0.2118877910391415,-0.1373032757646007,0.3428141176700592,0.059982944279909134,0.0,0.0,0.0,0.0
332,5,-0.0042121498845517635,0.0006377811660058796,0.003983279224485159,-0.0727647915482521,-0.014010182581841946,-0.055532924830913544,-0.005320022348314524,-0.01411254983395338,0.005284096579998732,-0.08116034418344498,-3.347585678100586,0.003989517688751221,0.0,0.0,0.0,0.013122581876814365,-0.05772484838962555,-0.0,0.0,0.0,0.0,0.0,0.0,0.0,0.0,0.0,0.0,0.0,0.0,0.0,0.0,0.0,0.0,0.0,0.0,0.0,0.0,0.0,0.0,0.0,2.466167688369751,0.015320572966614364,-0.22631393266672023,-0.13685760290251997,0.3428141176700592,0.059982944279909134,0.0,0.0,0.0,0.0
337,5,-0.004526073578745127,0.0007120578666217625,0.004192458465695381,-0.06677673757076263,-0.01451727095991373,-0.04731470346450806,-0.006387393921613693,0.02563684992492199,0.005051726475358009,-0.1039862111210823,-3.297999382019043,-0.12142465263605118,0.0,0.0,0.0,0.01278225053101778,-0.051964785903692245,-0.0,0.0,0.0,0.0,0.0,0.0,0.0,0.0,0.0,0.0,0.0,0.0,0.0,0.0,0.0,0.0,0.0,0.0,0.0,0.0,0.0,0.0,0.0,2.365830421447754,0.01378797209940316,-0.23934710657177705,-0.13640695520459187,0.29608315229415894,0.05605030804872513,0.0,0.0,0.0,0.0
342,5,-0.004867736250162125,0.0007792761898599565,0.004422224126756191,-0.06771020591259003,-0.01387310866266489,-0.04649772867560387,-0.006387393921613693,0.02563684992492199,0.005051726475358009,-0.1039862111210823,-3.297999382019043,-0.12142465263605118,0.0,0.0,0.0,0.01278225053101778,-0.051964785903692245,-0.0,0.0,0.0,0.0,0.0,0.0,0.0,0.0,0.0,0.0,0.0,0.0,0.0,0.0,0.0,0.0,0.0,0.0,0.0,0.0,0.0,0.0,0.0,2.365830421447754,0.010254297723279578,-0.25124637861350946,-0.13718438338004865,0.29608315229415894,0.05605030804872513,0.0,0.0,0.0,0.0
348,5,-0.0051367394626140594,0.0008485043072141707,0.004607659764587879,-0.059364475309848785,-0.013856618665158749,-0.04085136577486992,-0.00738835334777832,0.050593193620443344,0.004918629303574562,-0.13406559824943542,-2.8930532932281494,0.028257008641958237,0.0,0.0,0.0,0.013025116175413132,-0.04997052252292633,-0.0,0.0,0.0,0.0,0.0,0.0,0.0,0.0,0.0,0.0,0.0,0.0,0.0,0.0,0.0,0.0,0.0,0.0,0.0,0.0,0.0,0.0,0.0,2.332778215408325,0.007477749858631423,-0.26031336730425164,-0.1374470805648633,0.28075122833251953,0.05631723254919052,0.0,0.0,0.0,0.0
353,5,-0.005372227635234594,0.00091811508173123,0.004762290045619011,-0.0520043671131134,-0.013895939104259014,-0.034896187484264374,-0.00738835334777832,0.050593193620443344,0.004918629303574562,-0.13406559824943542,-2.8930532932281494,0.028257008641958237,0.0,0.0,0.0,0.013961764052510262,-0.04221620410680771,-0.0,0.0,0.0,0.0,0.0,0.0,0.0,0.0,0.0,0.0,0.0,0.0,0.0,0.0,0.0,0.0,0.0,0.0,0.0,0.0,0.0,0.0,0.0,2.209238052368164,0.004587852312123973,-0.26777770944245194,-0.13761915955378037,0.22464783489704132,0.05716967210173607,0.0,0.0,0.0,0.0
358,5,-0.005555612035095692,0.0009574820287525654,0.004873805213719606,-0.04280789569020271,-0.010282410308718681,-0.027340339496731758,-0.009217594750225544,0.08175782114267349,0.004751141183078289,-0.16527286171913147,-2.2119638919830322,-0.07504558563232422,0.0,0.0,0.0,0.013961764052510262,-0.04221620410680771,-0.0,0.0,0.0,0.0,0.0,0.0,0.0,0.0,0.0,0.0,0.0,0.0,0.0,0.0,0.0,0.0,0.0,0.0,0.0,0.0,0.0,0.0,0.0,2.209238052368164,0.0023178759355524502,-0.27195181727440454,-0.13771706076249793,0.22464783489704132,0.05716967210173607,0.0,0.0,0.0,0.0
363,5,-0.005696104373782873,0.0009861206635832787,0.004942163359373808,-0.03398219868540764,-0.007549598813056946,-0.01913909986615181,-0.009217594750225544,0.08175782114267349,0.004751141183078289,-0.16527286171913147,-2.2119638919830322,-0.07504558563232422,0.0,0.0,0.0,0.008906213566660881,-0.03225594758987427,-0.0,0.0,0.0,0.0,0.0,0.0,0.0,0.0,0.0,0.0,0.0,0.0,0.0,0.0,0.0,0.0,0.0,0.0,0.0,0.0,0.0,0.0,0.0,2.0443804264068604,0.0017332667940803425,-0.27455439772857027,-0.137931859494431,0.15886597335338593,0.033748380839824677,0.0,0.0,0.0,0.0
368,5,-0.005801025778055191,0.00101178209297359,0.004971407353878021,-0.026183487847447395,-0.006099214777350426,-0.011164912022650242,-0.012257521040737629,0.10828455537557602,0.004623899701982737,-0.17714273929595947,-0.39336854219436646,-0.02431158535182476,0.0,0.0,0.0,0.008906213566660881,-0.03225594758987427,-0.0,0.0,0.0,0.0,0.0,0.0,0.0,0.0,0.0,0.0,0.0,0.0,0.0,0.0,0.0,0.0,0.0,0.0,0.0,0.0,0.0,0.0,0.0,2.0443804264068604,0.001936495000448307,-0.2756317969904024,-0.13742961472105605,0.15886597335338593,0.033748380839824677,0.0,0.0,0.0,0.0
373,5,-0.00586039898917079,0.0010568763827905059,0.004947814159095287,-0.017598150297999382,-0.007850997149944305,-0.0016347505152225494,-0.012257521040737629,0.10828455537557602,0.004623899701982737,-0.17714273929595947,-0.39336854219436646,-0.02431158535182476,0.0,0.0,0.0,0.010013733059167862,-0.021480530500411987,-0.0,0.0,0.0,0.0,0.0,0.0,0.0,0.0,0.0,0.0,0.0,0.0,0.0,0.0,0.0,0.0,0.0,0.0,0.0,0.0,0.0,0.0,0.0,1.9003441333770752,0.00043831293198934887,-0.27404329235777236,-0.13770635950591023,0.0983499139547348,0.035271476954221725,0.0,0.0,0.0,0.0
378,5,-0.005835055373609066,0.001083199866116047,0.004851361736655235,-0.00399802764877677,-0.006299221888184547,0.010920384898781776,-0.013730920851230621,0.10802607238292694,0.004590508993715048,-0.17722077667713165,0.6226075887680054,0.0142391137778759,0.0,0.0,0.0,0.010013733059167862,-0.021480530500411987,-0.0,0.0,0.0,0.0,0.0,0.0,0.0,0.0,0.0,0.0,0.0,0.0,0.0,0.0,0.0,0.0,0.0,0.0,0.0,0.0,0.0,0.0,0.0,1.9003441333770752,0.00014694276434595055,-0.2692160889685531,-0.1374197764742964,0.0983499139547348,0.035271476954221725,0.0,0.0,0.0,0.0
383,5,-0.005754423793405294,0.0010894942097365856,0.004709591623395681,0.008076578378677368,-0.003275008173659444,0.021380526944994926,-0.013730920851230621,0.10802607238292694,0.004590508993715048,-0.17722077667713165,0.6226075887680054,0.0142391137778759,0.0,0.0,0.0,0.005891353357583284,-0.00037329367478378117,-0.0,0.0,0.0,0.0,0.0,0.0,0.0,0.0,0.0,0.0,0.0,0.0,0.0,0.0,0.0,0.0,0.0,0.0,0.0,0.0,0.0,0.0,0.0,1.6753555536270142,0.0003030163360531958,-0.26160227968666555,-0.13777799730367876,0.001506960834376514,0.01829473115503788,-0.0,0.0,0.0,0.0
388,5,-0.0056796688586473465,0.0010769997024908662,0.00457279896363616,0.012201202102005482,0.00018933284445665777,0.024967361241579056,-0.015507065691053867,0.09609011560678482,0.004627975169569254,-0.12232761830091476,1.5205422639846802,0.00855925027281046,0.0,0.0,0.0,0.005891353357583284,-0.00037329367478378117,-0.0,0.0,0.0,0.0,0.0,0.0,0.0,0.0,0.0,0.0,0.0,0.0,0.0,0.0,0.0,0.0,0.0,0.0,0.0,0.0,0.0,0.0,0.0,1.6753555536270142,0.001868267160971673,-0.2539646085474117,-0.1381284745553398,0.001506960834376514,0.01829473115503788,-0.0,0.0,0.0,0.0
393,5,-0.0055618369951844215,0.001049501122906804,0.004376186989247799,0.01902032271027565,0.0033755723852664232,0.033580366522073746,-0.015507065691053867,0.09609011560678482,0.004627975169569254,-0.12232761830091476,1.5205422639846802,0.00855925027281046,0.0,0.0,0.0,-0.0021321300882846117,0.009698397479951382,-0.0,0.0,0.0,0.0,0.0,0.0,0.0,0.0,0.0,0.0,0.0,0.0,0.0,0.0,0.0,0.0,0.0,0.0,0.0,0.0,0.0,0.0,0.0,1.7361235618591309,0.003862584373387945,-0.24505340289572525,-0.1385256574469978,-0.04057184234261513,-0.006861234549432993,-0.0,0.0,0.0,0.0
398,5,-0.005362235940992832,0.0010242511052638292,0.00410967692732811,0.03156021982431412,0.004380230791866779,0.04541337117552757,-0.016164667904376984,0.08164095878601074,0.0043029142543673515,-0.025308802723884583,2.214912176132202,0.02309451252222061,0.0,0.0,0.0,-0.0021321300882846117,0.009698397479951382,-0.0,0.0,0.0,0.0,0.0,0.0,0.0,0.0,0.0,0.0,0.0,0.0,0.0,0.0,0.0,0.0,0.0,0.0,0.0,0.0,0.0,0.0,0.0,1.7361235618591309,0.0063099641459940055,-0.23388272504163704,-0.13820752793572488,-0.04057184234261513,-0.006861234549432993,-0.0,0.0,0.0,0.0
403,5,-0.00514568155631423,0.001009552855975926,0.0038489983417093754,0.03861061856150627,0.0035158791579306126,0.049446750432252884,-0.016164667904376984,0.08164095878601074,0.0043029142543673515,-0.025308802723884583,2.214912176132202,0.02309451252222061,0.0,0.0,0.0,-0.0021321300882846117,0.009698397479951382,-0.0,0.0,0.0,0.0,0.0,0.0,0.0,0.0,0.0,0.0,0.0,0.0,0.0,0.0,0.0,0.0,0.0,0.0,0.0,0.0,0.0,0.0,0.0,1.7361235618591309,0.007828480688534405,-0.22262738419183856,-0.13787665475547448,-0.04057184234261513,-0.006861234549432993,-0.0,0.0,0.0,0.0
408,5,-0.0049239532090723515,0.0009842761792242527,0.003602065611630678,0.04205167293548584,0.004439553711563349,0.04941064119338989,-0.016164667904376984,0.08164095878601074,0.0043029142543673515,-0.025308802723884583,2.214912176132202,0.02309451252222061,0.0,0.0,0.0,-0.0021245675161480904,0.025001073256134987,-0.0,0.0,0.0,0.0,0.0,0.0,0.0,0.0,0.0,0.0,0.0,0.0,0.0,0.0,0.0,0.0,0.0,0.0,0.0,0.0,0.0,0.0,0.0,1.9308072328567505,0.009892737534761229,-0.2093687387911631,-0.13808393950291836,-0.11630629748106003,-0.0076035670936107635,-0.0,0.0,0.0,0.0
413,5,-0.004698472563177347,0.0009233879973180592,0.0033341427333652973,0.043878328055143356,0.009082404896616936,0.051915012300014496,-0.015948621556162834,0.05264635384082794,0.004469687584787607,0.10078471899032593,2.690934419631958,0.02447768859565258,0.0,0.0,0.0,-0.0021245675161480904,0.025001073256134987,-0.0,0.0,0.0,0.0,0.0,0.0,0.0,0.0,0.0,0.0,0.0,0.0,0.0,0.0,0.0,0.0,0.0,0.0,0.0,0.0,0.0,0.0,0.0,1.9308072328567505,0.013147265643931783,-0.19618439012142888,-0.13797551247016826,-0.11630629748106003,-0.0076035670936107635,-0.0,0.0,0.0,0.0
419,5,-0.004476122558116913,0.0008657812140882015,0.0030450744088739157,0.04423333704471588,0.01054577436298132,0.05545419454574585,-0.015948621556162834,0.05264635384082794,0.004469687584787607,0.10078471899032593,2.690934419631958,0.02447768859565258,0.0,0.0,0.0,-0.007836315780878067,0.028844650834798813,-0.0,0.0,0.0,0.0,0.0,0.0,0.0,0.0,0.0,0.0,0.0,0.0,0.0,0.0,0.0,0.0,0.0,0.0,0.0,0.0,0.0,0.0,0.0,1.9930438995361328,0.01630388712752335,-0.18189639347693082,-0.1380093186106496,-0.13850341737270355,-0.028948713093996048,-0.0,0.0,0.0,0.0
424,5,-0.004269781522452831,0.0008317467290908098,0.0028145676478743553,0.042454272508621216,0.008302447386085987,0.04984249174594879,-0.014871927909553051,0.0301846731454134,0.004148039035499096,0.18970657885074615,2.9197254180908203,0.03335881605744362,0.0,0.0,0.0,-0.007836315780878067,0.028844650834798813,-0.0,0.0,0.0,0.0,0.0,0.0,0.0,0.0,0.0,0.0,0.0,0.0,0.0,0.0,0.0,0.0,0.0,0.0,0.0,0.0,0.0,0.0,0.0,1.9930438995361328,0.01843308430297085,-0.16833195380801633,-0.13852928639014575,-0.13850341737270355,-0.028948713093996048,-0.0,0.0,0.0,0.0
429,5,-0.0040800669230520725,0.0007844424690119922,0.002552589401602745,0.0397474505007267,0.008997492492198944,0.05137437954545021,-0.014871927909553051,0.0301846731454134,0.004148039035499096,0.18970657885074615,2.9197254180908203,0.03335881605744362,0.0,0.0,0.0,-0.007210833951830864,0.028340550139546394,-0.0,0.0,0.0,0.0,0.0,0.0,0.0,0.0,0.0,0.0,0.0,0.0,0.0,0.0,0.0,0.0,0.0,0.0,0.0,0.0,0.0,0.0,0.0,1.9845771789550781,0.021591738204183065,-0.1546062586299871,-0.13879959073734277,-0.1355060636997223,-0.026524988934397697,-0.0,0.0,0.0,0.0
434,5,-0.0039003067649900913,0.0007346815546043217,0.002333653625100851,0.037470217794179916,0.009570303373038769,0.04682205617427826,-0.012456403113901615,-0.004574158228933811,0.003928098361939192,0.21552886068820953,2.85001802444458,-0.023348554968833923,0.0,0.0,0.0,-0.007210833951830864,0.028340550139546394,-0.0,0.0,0.0,0.0,0.0,0.0,0.0,0.0,0.0,0.0,0.0,0.0,0.0,0.0,0.0,0.0,0.0,0.0,0.0,0.0,0.0,0.0,0.0,1.9845771789550781,0.023812825526050053,-0.1417180791120737,-0.1388585181884642,-0.1355060636997223,-0.026524988934397697,-0.0,0.0,0.0,0.0
439,5,-0.003761232364922762,0.0007269088528119028,0.0021533872932195663,0.031676992774009705,0.004760843235999346,0.040360767394304276,-0.01097390241920948,-0.026088418439030647,0.003480971325188875,0.1472880095243454,2.4886395931243896,0.04424222558736801,0.0,0.0,0.0,-0.008814449422061443,0.025332212448120117,-0.0,0.0,0.0,0.0,0.0,0.0,0.0,0.0,0.0,0.0,0.0,0.0,0.0,0.0,0.0,0.0,0.0,0.0,0.0,0.0,0.0,0.0,0.0,1.947063684463501,0.02583318015098214,-0.13100710311225536,-0.1385393392188603,-0.11883431673049927,-0.031810734421014786,-0.0,0.0,0.0,0.0
444,5,-0.0036706740502268076,0.0007011475972831249,0.0020525078289210796,0.02353779226541519,0.004995689261704683,0.028249848634004593,-0.01097390241920948,-0.026088418439030647,0.003480971325188875,0.1472880095243454,2.4886395931243896,0.04424222558736801,0.0,0.0,0.0,-0.008814449422061443,0.025332212448120117,-0.0,0.0,0.0,0.0,0.0,0.0,0.0,0.0,0.0,0.0,0.0,0.0,0.0,0.0,0.0,0.0,0.0,0.0,0.0,0.0,0.0,0.0,0.0,1.947063684463501,0.026387643878033593,-0.12178855896365613,-0.13860433755697307,-0.11883431673049927,-0.031810734421014786,-0.0,0.0,0.0,0.0
449,5,-0.003618234768509865,0.0006655821925960481,0.0019501144997775555,0.01570783741772175,0.006266126409173012,0.023587144911289215,-0.009955156594514847,-0.05175681412220001,0.003094450104981661,0.029096461832523346,1.8579165935516357,-0.07696252316236496,0.0,0.0,0.0,-0.004421892110258341,0.015551887452602386,-0.0,0.0,0.0,0.0,0.0,0.0,0.0,0.0,0.0,0.0,0.0,0.0,0.0,0.0,0.0,0.0,0.0,0.0,0.0,0.0,0.0,0.0,0.0,1.8103344440460205,0.027254694219743792,-0.11326254491373318,-0.1384295642056336,-0.06783784925937653,-0.014837916009128094,-0.0,0.0,0.0,0.0
454,5,-0.003585259662941098,0.0006834039813838899,0.0019148938590660691,0.01024014875292778,0.0003678338835015893,0.013661335222423077,-0.009955156594514847,-0.05175681412220001,0.003094450104981661,0.029096461832523346,1.8579165935516357,-0.07696252316236496,0.0,0.0,0.0,-0.004421892110258341,0.015551887452602386,-0.0,0.0,0.0,0.0,0.0,0.0,0.0,0.0,0.0,0.0,0.0,0.0,0.0,0.0,0.0,0.0,0.0,0.0,0.0,0.0,0.0,0.0,0.0,1.8103344440460205,0.02797405563031714,-0.10709879672705068,-0.1383761682179426,-0.06783784925937653,-0.014837916009128094,-0.0,0.0,0.0,0.0
459,5,-0.003558587981387973,0.0006782335694879293,0.00185710983350873,0.007296656724065542,0.0007675857050344348,0.012398612685501575,-0.010207696817815304,-0.06312599033117294,0.002822002861648798,-0.09454794973134995,1.0127782821655273,0.0037906444631516933,0.0,0.0,0.0,0.0007794415578246117,0.0045633637346327305,-0.0,0.0,0.0,0.0,0.0,0.0,0.0,0.0,0.0,0.0,0.0,0.0,0.0,0.0,0.0,0.0,0.0,0.0,0.0,0.0,0.0,0.0,0.0,1.675963282585144,0.026764880473651942,-0.10212546685555089,-0.1377622770684421,-0.018428917974233627,0.0024213441647589207,-0.0,0.0,0.0,0.0
464,5,-0.0035808836109936237,0.0007077648770064116,0.0018668366828933358,0.00024320905504282564,-0.0032367208041250706,0.0037922230549156666,-0.010207696817815304,-0.06312599033117294,0.002822002861648798,-0.09454794973134995,1.0127782821655273,0.0037906444631516933,0.0,0.0,0.0,0.0007794415578246117,0.0045633637346327305,-0.0,0.0,0.0,0.0,0.0,0.0,0.0,0.0,0.0,0.0,0.0,0.0,0.0,0.0,0.0,0.0,0.0,0.0,0.0,0.0,0.0,0.0,0.0,1.675963282585144,0.025435567800915413,-0.0993245038899368,-0.13704701836049105,-0.018428917974233627,0.0024213441647589207,-0.0,0.0,0.0,0.0
469,5,-0.0036313708405941725,0.0007683674339205027,0.0019373068353161216,-0.005961206741631031,-0.008567001670598984,-0.006939524319022894,-0.012204148806631565,-0.06946416944265366,0.002261359477415681,-0.2198890596628189,0.1210232824087143,-0.06793557107448578,0.0,0.0,0.0,0.005122669972479343,-0.004669387824833393,-0.0,0.0,0.0,0.0,0.0,0.0,0.0,0.0,0.0,0.0,0.0,0.0,0.0,0.0,0.0,0.0,0.0,0.0,0.0,0.0,0.0,0.0,0.0,1.692958950996399,0.023021588365645856,-0.09831498380783966,-0.13635448155666965,0.019048070535063744,0.016074886545538902,-0.0,0.0,0.0,0.0
474,5,-0.0037293750792741776,0.0008184483158402145,0.0020048003643751144,-0.014144983142614365,-0.009436500258743763,-0.010875043459236622,-0.012204148806631565,-0.06946416944265366,0.002261359477415681,-0.2198890596628189,0.1210232824087143,-0.06793557107448578,0.0,0.0,0.0,0.005122669972479343,-0.004669387824833393,-0.0,0.0,0.0,0.0,0.0,0.0,0.0,0.0,0.0,0.0,0.0,0.0,0.0,0.0,0.0,0.0,0.0,0.0,0.0,0.0,0.0,0.0,0.0,1.692958950996399,0.021159518165252966,-0.09956372336238291,-0.13561486973758385,0.019048070535063744,0.016074886545538902,-0.0,0.0,0.0,0.0
479,5,-0.003866385668516159,0.00088154012337327,0.0020941821858286858,-0.022099263966083527,-0.011345618404448032,-0.015075817704200745,-0.012204148806631565,-0.06946416944265366,0.002261359477415681,-0.2198890596628189,0.1210232824087143,-0.06793557107448578,0.0,0.0,0.0,0.005122669972479343,-0.004669387824833393,-0.0,0.0,0.0,0.0,0.0,0.0,0.0,0.0,0.0,0.0,0.0,0.0,0.0,0.0,0.0,0.0,0.0,0.0,0.0,0.0,0.0,0.0,0.0,1.692958950996399,0.01920120204453375,-0.10310458022019366,-0.13507048512429376,0.019048070535063744,0.016074886545538902,-0.0,0.0,0.0,0.0
484,5,-0.004040914587676525,0.0009446459589526057,0.0022048698738217354,-0.02978319674730301,-0.01211095042526722,-0.019312867894768715,-0.01439792849123478,-0.06659336388111115,0.0018954010447487235,-0.29770129919052124,-0.7851680517196655,-0.03739796206355095,0.0,0.0,0.0,0.01328869815915823,-0.022500624880194664,-0.0,0.0,0.0,0.0,0.0,0.0,0.0,0.0,0.0,0.0,0.0,0.0,0.0,0.0,0.0,0.0,0.0,0.0,0.0,0.0,0.0,0.0,0.0,1.9261767864227295,0.016556412308213656,-0.1089351586306679,-0.13498489044320688,0.1044161394238472,0.04744210094213486,0.0,0.0,0.0,0.0
490,5,-0.004236484877765179,0.0010122326202690601,0.0023276633583009243,-0.03538167104125023,-0.01295478269457817,-0.022460348904132843,-0.01439792849123478,-0.06659336388111115,0.0018954010447487235,-0.29770129919052124,-0.7851680517196655,-0.03739796206355095,0.0,0.0,0.0,0.01328869815915823,-0.022500624880194664,-0.0,0.0,0.0,0.0,0.0,0.0,0.0,0.0,0.0,0.0,0.0,0.0,0.0,0.0,0.0,0.0,0.0,0.0,0.0,0.0,0.0,0.0,0.0,1.9261767864227295,0.014020643188941011,-0.11626788009913662,-0.13440205355300155,0.1044161394238472,0.04744210094213486,0.0,0.0,0.0,0.0
495,5,-0.004503139294683933,0.0010611003963276744,0.002481667557731271,-0.04615122824907303,-0.011046040803194046,-0.027464667335152626,-0.017653554677963257,-0.05288912355899811,0.0013432576088234782,-0.2442682534456253,-1.4977085590362549,-0.0959828794002533,0.0,0.0,0.0,0.014252443797886372,-0.031618185341358185,-0.0,0.0,0.0,0.0,0.0,0.0,0.0,0.0,0.0,0.0,0.0,0.0,0.0,0.0,0.0,0.0,0.0,0.0,0.0,0.0,0.0,0.0,0.0,2.051722764968872,0.011540061206185701,-0.12481487588655249,-0.1335915053105389,0.15627554059028625,0.054198820143938065,0.0,0.0,0.0,0.0
500,5,-0.004826412536203861,0.001135417609475553,0.002712895395234227,-0.057253267616033554,-0.013336477801203728,-0.03873319551348686,-0.017653554677963257,-0.05288912355899811,0.0013432576088234782,-0.2442682534456253,-1.4977085590362549,-0.0959828794002533,0.0,0.0,0.0,0.014252443797886372,-0.031618185341358185,-0.0,0.0,0.0,0.0,0.0,0.0,0.0,0.0,0.0,0.0,0.0,0.0,0.0,0.0,0.0,0.0,0.0,0.0,0.0,0.0,0.0,0.0,0.0,2.051722764968872,0.00938668219751421,-0.13586971516656746,-0.13353848377537375,0.15627554059028625,0.054198820143938065,0.0,0.0,0.0,0.0
505,5,-0.005150522105395794,0.001214661169797182,0.0029694512486457825,-0.0617944598197937,-0.014843820594251156,-0.046279966831207275,-0.01895991899073124,-0.038506899029016495,0.0010829007951542735,-0.09325103461742401,-2.0628905296325684,-0.046373799443244934,0.0,0.0,0.0,0.01352384127676487,-0.04464113339781761,-0.0,0.0,0.0,0.0,0.0,0.0,0.0,0.0,0.0,0.0,0.0,0.0,0.0,0.0,0.0,0.0,0.0,0.0,0.0,0.0,0.0,0.0,0.0,2.2465381622314453,0.008693264952975593,-0.1470911223629865,-0.1335317866380051,0.24155551195144653,0.05631166696548462,0.0,0.0,0.0,0.0
510,5,-0.005507471971213818,0.0012391306227073073,0.0031883895862847567,-0.06755176186561584,-0.008873864077031612,-0.04478459805250168,-0.01895991899073124,-0.038506899029016495,0.0010829007951542735,-0.09325103461742401,-2.0628905296325684,-0.046373799443244934,0.0,0.0,0.0,0.01352384127676487,-0.04464113339781761,-0.0,0.0,0.0,0.0,0.0,0.0,0.0,0.0,0.0,0.0,0.0,0.0,0.0,0.0,0.0,0.0,0.0,0.0,0.0,0.0,0.0,0.0,0.0,2.2465381622314453,0.007863348181719748,-0.15921681910084612,-0.13350703127939656,0.24155551195144653,0.05631166696548462,0.0,0.0,0.0,0.0
515,5,-0.0062992689199745655,0.001246694941073656,0.0032767928205430508,-0.12203636020421982,-0.004457268863916397,-0.02852223999798298,-0.018685605376958847,-0.01170777715742588,0.0008160654688253999,0.10074321180582047,-2.380744457244873,-0.07759491354227066,0.0,0.0,0.0,0.009282526560127735,-0.05051709711551666,-0.0,0.0,0.0,0.0,0.0,0.0,0.0,0.0,0.0,0.0,0.0,0.0,0.0,0.0,0.0,0.0,0.0,0.0,0.0,0.0,0.0,0.0,0.0,2.3336715698242188,0.01121406964582069,-0.1860915608542633,-0.14100924927772596,0.28393998742103577,0.040151625871658325,0.0,0.0,0.0,0.0
520,5,-0.006618937477469444,0.0012755836360156536,0.0034775130916386843,-0.08717477321624756,-0.005249542184174061,-0.03549531474709511,-0.018685605376958847,-0.01170777715742588,0.0008160654688253999,0.10074321180582047,-2.380744457244873,-0.07759491354227066,0.0,0.0,0.0,0.009282526560127735,-0.05051709711551666,-0.0,0.0,0.0,0.0,0.0,0.0,0.0,0.0,0.0,0.0,0.0,0.0,0.0,0.0,0.0,0.0,0.0,0.0,0.0,0.0,0.0,0.0,0.0,2.3336715698242188,0.011169757312047276,-0.1977511660560716,-0.1413947094066274,0.28393998742103577,0.040151625871658325,0.0,0.0,0.0,0.0
525,5,-0.006964023690670729,0.001321945688687265,0.003752687945961952,-0.07628022879362106,-0.007663261611014605,-0.04721909761428833,-0.01706860400736332,0.007978418841958046,0.0006714616320095956,0.25744980573654175,-2.4668803215026855,-0.039414823055267334,0.0,0.0,0.0,0.005773960612714291,-0.06038408353924751,-0.0,0.0,0.0,0.0,0.0,0.0,0.0,0.0,0.0,0.0,0.0,0.0,0.0,0.0,0.0,0.0,0.0,0.0,0.0,0.0,0.0,0.0,0.0,2.500894069671631,0.010927486016822863,-0.20890609297710624,-0.1413377364260979,0.3636624813079834,0.0267653726041317,0.0,0.0,0.0,0.0
530,5,-0.007286759093403816,0.0013497028267011046,0.003972403705120087,-0.06924036890268326,-0.006396173499524593,-0.045253533869981766,-0.01706860400736332,0.007978418841958046,0.0006714616320095956,0.25744980573654175,-2.4668803215026855,-0.039414823055267334,0.0,0.0,0.0,0.005773960612714291,-0.06038408353924751,-0.0,0.0,0.0,0.0,0.0,0.0,0.0,0.0,0.0,0.0,0.0,0.0,0.0,0.0,0.0,0.0,0.0,0.0,0.0,0.0,0.0,0.0,0.0,2.500894069671631,0.010332815373349962,-0.2190147406222164,-0.14136478290993432,0.3636624813079834,0.0267653726041317,0.0,0.0,0.0,0.0
535,5,-0.00761299068108201,0.0013887853128835559,0.004215404391288757,-0.0668438971042633,-0.007248364854604006,-0.04726150259375572,-0.013525118120014668,0.03632033243775368,0.00045139173744246364,0.3111265301704407,-2.2719061374664307,-0.05367053300142288,0.0,0.0,0.0,0.00717564532533288,-0.05264982581138611,-0.0,0.0,0.0,0.0,0.0,0.0,0.0,0.0,0.0,0.0,0.0,0.0,0.0,0.0,0.0,0.0,0.0,0.0,0.0,0.0,0.0,0.0,0.0,2.366677761077881,0.010615291262907367,-0.22795655996076652,-0.1416031847381716,0.3001070022583008,0.03147761896252632,0.0,0.0,0.0,0.0
540,5,-0.007897126488387585,0.0014041111571714282,0.004363704472780228,-0.06083392724394798,-0.0047384449280798435,-0.03670063614845276,-0.013525118120014668,0.03632033243775368,0.00045139173744246364,0.3111265301704407,-2.2719061374664307,-0.05367053300142288,0.0,0.0,0.0,0.00717564532533288,-0.05264982581138611,-0.0,0.0,0.0,0.0,0.0,0.0,0.0,0.0,0.0,0.0,0.0,0.0,0.0,0.0,0.0,0.0,0.0,0.0,0.0,0.0,0.0,0.0,0.0,2.366677761077881,0.011463906013495246,-0.23594543379214722,-0.14154613981501546,0.3001070022583008,0.03147761896252632,0.0,0.0,0.0,0.0
545,5,-0.008146065287292004,0.0014091917546465993,0.0044746496714651585,-0.05420612916350365,-0.002505044685676694,-0.027993671596050262,-0.010906328447163105,0.052844613790512085,0.00041414794395677745,0.3286915421485901,-1.8124215602874756,-0.022185735404491425,0.0,0.0,0.0,0.0059880902990698814,-0.049021679908037186,-0.0,0.0,0.0,0.0,0.0,0.0,0.0,0.0,0.0,0.0,0.0,0.0,0.0,0.0,0.0,0.0,0.0,0.0,0.0,0.0,0.0,0.0,0.0,2.3033432960510254,0.012887466594020817,-0.24183000763992557,-0.14160370794079055,0.27196750044822693,0.02556529827415943,0.0,0.0,0.0,0.0
551,5,-0.008329802192747593,0.0014202621532604098,0.0045235734432935715,-0.04373089596629143,-0.0023304736241698265,-0.017068328335881233,-0.010906328447163105,0.052844613790512085,0.00041414794395677745,0.3286915421485901,-1.8124215602874756,-0.022185735404491425,0.0,0.0,0.0,0.0059880902990698814,-0.049021679908037186,-0.0,0.0,0.0,0.0,0.0,0.0,0.0,0.0,0.0,0.0,0.0,0.0,0.0,0.0,0.0,0.0,0.0,0.0,0.0,0.0,0.0,0.0,0.0,2.3033432960510254,0.013184940747305479,-0.24572930203639493,-0.14117466960896527,0.27196750044822693,0.02556529827415943,0.0,0.0,0.0,0.0
556,5,-0.008502079173922539,0.0014459742233157158,0.00457377266138792,-0.038165606558322906,-0.004017634317278862,-0.012851192615926266,-0.007016579154878855,0.07053517550230026,0.00029731375980190933,0.3039668798446655,-1.179685115814209,-0.020581722259521484,0.0,0.0,0.0,0.004152723588049412,-0.040397368371486664,-0.0,0.0,0.0,0.0,0.0,0.0,0.0,0.0,0.0,0.0,0.0,0.0,0.0,0.0,0.0,0.0,0.0,0.0,0.0,0.0,0.0,0.0,0.0,2.1603903770446777,0.013524834154909536,-0.2479915299862722,-0.14034845129130769,0.21024000644683838,0.016629207879304886,0.0,0.0,0.0,0.0
561,5,-0.008600523695349693,0.001463934313505888,0.004539608955383301,-0.027079621329903603,-0.003762265667319298,-0.0010408726520836353,-0.007016579154878855,0.07053517550230026,0.00029731375980190933,0.3039668798446655,-1.179685115814209,-0.020581722259521484,0.0,0.0,0.0,0.004152723588049412,-0.040397368371486664,-0.0,0.0,0.0,0.0,0.0,0.0,0.0,0.0,0.0,0.0,0.0,0.0,0.0,0.0,0.0,0.0,0.0,0.0,0.0,0.0,0.0,0.0,0.0,2.1603903770446777,0.013465540538880924,-0.2476636048414277,-0.1402456033165214,0.21024000644683838,0.016629207879304886,0.0,0.0,0.0,0.0
566,5,-0.008695453405380249,0.0014850669540464878,0.004527195822447538,-0.022223399952054024,-0.004040826577693224,0.0010732165537774563,-0.0047000679187476635,0.07671467214822769,0.0003691699239425361,0.2662936747074127,-0.4256856143474579,0.019691437482833862,0.0,0.0,0.0,0.005951615981757641,-0.03073715604841709,-0.0,0.0,0.0,0.0,0.0,0.0,0.0,0.0,0.0,0.0,0.0,0.0,0.0,0.0,0.0,0.0,0.0,0.0,0.0,0.0,0.0,0.0,0.0,2.0163650512695312,0.01449541721746738,-0.24713350996498418,-0.14040887575907512,0.14931680262088776,0.022243747487664223,0.0,0.0,0.0,0.0
571,5,-0.008724306710064411,0.001463470165617764,0.004422697238624096,-0.012351802550256252,0.0009752920595929027,0.012969140894711018,-0.0047000679187476635,0.07671467214822769,0.0003691699239425361,0.2662936747074127,-0.4256856143474579,0.019691437482833862,0.0,0.0,0.0,0.005951615981757641,-0.03073715604841709,-0.0,0.0,0.0,0.0,0.0,0.0,0.0,0.0,0.0,0.0,0.0,0.0,0.0,0.0,0.0,0.0,0.0,0.0,0.0,0.0,0.0,0.0,0.0,2.0163650512695312,0.017121542940109005,-0.24332378714833447,-0.14094815284384968,0.14931680262088776,0.022243747487664223,0.0,0.0,0.0,0.0
576,5,-0.008729989640414715,0.0014605430187657475,0.004343381151556969,-0.0056226192973554134,0.0007413768325932324,0.014705591835081577,-0.0020354455336928368,0.07655097544193268,0.00041218206752091646,0.18164320290088654,0.41269636154174805,-0.0065423245541751385,0.0,0.0,0.0,0.001288549043238163,-0.02097337692975998,-0.0,0.0,0.0,0.0,0.0,0.0,0.0,0.0,0.0,0.0,0.0,0.0,0.0,0.0,0.0,0.0,0.0,0.0,0.0,0.0,0.0,0.0,0.0,1.8759223222732544,0.01791163691322192,-0.23860788817512663,-0.14105335895377324,0.09479881823062897,0.004480476025491953,-0.0,0.0,0.0,0.0
581,5,-0.008683554828166962,0.0014769567642360926,0.004209523554891348,0.0033231053967028856,-0.0016731072682887316,0.021945174783468246,-0.0020354455336928368,0.07655097544193268,0.00041218206752091646,0.18164320290088654,0.41269636154174805,-0.0065423245541751385,0.0,0.0,0.0,0.001288549043238163,-0.02097337692975998,-0.0,0.0,0.0,0.0,0.0,0.0,0.0,0.0,0.0,0.0,0.0,0.0,0.0,0.0,0.0,0.0,0.0,0.0,0.0,0.0,0.0,0.0,0.0,1.8759223222732544,0.019186990921433066,-0.23257766971843125,-0.14096905431651574,0.09479881823062897,0.004480476025491953,-0.0,0.0,0.0,0.0
586,5,-0.008591927587985992,0.0014931466430425644,0.004040189553052187,0.012324577197432518,-0.0026120238471776247,0.02909812331199646,-0.0020354455336928368,0.07655097544193268,0.00041218206752091646,0.18164320290088654,0.41269636154174805,-0.0065423245541751385,0.0,0.0,0.0,0.00452045863494277,-0.008596357889473438,-0.0,0.0,0.0,0.0,0.0,0.0,0.0,0.0,0.0,0.0,0.0,0.0,0.0,0.0,0.0,0.0,0.0,0.0,0.0,0.0,0.0,0.0,0.0,1.7294960021972656,0.019866757490679888,-0.22438390726503565,-0.1407282696726095,0.03582417219877243,0.014491318725049496,-0.0,0.0,0.0,0.0
