timestamp,dt,pos_x,pos_y,pos_z,vel_x,vel_y,vel_z,roll,pitch,yaw,agv_x,agv_y,agv_z,x_ref,y_ref,z_ref,roll_ref,pitch_ref,yaw_ref,x_vel_ref,y_vel_ref,z_vel_ref,x_torque,y_torque,z_torque,w0,w1,w2,w3,u0,u1,u2,u3,m0req,m1req,m2req,m3req,thrust0,thrust1,thrust2,thrust3,thrust_ref,roll_vicon,pitch_vicon,yaw_vicon,acc_x,acc_y,acc_z
5,5,0.0,0.0,0.0,-0.00297140097245574,-0.0037622011732310057,-0.012253357097506523,-0.06055227667093277,-0.10062197595834732,-0.013836870901286602,0.0030962813179939985,-0.0017866926500573754,-0.0012279722141101956,0.0,0.0,0.0,0.004451262764632702,-0.0027043402660638094,-0.0,0.0,0.0,0.0,0.012101216241717339,0.020112907513976097,-0.0013695285888388753,1495.0,1495.0,1495.0,1495.0,0.0,0.0,0.0,0.0,0.0,0.0,0.0,0.0,1495.0,1495.0,1495.0,1495.0,1.7099528312683105,-0.030809809977403176,0.10884599087059421,-0.029163742565850692,0.01114275399595499,0.014108254574239254,0.0
29,24,0.0,0.0,0.0,0.001365278149023652,0.003235344775021076,0.00799984484910965,-0.06055227667093277,-0.10062197595834732,-0.013836870901286602,0.0030962813179939985,-0.0017866926500573754,-0.0012279722141101956,0.0,0.0,0.0,0.004451262764632702,-0.0027043402660638094,-0.0,0.0,0.0,0.0,0.012101216241717339,0.020112907513976097,-0.0013695285888388753,1495.0,1495.0,1495.0,1495.0,0.0,0.0,0.0,0.0,0.0,0.0,0.0,0.0,1495.0,1495.0,1495.0,1495.0,1.7099528312683105,-0.03267334996382866,0.10962358000483254,-0.03007394003660169,0.01114275399595499,0.014108254574239254,0.0
34,5,0.0,0.0,0.0,0.0026059660594910383,0.0031521539203822613,0.0015521000605076551,-0.06055216118693352,-0.10058897733688354,-0.013839766383171082,-0.0020143913570791483,5.285535371513106e-05,-0.00033605308271944523,0.0,0.0,0.0,-0.0038281194865703583,0.0012426363537088037,-0.0,0.0,0.0,0.0,0.013003570958971977,0.019540399312973022,-0.0014075854560360312,1495.0,1495.0,1495.0,1495.0,0.0,0.0,0.0,0.0,0.0,0.0,0.0,0.0,1495.0,1495.0,1495.0,1495.0,1.7098567485809326,-0.03345045718896173,0.10823801788943521,-0.029613929001024483,-0.005119793117046356,-0.01213254313915968,0.0
39,5,0.0,0.0,0.0,-0.0022663602139800787,-0.004509619902819395,-0.008127190172672272,-0.06055216118693352,-0.10058897733688354,-0.013839766383171082,-0.0020143913570791483,5.285535371513106e-05,-0.00033605308271944523,0.0,0.0,0.0,-0.0038281194865703583,0.0012426363537088037,-0.0,0.0,0.0,0.0,0.013003570958971977,0.019540399312973022,-0.0014075854560360312,1495.0,1495.0,1495.0,1495.0,0.0,0.0,0.0,0.0,0.0,0.0,0.0,0.0,1495.0,1495.0,1495.0,1495.0,1.7098567485809326,-0.030706641882266017,0.10799973728471463,-0.028725049925330533,-0.005119793117046356,-0.01213254313915968,0.0
56,16,0.0,0.0,0.0,-0.0022663602139800787,-0.004509619902819395,-0.008127190172672272,-0.06058535724878311,-0.10059742629528046,-0.013825925998389721,-0.0019948985427618027,0.005177123937755823,0.0006622520158998668,0.0,0.0,0.0,-0.0038281194865703583,0.0012426363537088037,-0.0,0.0,0.0,0.0,0.013026577420532703,0.01957092434167862,-0.0013277378166094422,1495.0,1495.0,1495.0,1495.0,0.0,0.0,0.0,0.0,0.0,0.0,0.0,0.0,1495.0,1495.0,1495.0,1495.0,1.7098567485809326,-0.030706641882266017,0.10799973728471463,-0.028725049925330533,-0.005119793117046356,-0.01213254313915968,0.0
61,5,0.0,0.0,0.0,-0.0001008100516628474,-0.0025907314848154783,0.002850185614079237,-0.06058535724878311,-0.10059742629528046,-0.013825925998389721,-0.0019948985427618027,0.005177123937755823,0.0006622520158998668,0.0,0.0,0.0,0.00533565366640687,-0.0020626999903470278,-0.0,0.0,0.0,0.0,0.013026577420532703,0.01957092434167862,-0.0013277378166094422,1495.0,1495.0,1495.0,1495.0,0.0,0.0,0.0,0.0,0.0,0.0,0.0,0.0,1495.0,1495.0,1495.0,1495.0,1.70993173122406,-0.03134401426478122,0.10850353907770607,-0.029185200205456896,0.008498851209878922,0.01691107451915741,0.0
66,5,-1.7369084162055515e-05,-9.135669643001165e-06,1.332075862592319e-05,-0.002124614082276821,5.9987796703353524e-05,-0.00045841682003811,-0.06058535724878311,-0.10059742629528046,-0.013825925998389721,-0.0019948985427618027,0.005177123937755823,0.0006622520158998668,0.0,0.0,0.0,0.00533565366640687,-0.0020626999903470278,-0.0,0.0,0.0,0.0,0.013026577420532703,0.01957092434167862,-0.0013277378166094422,1495.0,1495.0,1495.0,1495.0,0.0,0.0,0.0,0.0,0.0,0.0,0.0,0.0,1495.0,1495.0,1495.0,1495.0,1.70993173122406,-0.03173972011993368,0.10866752298149104,-0.029329841117205588,0.008498851209878922,0.01691107451915741,0.0
71,5,-1.5130081919778604e-05,-9.310614586865995e-06,4.078611164004542e-05,-0.0005811654846183956,4.498852649703622e-05,-0.003479209030047059,-0.0605960376560688,-0.10059761255979538,-0.013839928433299065,0.0011935232905671,-0.005069555249065161,-0.0014210895169526339,0.0,0.0,0.0,-8.685449574841186e-05,-0.0019572244491428137,-0.0,0.0,0.0,0.0,0.011372139677405357,0.02036692015826702,-0.0013980921357870102,13961.0,12075.0,12573.0,16279.0,0.4364854097366333,0.32040727138519287,0.34936726093292236,0.6035968065261841,0.0,0.0,0.0,0.0,13960.0,12078.0,12579.0,16272.0,1.7096164226531982,-0.03084045940930866,0.10870744384791937,-0.02936790321218861,0.008062893524765968,-0.0002752323925960809,0.0
76,5,6.476954581557948e-07,-1.7859996660263278e-05,4.174481000518426e-05,0.001660867128521204,0.0010439212201163173,-0.0015067273052409291,-0.0605960376560688,-0.10059761255979538,-0.013839928433299065,0.0011935232905671,-0.005069555249065161,-0.0014210895169526339,0.0,0.0,0.0,-8.685449574841186e-05,-0.0019572244491428137,-0.0,0.0,0.0,0.0,0.011372139677405357,0.02036692015826702,-0.0013980921357870102,13961.0,12075.0,12573.0,16279.0,0.4364854097366333,0.32040727138519287,0.34936726093292236,0.6035968065261841,0.0,0.0,0.0,0.0,13960.0,12078.0,12579.0,16272.0,1.7096164226531982,-0.03224695090325196,0.10830500313380918,-0.029194890157718218,0.008062893524765968,-0.0002752323925960809,0.0
82,6,1.6966514522209764e-05,-6.185841630212963e-05,-1.987777795875445e-05,0.002622605301439762,0.0056973788887262344,0.006792019587010145,-0.06060071289539337,-0.10060188174247742,-0.013874335214495659,-0.0019863788038492203,0.006246000062674284,-0.004373049363493919,0.0,0.0,0.0,-0.0012661658693104982,0.0015124661149457097,-0.0,0.0,0.0,0.0,0.01140910480171442,0.02037682570517063,-0.001398349879309535,13958.0,12072.0,12576.0,16281.0,0.4363308548927307,0.3202666640281677,0.349509060382843,0.6037501692771912,0.0,0.0,0.0,0.0,13951.0,12082.0,12554.0,16296.0,1.7099103927612305,-0.03364062174377133,0.10930138895963826,-0.030297291150500234,-0.00623175548389554,-0.0040130289271473885,0.0
87,5,4.2158153519267216e-05,-3.9308451960096136e-05,-2.7950707590207458e-05,0.0040720384567976,-0.0004270440840627998,0.003685559378936887,-0.06060071289539337,-0.10060188174247742,-0.013874335214495659,-0.0019863788038492203,0.006246000062674284,-0.004373049363493919,0.0,0.0,0.0,-0.0012661658693104982,0.0015124661149457097,-0.0,0.0,0.0,0.0,0.01140910480171442,0.02037682570517063,-0.001398349879309535,13958.0,12072.0,12576.0,16281.0,0.4363308548927307,0.3202666640281677,0.349509060382843,0.6037501692771912,0.0,0.0,0.0,0.0,13951.0,12082.0,12554.0,16296.0,1.7099103927612305,-0.032987500630042924,0.10786728382545957,-0.029576157915741037,-0.00623175548389554,-0.0040130289271473885,0.0
92,5,4.3160576751688495e-05,-2.6218509447062388e-05,-2.3180775315267965e-05,0.0017491061007604003,-0.0017416109330952168,0.0009018317796289921,-0.060631364583969116,-0.10059045255184174,-0.01387458574026823,-0.00223557255230844,-0.0052566188387572765,0.00020954704086761922,0.0,0.0,0.0,0.0004367940709926188,0.0037607927806675434,-0.0,0.0,0.0,0.0,0.013228124007582664,0.019723065197467804,-0.0013207774609327316,13807.0,11971.0,12767.0,16336.0,0.42638617753982544,0.31455308198928833,0.3609526753425598,0.6080397963523865,0.0,0.0,0.0,0.0,13958.0,12071.0,12574.0,16283.0,1.7106468677520752,-0.03165288731340007,0.10847405614290372,-0.029508612796280673,-0.015502102673053741,0.0013849867973476648,0.0
98,6,4.809639722225256e-05,-2.2616990463575348e-05,-4.44964061898645e-05,0.0012919410364702344,-0.0011288266396149993,0.0029186084866523743,-0.060631364583969116,-0.10059045255184174,-0.01387458574026823,-0.00223557255230844,-0.0052566188387572765,0.00020954704086761922,0.0,0.0,0.0,0.0004367940709926188,0.0037607927806675434,-0.0,0.0,0.0,0.0,0.013228124007582664,0.019723065197467804,-0.0013207774609327316,13807.0,11971.0,12767.0,16336.0,0.42638617753982544,0.31455308198928833,0.3609526753425598,0.6080397963523865,0.0,0.0,0.0,0.0,13958.0,12071.0,12574.0,16283.0,1.7106468677520752,-0.03210104870315939,0.10867232272519928,-0.029521632251087917,-0.015502102673053741,0.0013849867973476648,0.0
103,5,2.0464265617192723e-05,-1.8705404727370478e-05,-2.7563717594603077e-05,-0.0027990792877972126,-0.0009209209238179028,-0.00086447928333655,-0.06064410135149956,-0.10055354237556458,-0.01386840920895338,0.0012128368252888322,-0.002082805149257183,-0.0004649124457500875,0.0,0.0,0.0,0.0012957043945789337,0.001239580218680203,-0.0,0.0,0.0,0.0,0.012170336209237576,0.019822442904114723,-0.0013715304667130113,13868.0,12059.0,12666.0,16294.0,0.4303876757621765,0.31953662633895874,0.35487544536590576,0.6048166751861572,0.0,0.0,0.0,0.0,13793.0,11985.0,12749.0,16351.0,1.7106374502182007,-0.03096329159263341,0.10889587049679923,-0.02930165513273881,-0.005109566263854504,0.004108395427465439,0.0
108,5,3.6510305108095054e-06,-1.533087925054133e-05,2.9947013899800368e-06,-0.0031372199300676584,-0.0007733114180155098,-0.00401280215010047,-0.06064410135149956,-0.10055354237556458,-0.01386840920895338,0.0012128368252888322,-0.002082805149257183,-0.0004649124457500875,0.0,0.0,0.0,0.0012957043945789337,0.001239580218680203,-0.0,0.0,0.0,0.0,0.012170336209237576,0.019822442904114723,-0.0013715304667130113,13868.0,12059.0,12666.0,16294.0,0.4303876757621765,0.31953662633895874,0.35487544536590576,0.6048166751861572,0.0,0.0,0.0,0.0,13793.0,11985.0,12749.0,16351.0,1.7106374502182007,-0.03141288963790739,0.10824131568167102,-0.02912484749314104,-0.005109566263854504,0.004108395427465439,0.0
113,5,-2.900552499340847e-05,-1.5328589142882265e-05,4.194289067527279e-05,-0.005173674784600735,-0.0003095995634794235,-0.006278903689235449,-0.06063707545399666,-0.10056593269109726,-0.013865484856069088,-0.0009293547482229769,-0.002906615613028407,-0.0012816059170290828,0.0,0.0,0.0,0.0008879636880010366,-0.0028494594153016806,-0.0,0.0,0.0,0.0,0.012172624468803406,0.019805103540420532,-0.0014037510845810175,13855.0,12073.0,12659.0,16300.0,0.42954739928245544,0.32031962275505066,0.354465514421463,0.6052839159965515,0.0,0.0,0.0,0.0,13868.0,12062.0,12661.0,16297.0,1.7104512453079224,-0.03099987707056902,0.1090730705561276,-0.02928625142313904,0.011744223535060883,0.002815233077853918,0.0
118,5,-3.1325504096457735e-05,-2.7758856958826073e-05,0.00010505117097636685,-0.0023478674702346325,0.0013677924871444702,-0.010084554553031921,-0.0606391467154026,-0.10057239234447479,-0.013869073241949081,-0.003321241121739149,-0.00193938915617764,-0.004347664304077625,0.0,0.0,0.0,-0.0016660579713061452,-0.002177875256165862,-0.0,0.0,0.0,0.0,0.01246531680226326,0.020494192838668823,-0.001425676280632615,13871.0,12018.0,12615.0,16374.0,0.43056902289390564,0.31721070408821106,0.3518328368663788,0.6110248565673828,0.0,0.0,0.0,0.0,13945.0,12005.0,12615.0,16312.0,1.710525393486023,-0.0315588478081961,0.10800645463549717,-0.029175683481734813,0.008976632729172707,-0.0052823578007519245,0.0
126,8,1.4478517186944373e-05,-8.273860294139013e-05,-5.2797845455643255e-06,0.003590634558349848,0.004053344484418631,0.0059908428229391575,-0.0606391467154026,-0.10057239234447479,-0.013869073241949081,-0.003321241121739149,-0.00193938915617764,-0.004347664304077625,0.0,0.0,0.0,-0.0016660579713061452,-0.002177875256165862,-0.0,0.0,0.0,0.0,0.01246531680226326,0.020494192838668823,-0.001425676280632615,13871.0,12018.0,12615.0,16374.0,0.43056902289390564,0.31721070408821106,0.3518328368663788,0.6110248565673828,0.0,0.0,0.0,0.0,13945.0,12005.0,12615.0,16312.0,1.710525393486023,-0.03402027678200001,0.10937584474298447,-0.030418818429031737,0.008976632729172707,-0.0052823578007519245,0.0
131,5,-2.010157459153561e-06,-4.1048118873732165e-05,3.586254388210364e-05,-0.0005423871334642172,-0.003381520276889205,-0.002540742279961705,-0.06065937504172325,-0.10057941824197769,-0.013871620409190655,0.0023056252393871546,0.0042274510487914085,0.003780956845730543,0.0,0.0,0.0,-0.004937828052788973,0.003286160295829177,-0.0,0.0,0.0,0.0,0.012486745603382587,0.02053997851908207,-0.001373231178149581,13904.0,11979.0,12647.0,16350.0,0.4327467083930969,0.3149814009666443,0.3537280559539795,0.60918128490448,0.0,0.0,0.0,0.0,13921.0,11962.0,12659.0,16339.0,1.710548996925354,-0.0324768258810776,0.10861164685589388,-0.029538497631174377,-0.013544722460210323,-0.01565585657954216,0.0
136,5,1.5963276382535696e-05,-4.726136467070319e-05,-5.721614343201509e-06,0.0019398571457713842,-0.0006070188246667385,0.003973802085965872,-0.06065937504172325,-0.10057941824197769,-0.013871620409190655,0.0023056252393871546,0.0042274510487914085,0.003780956845730543,0.0,0.0,0.0,-0.004937828052788973,0.003286160295829177,-0.0,0.0,0.0,0.0,0.012486745603382587,0.02053997851908207,-0.001373231178149581,13904.0,11979.0,12647.0,16350.0,0.4327467083930969,0.3149814009666443,0.3537280559539795,0.60918128490448,0.0,0.0,0.0,0.0,13921.0,11962.0,12659.0,16339.0,1.710548996925354,-0.03228078532484735,0.10858055940772068,-0.029742303420346252,-0.013544722460210323,-0.01565585657954216,0.0
141,5,4.319167783251032e-05,-2.997337833221536e-05,-3.162316352245398e-05,0.0040433513931930065,-0.002317365724593401,0.004697706550359726,-0.06064794957637787,-0.10057851672172546,-0.01385116670280695,0.00098196673206985,-0.002133524976670742,0.003746969159692526,0.0,0.0,0.0,0.0006356597878038883,0.0017862127861008048,-0.0,0.0,0.0,0.0,0.012434283271431923,0.019710198044776917,-0.0014264726778492332,13849.0,12050.0,12702.0,16301.0,0.4291028380393982,0.31898635625839233,0.3570202589035034,0.6053417921066284,0.0,0.0,0.0,0.0,13856.0,12043.0,12708.0,16295.0,1.7105754613876343,-0.03168544504671801,0.10810924196491341,-0.0295468674183957,-0.007362529169768095,0.0020154661033302546,0.0
146,5,2.0281036995584145e-05,-1.6377916836063378e-05,-5.080202390672639e-05,-0.0011319364421069622,-0.0025584015529602766,0.004180545918643475,-0.06064794957637787,-0.10057851672172546,-0.01385116670280695,0.00098196673206985,-0.002133524976670742,0.003746969159692526,0.0,0.0,0.0,0.0006356597878038883,0.0017862127861008048,-0.0,0.0,0.0,0.0,0.012434283271431923,0.019710198044776917,-0.0014264726778492332,13849.0,12050.0,12702.0,16301.0,0.4291028380393982,0.31898635625839233,0.3570202589035034,0.6053417921066284,0.0,0.0,0.0,0.0,13856.0,12043.0,12708.0,16295.0,1.7105754613876343,-0.031932882271825905,0.10886298060579852,-0.02948141587408506,-0.007362529169768095,0.0020154661033302546,0.0
151,5,3.985699368058704e-05,-4.7139881644397974e-05,-7.356910646194592e-05,0.0018963400507345796,0.0026680747978389263,0.004404268227517605,-0.06064794957637787,-0.10057851672172546,-0.01385116670280695,0.00098196673206985,-0.002133524976670742,0.003746969159692526,0.0,0.0,0.0,0.0006356597878038883,0.0017862127861008048,-0.0,0.0,0.0,0.0,0.012434283271431923,0.019710198044776917,-0.0014264726778492332,13849.0,12050.0,12702.0,16301.0,0.4291028380393982,0.31898635625839233,0.3570202589035034,0.6053417921066284,0.0,0.0,0.0,0.0,13856.0,12043.0,12708.0,16295.0,1.7105754613876343,-0.03346213543900497,0.10883304214949607,-0.030046944829847173,-0.007362529169768095,0.0020154661033302546,0.0
156,5,-6.2838098529027775e-06,-2.2078922484070063e-05,1.8238053598906845e-05,-0.004778360482305288,-0.0019400848541408777,-0.009255152195692062,-0.06066479906439781,-0.100592240691185,-0.013875462114810944,-0.0019551943987607956,-0.00023723991762381047,-0.00020050093007739633,0.0,0.0,0.0,-0.0032384940423071384,0.001778984791599214,-0.0,0.0,0.0,0.0,0.011288419365882874,0.020996198058128357,-0.001564280828461051,13955.0,12099.0,12461.0,16359.0,0.4361295998096466,0.32178011536598206,0.34274569153785706,0.6098936200141907,0.0,0.0,0.0,0.0,14056.0,11980.0,12567.0,16279.0,1.7101547718048096,-0.03168454440982892,0.10860758147480454,-0.029625685113855337,-0.007330895401537418,-0.010265631601214409,0.0
161,5,1.7660595403867774e-05,-5.951850471319631e-05,6.0247416513448115e-06,0.0009619843913242221,0.0037167156115174294,-0.00223646336235106,-0.06066479906439781,-0.100592240691185,-0.013875462114810944,-0.0019551943987607956,-0.00023723991762381047,-0.00020050093007739633,0.0,0.0,0.0,-0.0032384940423071384,0.001778984791599214,-0.0,0.0,0.0,0.0,0.011288419365882874,0.020996198058128357,-0.001564280828461051,13955.0,12099.0,12461.0,16359.0,0.4361295998096466,0.32178011536598206,0.34274569153785706,0.6098936200141907,0.0,0.0,0.0,0.0,14056.0,11980.0,12567.0,16279.0,1.7101547718048096,-0.03362480920082919,0.10811493054245931,-0.030233335216371903,-0.007330895401537418,-0.010265631601214409,0.0
167,5,-5.669794063578593e-06,-5.418268119683489e-05,-1.4571295650966931e-05,-0.002414852846413851,0.0008463877020403743,0.001576939132064581,-0.06072326377034187,-0.10066979378461838,-0.013993367552757263,0.00042806260171346366,0.005004254635423422,-0.024072162806987762,0.0,0.0,0.0,-0.004499245900660753,0.0008988336194306612,-0.0,0.0,0.0,0.0,0.011346307583153248,0.02111048623919487,-0.0019033324206247926,13746.0,12332.0,12210.0,16549.0,0.4223981499671936,0.3352012634277344,0.32812774181365967,0.6248218417167664,0.0,0.0,0.0,0.0,14048.0,11824.0,12761.0,16249.0,1.710671067237854,-0.03416653519383153,0.10824070908808005,-0.029586162944843123,-0.00370504311285913,-0.01426632609218359,0.0
172,5,8.18850730865961e-06,-6.732273322995752e-05,-3.552608905010857e-05,0.000697055016644299,0.001915361382998526,0.003145350608974695,-0.06072326377034187,-0.10066979378461838,-0.013993367552757263,0.00042806260171346366,0.005004254635423422,-0.024072162806987762,0.0,0.0,0.0,-0.004499245900660753,0.0008988336194306612,-0.0,0.0,0.0,0.0,0.011346307583153248,0.02111048623919487,-0.0019033324206247926,13746.0,12332.0,12210.0,16549.0,0.4223981499671936,0.3352012634277344,0.32812774181365967,0.6248218417167664,0.0,0.0,0.0,0.0,14048.0,11824.0,12761.0,16249.0,1.710671067237854,-0.03369558240326778,0.10954321059623692,-0.03061978612706877,-0.00370504311285913,-0.01426632609218359,0.0
177,5,1.7496024156571366e-05,-5.4951480706222355e-05,5.946257260802668e-06,0.0013957240153104067,-0.0007184058194980025,-0.0037185410037636757,-0.06056909263134003,-0.10068771243095398,-0.013616125099360943,-0.0002508570614736527,0.006416724529117346,-0.028244365006685257,0.0,0.0,0.0,-0.0023900908417999744,0.0006472463719546795,-0.0,0.0,0.0,0.0,0.012283808551728725,0.02070772834122181,2.259965185658075e-05,14285.0,11544.0,13009.0,16047.0,0.45823806524276733,0.290985643863678,0.37570124864578247,0.5856504440307617,0.0,0.0,0.0,0.0,14048.0,11824.0,12761.0,16249.0,1.7052109241485596,-0.034821144914216846,0.1082128105719961,-0.029999784631301252,-0.0026594900991767645,-0.007554406300187111,0.0
182,5,3.801730053965002e-05,-5.5881613661767915e-05,1.3712578947888687e-05,0.003020842559635639,-0.00017574655066709965,-0.00241937511600554,-0.06056909263134003,-0.10068771243095398,-0.013616125099360943,-0.0002508570614736527,0.006416724529117346,-0.028244365006685257,0.0,0.0,0.0,-0.0023900908417999744,0.0006472463719546795,-0.0,0.0,0.0,0.0,0.012283808551728725,0.02070772834122181,2.259965185658075e-05,14285.0,11544.0,13009.0,16047.0,0.45823806524276733,0.290985643863678,0.37570124864578247,0.5856504440307617,0.0,0.0,0.0,0.0,14048.0,11824.0,12761.0,16249.0,1.7052109241485596,-0.03338774300324618,0.1087633382568649,-0.02931375425058225,-0.0026594900991767645,-0.007554406300187111,0.0
187,5,5.27107260950288e-07,-5.105227683088742e-05,4.36135487689171e-05,-0.003290486056357622,-0.0006498189177364111,-0.004555866122245789,-0.06101822108030319,-0.10062903165817261,-0.013706110417842865,-0.05357654392719269,-0.02429252304136753,0.1451498419046402,0.0,0.0,0.0,0.00011060474207624793,0.002804884919896722,-0.0,0.0,0.0,0.0,0.011977635324001312,0.020676078274846077,-0.0014118531253188848,14513.0,11295.0,13245.0,15819.0,0.47385522723197937,0.2776544988155365,0.3903351128101349,0.5683099627494812,0.0,0.0,0.0,0.0,15206.0,10376.0,13980.0,15150.0,1.7071034908294678,-0.03342225042779483,0.10924325088176923,-0.029857740396949627,-0.011537885293364525,0.00034997912007384,0.0
192,5,-4.677298420574516e-06,-7.55774526624009e-05,2.5083465516217984e-05,-0.001940723042935133,0.0026830940041691065,0.0004012634453829378,-0.06101822108030319,-0.10062903165817261,-0.013706110417842865,-0.05357654392719269,-0.02429252304136753,0.1451498419046402,0.0,0.0,0.0,0.00011060474207624793,0.002804884919896722,-0.0,0.0,0.0,0.0,0.011977635324001312,0.020676078274846077,-0.0014118531253188848,14513.0,11295.0,13245.0,15819.0,0.47385522723197937,0.2776544988155365,0.3903351128101349,0.5683099627494812,0.0,0.0,0.0,0.0,15206.0,10376.0,13980.0,15150.0,1.7071034908294678,-0.03351566199417785,0.11030875622168161,-0.030849261869005367,-0.011537885293364525,0.00034997912007384,0.0
197,5,4.808036919712322e-06,-4.2154792026849464e-05,3.865721373585984e-05,0.00036195103893987834,-0.0029374819714576006,-0.0014683444751426578,-0.061258960515260696,-0.10085508227348328,-0.01416702102869749,-0.0011485089780762792,0.025685274973511696,-0.20060290396213531,0.0,0.0,0.0,-0.0032931312453001738,-0.0017653335817158222,-0.0,0.0,0.0,0.0,0.011577233672142029,0.02103561721742153,-0.00448646629229188,12221.0,13814.0,10500.0,17683.0,0.32877153158187866,0.42679929733276367,0.23717749118804932,0.7179227471351624,0.0,0.0,0.0,0.0,12813.0,13169.0,11326.0,17189.0,1.7167800664901733,-0.03336323608248537,0.10909994372677127,-0.029916591552209708,0.007302823010832071,-0.01047926489263773,-0.0
202,5,8.760143828112632e-06,-5.2959662752982695e-06,1.0547839792707236e-06,0.0006190332351252437,-0.005598051939159632,0.003924953751266003,-0.061258960515260696,-0.10085508227348328,-0.01416702102869749,-0.0011485089780762792,0.025685274973511696,-0.20060290396213531,0.0,0.0,0.0,-0.0032931312453001738,-0.0017653335817158222,-0.0,0.0,0.0,0.0,0.011577233672142029,0.02103561721742153,-0.00448646629229188,12221.0,13814.0,10500.0,17683.0,0.32877153158187866,0.42679929733276367,0.23717749118804932,0.7179227471351624,0.0,0.0,0.0,0.0,12813.0,13169.0,11326.0,17189.0,1.7167800664901733,-0.03276410959909846,0.10937404893696444,-0.029843276614930084,0.007302823010832071,-0.01047926489263773,-0.0
207,5,1.005805870590848e-06,7.969673788466025e-06,5.798049642180558e-06,-0.0006829072372056544,-0.003831097623333335,0.0010007896926254034,-0.061373237520456314,-0.10078299045562744,-0.013945376500487328,-0.017319511622190475,0.005494424141943455,0.025160301476716995,0.0,0.0,0.0,0.0066050635650753975,0.0005745115340687335,-0.0,0.0,0.0,0.0,0.012055031955242157,0.02028031274676323,0.002131062326952815,14963.0,10622.0,13776.0,15335.0,0.505450427532196,0.2431621253490448,0.4243038594722748,0.532294511795044,0.0,0.0,0.0,0.0,13236.0,12721.0,11806.0,16886.0,1.712157964706421,-0.03237761892704519,0.10863004607783794,-0.029669973424381667,-0.0023701998870819807,0.020961562171578407,-0.0
212,5,7.842627383070067e-06,-1.2620736015378498e-05,7.874827133491635e-06,0.0005472557386383414,0.000938410172238946,0.0001511025329818949,-0.061373237520456314,-0.10078299045562744,-0.013945376500487328,-0.017319511622190475,0.005494424141943455,0.025160301476716995,0.0,0.0,0.0,0.0066050635650753975,0.0005745115340687335,-0.0,0.0,0.0,0.0,0.012055031955242157,0.02028031274676323,0.002131062326952815,14963.0,10622.0,13776.0,15335.0,0.505450427532196,0.2431621253490448,0.4243038594722748,0.532294511795044,0.0,0.0,0.0,0.0,13236.0,12721.0,11806.0,16886.0,1.712157964706421,-0.03441254214719548,0.10668426853148391,-0.029296753967131765,-0.0023701998870819807,0.020961562171578407,-0.0
217,5,-1.0486873179615941e-05,-3.377202301635407e-05,1.4417428246815689e-05,-0.001980637665838003,0.0029135183431208134,-0.0007246711174957454,-0.06158117949962616,-0.10066170990467072,-0.014128648675978184,-0.008361195214092731,-0.06672337651252747,0.08206218481063843,0.0,0.0,0.0,-0.001128855044953525,0.00050691410433501,-0.0,0.0,0.0,0.0,0.012667452916502953,0.020642703399062157,-0.001404212205670774,14234.0,11522.0,13040.0,16038.0,0.45478537678718567,0.28975120186805725,0.37758758664131165,0.5849793553352356,0.0,0.0,0.0,0.0,14513.0,11385.0,13384.0,15727.0,1.7159651517868042,-0.03472443643177891,0.10802842009743709,-0.03037723779232391,-0.0020960152614861727,-0.0035905009135603905,-0.0
223,5,-6.164468686620239e-06,-2.2110154532128945e-05,5.039021198172122e-05,-0.0002735666057560593,-0.00023401672660838813,-0.004606602713465691,-0.06158117949962616,-0.10066170990467072,-0.014128648675978184,-0.008361195214092731,-0.06672337651252747,0.08206218481063843,0.0,0.0,0.0,-0.001128855044953525,0.00050691410433501,-0.0,0.0,0.0,0.0,0.012667452916502953,0.020642703399062157,-0.001404212205670774,14234.0,11522.0,13040.0,16038.0,0.45478537678718567,0.28975120186805725,0.37758758664131165,0.5849793553352356,0.0,0.0,0.0,0.0,14513.0,11385.0,13384.0,15727.0,1.7159651517868042,-0.03267445701145544,0.10905779985987353,-0.030506775502697814,-0.0020960152614861727,-0.0035905009135603905,-0.0
228,5,-3.334400389576331e-05,2.6777132006827742e-05,0.00015037042612675577,-0.0033709711860865355,-0.005960081238299608,-0.01384026650339365,-0.06155527010560036,-0.10010837763547897,-0.014310336671769619,0.010137772187590599,-0.03049459494650364,-0.07005227357149124,0.0,0.0,0.0,0.00023648020578548312,-0.0002555797982495278,-0.0,0.0,0.0,0.0,0.011921082623302937,0.019734611734747887,-0.003329277504235506,13052.0,13033.0,11734.0,16985.0,0.3783401846885681,0.37716907262802124,0.301358699798584,0.659912109375,0.0,0.0,0.0,0.0,13811.0,12271.0,12581.0,16344.0,1.7197705507278442,-0.03240775150585876,0.10757235245958742,-0.029018477170346328,0.001059129135683179,0.0007538307108916342,0.0
233,5,-9.373963507641747e-07,-2.0085886717424728e-05,0.00017077459779102355,0.002540404675528407,0.0032395299058407545,-0.007984607480466366,-0.06155527010560036,-0.10010837763547897,-0.014310336671769619,0.010137772187590599,-0.03049459494650364,-0.07005227357149124,0.0,0.0,0.0,0.00023648020578548312,-0.0002555797982495278,-0.0,0.0,0.0,0.0,0.011921082623302937,0.019734611734747887,-0.003329277504235506,13052.0,13033.0,11734.0,16985.0,0.3783401846885681,0.37716907262802124,0.301358699798584,0.659912109375,0.0,0.0,0.0,0.0,13811.0,12271.0,12581.0,16344.0,1.7197705507278442,-0.03544939539674855,0.10646203620817347,-0.030156476081628768,0.001059129135683179,0.0007538307108916342,0.0
238,5,-3.7013724067946896e-05,5.249693458608817e-06,0.00026135033112950623,-0.003312997752800584,-0.0017444577533751726,-0.014062932692468166,-0.061605967581272125,-0.09927404671907425,-0.013724448159337044,-0.040064483880996704,-0.11120694875717163,-0.009993803687393665,0.0,0.0,0.0,-0.0038739629089832306,0.0023143005091696978,-0.0,0.0,0.0,0.0,0.014108216390013695,0.019119201228022575,0.0007623678538948298,14275.0,11265.0,13506.0,15863.0,0.45755669474601746,0.2760739028453827,0.40685907006263733,0.5716683268547058,0.0,0.0,0.0,0.0,12972.0,12777.0,12054.0,16962.0,1.707499384880066,-0.03250179316881146,0.10660476769803512,-0.030052247483497826,-0.009522008709609509,-0.012260906398296356,0.0
243,5,-6.23213782091625e-05,-2.207987563451752e-06,0.0003446467162575573,-0.004362117033451796,0.00019713860820047557,-0.015620735473930836,-0.061605967581272125,-0.09927404671907425,-0.013724448159337044,-0.040064483880996704,-0.11120694875717163,-0.009993803687393665,0.0,0.0,0.0,-0.0038739629089832306,0.0023143005091696978,-0.0,0.0,0.0,0.0,0.014108216390013695,0.019119201228022575,0.0007623678538948298,14275.0,11265.0,13506.0,15863.0,0.45755669474601746,0.2760739028453827,0.40685907006263733,0.5716683268547058,0.0,0.0,0.0,0.0,12972.0,12777.0,12054.0,16962.0,1.707499384880066,-0.03381747709260887,0.10568338535316919,-0.03037525444416332,-0.009522008709609509,-0.012260906398296356,0.0
248,5,-6.929354276508093e-05,-9.9825829238398e-06,0.0004479324852582067,-0.0025815072003751993,0.001011806889437139,-0.018642589449882507,-0.06176820024847984,-0.09726525843143463,-0.013751208782196045,0.020331110805273056,-0.24143990874290466,0.07740088552236557,0.0,0.0,0.0,-0.0002380345540586859,-0.0040576099418103695,-0.0,0.0,0.0,0.0,0.012585877440869808,0.018054958432912827,-0.0015765934949740767,14060.0,11845.0,13199.0,15945.0,0.4430670738220215,0.30751484632492065,0.3874639868736267,0.5779192447662354,0.0,0.0,0.0,0.0,14097.0,11852.0,13300.0,15824.0,1.70805823802948,-0.03359248817333693,0.10332655958137914,-0.030122520555069247,0.016700277104973793,-0.0007536179036833346,0.0
253,5,-9.130012040259317e-05,-5.957602752459934e-06,0.0005594497779384255,-0.003673391416668892,-7.827484660083428e-05,-0.020839108154177666,-0.06176820024847984,-0.09726525843143463,-0.013751208782196045,0.020331110805273056,-0.24143990874290466,0.07740088552236557,0.0,0.0,0.0,-0.0002380345540586859,-0.0040576099418103695,-0.0,0.0,0.0,0.0,0.012585877440869808,0.018054958432912827,-0.0015765934949740767,14060.0,11845.0,13199.0,15945.0,0.4430670738220215,0.30751484632492065,0.3874639868736267,0.5779192447662354,0.0,0.0,0.0,0.0,14097.0,11852.0,13300.0,15824.0,1.70805823802948,-0.03361316148340769,0.1002846384522308,-0.03003241994014465,0.016700277104973793,-0.0007536179036833346,0.0
258,5,-0.00014478032244369388,-3.136925079161301e-05,0.0006389631889760494,-0.007886980660259724,0.0030180879402905703,-0.017877254635095596,-0.0613320954144001,-0.09461330622434616,-0.013808798044919968,0.08775864541530609,-0.44381967186927795,-0.0821290984749794,0.0,0.0,0.0,-0.0036193286068737507,-0.00735784275457263,-0.0,0.0,0.0,0.0,0.012150323018431664,0.01626712456345558,-0.002158196410164237,13132.0,12955.0,12506.0,16471.0,0.3833100199699402,0.37237483263015747,0.3454023003578186,0.618683397769928,0.0,0.0,0.0,0.0,14097.0,11852.0,13300.0,15824.0,1.7131006717681885,-0.03351673448785976,0.09748193057178099,-0.030904140724242555,0.030372360721230507,-0.011492585763335228,0.0
263,5,-0.0002462391275912523,-1.9365368643775582e-05,0.0007645404548384249,-0.01532985083758831,-0.0002332307631149888,-0.022220171988010406,-0.0613320954144001,-0.09461330622434616,-0.013808798044919968,0.08775864541530609,-0.44381967186927795,-0.0821290984749794,0.0,0.0,0.0,-0.0036193286068737507,-0.00735784275457263,-0.0,0.0,0.0,0.0,0.012150323018431664,0.01626712456345558,-0.002158196410164237,13132.0,12955.0,12506.0,16471.0,0.3833100199699402,0.37237483263015747,0.3454023003578186,0.618683397769928,0.0,0.0,0.0,0.0,14097.0,11852.0,13300.0,15824.0,1.7131006717681885,-0.031344884410975604,0.09322007587702531,-0.030922719847074436,0.030372360721230507,-0.011492585763335228,0.0
268,5,-0.00032632966758683324,-3.059829032281414e-05,0.0008915704675018787,-0.015742801129817963,0.0012546584475785494,-0.024131670594215393,-0.05934719368815422,-0.08738192170858383,-0.013866571709513664,0.22291818261146545,-0.7489306330680847,-0.025528140366077423,0.0,0.0,0.0,0.0002317582257091999,-0.01369840931147337,-0.0,0.0,0.0,0.0,0.010369744151830673,0.012398313730955124,-0.002312120981514454,13163.0,13080.0,12800.0,15963.0,0.3852273225784302,0.38006365299224854,0.36294025182724,0.5792681574821472,0.0,0.0,0.0,0.0,12932.0,13342.0,12842.0,15902.0,1.782703161239624,-0.03050710242697351,0.08755732367856088,-0.03127248179868922,0.0588420070707798,0.0007658129907213151,0.0
273,5,-0.0005627042264677584,-3.25594337482471e-05,0.001198060461319983,-0.025687437504529953,-0.004324017558246851,-0.03721515089273453,-0.05934719368815422,-0.08738192170858383,-0.013866571709513664,0.22291818261146545,-0.7489306330680847,-0.025528140366077423,0.0,0.0,0.0,0.0002317582257091999,-0.01369840931147337,-0.0,0.0,0.0,0.0,0.010369744151830673,0.012398313730955124,-0.002312120981514454,13163.0,13080.0,12800.0,15963.0,0.3852273225784302,0.38006365299224854,0.36294025182724,0.5792681574821472,0.0,0.0,0.0,0.0,12932.0,13342.0,12842.0,15902.0,1.782703161239624,-0.02533689850165262,0.07457365249187038,-0.030999341423861716,0.0588420070707798,0.0007658129907213151,0.0
279,5,-0.00063053093617782,-8.290656114695594e-05,0.0012347056763246655,-0.018414175137877464,0.004312048200517893,-0.019283490255475044,-0.05732522904872894,-0.07994275540113449,-0.013778257183730602,0.308978408575058,-1.1059300899505615,-0.04818063601851463,0.0,0.0,0.0,0.004575051367282867,-0.021825090050697327,-0.0,0.0,0.0,0.0,0.00843456108123064,-0.0001317405403824523,-0.0026160182897001505,12126.0,14314.0,13405.0,15290.0,0.32336053252220154,0.4602504074573517,0.4004371464252472,0.5290526151657104,0.0,0.0,0.0,0.0,12262.0,14032.0,13152.0,15591.0,1.890726923942566,-0.026131256810258047,0.06708037531432179,-0.03165587524481144,0.09942548722028732,0.016033582389354706,0.0
284,5,-0.000761401082854718,-6.656307959929109e-05,0.0014678046572953463,-0.023070093244314194,-0.0002363986859563738,-0.03568526729941368,-0.05732522904872894,-0.07994275540113449,-0.013778257183730602,0.308978408575058,-1.1059300899505615,-0.04818063601851463,0.0,0.0,0.0,0.004575051367282867,-0.021825090050697327,-0.0,0.0,0.0,0.0,0.00843456108123064,-0.0001317405403824523,-0.0026160182897001505,12126.0,14314.0,13405.0,15290.0,0.32336053252220154,0.4602504074573517,0.4004371464252472,0.5290526151657104,0.0,0.0,0.0,0.0,12262.0,14032.0,13152.0,15591.0,1.890726923942566,-0.024309572643863183,0.05693657567222939,-0.031092090116398446,0.09942548722028732,0.016033582389354706,0.0
289,5,-0.0008951318450272083,-9.49690947891213e-05,0.0015901944134384394,-0.02527572400867939,0.003314162604510784,-0.028960883617401123,-0.05322790890932083,-0.06475096940994263,-0.01356374192982912,0.35114943981170654,-1.4278109073638916,-0.05359027534723282,0.0,0.0,0.0,0.00014976011880207807,-0.020183242857456207,-0.0,0.0,0.0,0.0,0.008625091053545475,-0.006252786610275507,-0.0021714912727475166,12218.0,14762.0,14440.0,14803.0,0.32858794927597046,0.49117982387542725,0.46884164214134216,0.49409371614456177,0.0,0.0,0.0,0.0,12284.0,14248.0,13791.0,14881.0,1.8651870489120483,-0.02399810489496532,0.04935471577340841,-0.032284224805488496,0.09070594608783722,0.0005177583661861718,0.0
294,5,-0.0010396239813417196,-0.0001470270799472928,0.0016553039895370603,-0.02744934894144535,0.007572623901069164,-0.019397500902414322,-0.05322790890932083,-0.06475096940994263,-0.01356374192982912,0.35114943981170654,-1.4278109073638916,-0.05359027534723282,0.0,0.0,0.0,0.00014976011880207807,-0.020183242857456207,-0.0,0.0,0.0,0.0,0.008625091053545475,-0.006252786610275507,-0.0021714912727475166,12218.0,14762.0,14440.0,14803.0,0.32858794927597046,0.49117982387542725,0.46884164214134216,0.49409371614456177,0.0,0.0,0.0,0.0,12284.0,14248.0,13791.0,14881.0,1.8651870489120483,-0.024192469068765148,0.042264309878235956,-0.033987261439223676,0.09070594608783722,0.0005177583661861718,0.0
299,5,-0.00122690515127033,-0.00016146423877216876,0.0017349773552268744,-0.03345347195863724,0.004761508200317621,-0.017319807782769203,-0.05040547251701355,-0.05249786004424095,-0.013125242665410042,0.34168973565101624,-1.602018117904663,-0.0478658527135849,0.0,0.0,0.0,-0.008204792626202106,-0.023481665179133415,-0.0,0.0,0.0,0.0,0.009192384779453278,-0.012327625416219234,-0.004323028028011322,11360.0,16049.0,14476.0,15608.0,0.2810906171798706,0.5858647227287292,0.47132229804992676,0.5524493455886841,0.0,0.0,0.0,0.0,11485.0,15336.0,14033.0,15183.0,1.9206644296646118,-0.023127594463316536,0.03523647840302361,-0.03467196580274958,0.10866201668977737,-0.029209142550826073,0.0
304,5,-0.0012000291608273983,-0.0004227672179695219,0.0015389947220683098,-0.010156280361115932,0.03326096013188362,0.016590001061558723,-0.05040547251701355,-0.05249786004424095,-0.013125242665410042,0.34168973565101624,-1.602018117904663,-0.0478658527135849,0.0,0.0,0.0,-0.008204792626202106,-0.023481665179133415,-0.0,0.0,0.0,0.0,0.009192384779453278,-0.012327625416219234,-0.004323028028011322,11360.0,16049.0,14476.0,15608.0,0.2810906171798706,0.5858647227287292,0.47132229804992676,0.5524493455886841,0.0,0.0,0.0,0.0,11485.0,15336.0,14033.0,15183.0,1.9206644296646118,-0.03621943167323449,0.02726554168812613,-0.039067671044043656,0.10866201668977737,-0.029209142550826073,0.0
309,5,-0.0013459258479997516,-0.00043508625822141767,0.0016723283333703876,-0.021570108830928802,0.014782669022679329,-0.009364038705825806,-0.04644297435879707,-0.03324483707547188,-0.013177787885069847,0.33516955375671387,-1.6295890808105469,-0.06042574718594551,0.0,0.0,0.0,-0.01639573834836483,-0.019259538501501083,-0.0,0.0,0.0,0.0,0.007416314445436001,-0.0138110825791955,-0.002233135746791959,11757.0,15807.0,14900.0,14805.0,0.30259111523628235,0.5674006342887878,0.5009459257125854,0.4942493140697479,0.0,0.0,0.0,0.0,11740.0,15831.0,14864.0,15185.0,1.9031323194503784,-0.042704126324660766,0.015745370247232278,-0.040346209419434446,0.08830423653125763,-0.057832662016153336,0.0
314,5,-0.0015022001462057233,-0.000357231852831319,0.0017883048858493567,-0.027380958199501038,-0.0034294608049094677,-0.017662806436419487,-0.04644297435879707,-0.03324483707547188,-0.013177787885069847,0.33516955375671387,-1.6295890808105469,-0.06042574718594551,0.0,0.0,0.0,-0.01639573834836483,-0.019259538501501083,-0.0,0.0,0.0,0.0,0.007416314445436001,-0.0138110825791955,-0.002233135746791959,11757.0,15807.0,14900.0,14805.0,0.30259111523628235,0.5674006342887878,0.5009459257125854,0.4942493140697479,0.0,0.0,0.0,0.0,11740.0,15831.0,14864.0,15185.0,1.9031323194503784,-0.029157962440229817,0.014231085106676375,-0.038896460835366575,0.08830423653125763,-0.057832662016153336,0.0
319,5,-0.0016229668399319053,-0.0003455888945609331,0.0019243299029767513,-0.025444395840168,-0.0027689377311617136,-0.023388126865029335,-0.04385876655578613,-0.02062380127608776,-0.012941177934408188,0.3237695097923279,-1.5095065832138062,-0.03364459052681923,0.0,0.0,0.0,-0.01639573834836483,-0.019259538501501083,-0.0,0.0,0.0,0.0,0.005220222752541304,-0.016083918511867523,-0.002389732049778104,12058.0,16171.0,15030.0,14826.0,0.31947168707847595,0.5952433943748474,0.5102109909057617,0.4957383871078491,0.0,0.0,0.0,0.0,11746.0,15837.0,14938.0,14743.0,1.9031323194503784,-0.02764386607427528,0.007728883595613139,-0.038892640439609355,0.10436221957206726,0.008476890623569489,0.0
324,5,-0.0017314230790361762,-0.0003465090994723141,0.0021139977034181356,-0.023192496970295906,-0.000997151480987668,-0.03211537376046181,-0.04385876655578613,-0.02062380127608776,-0.012941177934408188,0.3237695097923279,-1.5095065832138062,-0.03364459052681923,0.0,0.0,0.0,0.002405890729278326,-0.022786486893892288,-0.0,0.0,0.0,0.0,0.005220222752541304,-0.016083918511867523,-0.002389732049778104,12058.0,16171.0,15030.0,14826.0,0.31947168707847595,0.5952433943748474,0.5102109909057617,0.4957383871078491,0.0,0.0,0.0,0.0,11746.0,15837.0,14938.0,14743.0,1.900871992111206,-0.025959649364565213,0.00264107902697531,-0.03897136865062665,0.10436221957206726,0.008476890623569489,0.0
330,5,-0.001830339664593339,-0.0003745672875083983,0.002236133674159646,-0.021146995946764946,0.0029681227169930935,-0.02750246226787567,-0.04030465707182884,-0.0037620775401592255,-0.01275227777659893,0.2879672646522522,-1.29850435256958,-0.03677778318524361,0.0,0.0,0.0,0.002405890729278326,-0.022786486893892288,-0.0,0.0,0.0,0.0,0.0026372650172561407,-0.014248119667172432,-0.0017664878396317363,12508.0,16051.0,14894.0,14474.0,0.34550705552101135,0.5859658718109131,0.5005121827125549,0.4711472690105438,0.0,0.0,0.0,0.0,12535.0,15864.0,15328.0,14457.0,1.900871992111206,-0.02366305267225501,-0.0013821574171901474,-0.03954246423923788,0.10436221957206726,0.008476890623569489,0.0
335,5,-0.0019210318569093943,-0.00042180862510576844,0.0023698166478425264,-0.019341856241226196,0.006856209132820368,-0.02704296074807644,-0.04030465707182884,-0.0037620775401592255,-0.01275227777659893,0.2879672646522522,-1.29850435256958,-0.03677778318524361,0.0,0.0,0.0,-0.0038192318752408028,-0.019900767132639885,-0.0,0.0,0.0,0.0,0.0026372650172561407,-0.014248119667172432,-0.0017664878396317363,12508.0,16051.0,14894.0,14474.0,0.34550705552101135,0.5859658718109131,0.5005121827125549,0.4711472690105438,0.0,0.0,0.0,0.0,12535.0,15864.0,15328.0,14457.0,1.8643101453781128,-0.02220403162728646,-0.00592699517905767,-0.03960318918421011,0.08939392864704132,-0.013197777792811394,0.0
340,5,-0.0019805687479674816,-0.0004221162525936961,0.0023995046503841877,-0.014881178736686707,0.0027793997433036566,-0.014379743486642838,-0.037651997059583664,0.005247198045253754,-0.012603317387402058,0.3752928078174591,-0.9756995439529419,-0.02206491306424141,0.0,0.0,0.0,-0.0038192318752408028,-0.019900767132639885,-0.0,0.0,0.0,0.0,0.004654233809560537,-0.013978220522403717,-0.0015495222760364413,12500.0,15782.0,15021.0,14611.0,0.34503212571144104,0.5655310750007629,0.5096225142478943,0.4806862771511078,0.0,0.0,0.0,0.0,12535.0,16094.0,14762.0,14536.0,1.8643101453781128,-0.01856610260629975,-0.007780555454156197,-0.039219689558663076,0.08939392864704132,-0.013197777792811394,0.0
345,5,-0.0020435417536646128,-0.0004617482190951705,0.0024429664481431246,-0.013509214855730534,0.005867592990398407,-0.01096730399876833,-0.037651997059583664,0.005247198045253754,-0.012603317387402058,0.3752928078174591,-0.9756995439529419,-0.02206491306424141,0.0,0.0,0.0,-0.0038088003639131784,-0.015331042930483818,-0.0,0.0,0.0,0.0,0.004654233809560537,-0.013978220522403717,-0.0015495222760364413,12500.0,15782.0,15021.0,14611.0,0.34503212571144104,0.5655310750007629,0.5096225142478943,0.4806862771511078,0.0,0.0,0.0,0.0,12535.0,16094.0,14762.0,14536.0,1.8064240217208862,-0.0176581863075708,-0.010392581827626087,-0.03923102899886721,0.0667303055524826,-0.012753063812851906,0.0
350,5,-0.0020765247754752636,-0.0004739939176943153,0.0024817537050694227,-0.00936165638267994,0.0038165240548551083,-0.009041398763656616,-0.032309528440237045,0.014860918745398521,-0.0123292226344347,0.5131711959838867,-0.6488468647003174,0.02096487395465374,0.0,0.0,0.0,-0.0038088003639131784,-0.015331042930483818,-0.0,0.0,0.0,0.0,0.0018376759253442287,-0.011377689428627491,-0.0008088478352874517,12821.0,15653.0,14631.0,14343.0,0.3642367124557495,0.5558210611343384,0.48204752802848816,0.4622047543525696,0.0,0.0,0.0,0.0,13202.0,15301.0,15414.0,14093.0,1.8064240217208862,-0.013415514517602797,-0.012678602588249665,-0.038921270030089807,0.0667303055524826,-0.012753063812851906,0.0
355,5,-0.002110531786456704,-0.0005311709246598184,0.0024008993059396744,-0.007825518026947975,0.008387846872210503,0.006085969973355532,-0.032309528440237045,0.014860918745398521,-0.0123292226344347,0.5131711959838867,-0.6488468647003174,0.02096487395465374,0.0,0.0,0.0,-0.005194429308176041,-0.010991242714226246,-0.0,0.0,0.0,0.0,0.0018376759253442287,-0.011377689428627491,-0.0008088478352874517,12821.0,15653.0,14631.0,14343.0,0.3642367124557495,0.5558210611343384,0.48204752802848816,0.4622047543525696,0.0,0.0,0.0,0.0,13202.0,15301.0,15414.0,14093.0,1.758309245109558,-0.01072032025284345,-0.01390325494177177,-0.039045929448822216,0.04656711965799332,-0.0169292651116848,0.0
360,5,-0.0021282494999468327,-0.0005841449601575732,0.0023933544289320707,-0.005256311967968941,0.009712026454508305,0.003339763730764389,-0.019405227154493332,0.02078096754848957,-0.012538771145045757,0.7811442017555237,-0.011041986756026745,-0.030162539333105087,0.0,0.0,0.0,-0.005194429308176041,-0.010991242714226246,-0.0,0.0,0.0,0.0,-0.0005720049375668168,-0.007957063615322113,-0.001654851483181119,12978.0,15378.0,13985.0,14298.0,0.37376341223716736,0.5354375243186951,0.4381198585033417,0.4591032564640045,0.0,0.0,0.0,0.0,13004.0,15609.0,14536.0,14324.0,1.758309245109558,-0.006868932705408317,-0.015196207925269736,-0.038906203808615855,0.04656711965799332,-0.0169292651116848,0.0
365,5,-0.0021515211556106806,-0.0006302529363892972,0.0023058075457811356,-0.004895143676549196,0.009417765773832798,0.011841554194688797,-0.019405227154493332,0.02078096754848957,-0.012538771145045757,0.7811442017555237,-0.011041986756026745,-0.030162539333105087,0.0,0.0,0.0,-0.012145204469561577,-0.0074148233979940414,-0.0,0.0,0.0,0.0,-0.0005720049375668168,-0.007957063615322113,-0.001654851483181119,12978.0,15378.0,13985.0,14298.0,0.37376341223716736,0.5354375243186951,0.4381198585033417,0.4591032564640045,0.0,0.0,0.0,0.0,13004.0,15609.0,14536.0,14324.0,1.7611544132232666,-0.0027884623821091883,-0.014555952238743725,-0.03853937760170802,0.03146401420235634,-0.039645273238420486,-0.0
370,5,-0.0021088237408548594,-0.0007059682975523174,0.0022262525744736195,0.0031656420323997736,0.012852948158979416,0.014283213764429092,-0.019405227154493332,0.02078096754848957,-0.012538771145045757,0.7811442017555237,-0.011041986756026745,-0.030162539333105087,0.0,0.0,0.0,-0.012145204469561577,-0.0074148233979940414,-0.0,0.0,0.0,0.0,-0.0005720049375668168,-0.007957063615322113,-0.001654851483181119,12978.0,15378.0,13985.0,14298.0,0.37376341223716736,0.5354375243186951,0.4381198585033417,0.4591032564640045,0.0,0.0,0.0,0.0,13004.0,15609.0,14536.0,14324.0,1.7611544132232666,6.012815058956523e-05,-0.015108984337867759,-0.039089757535988166,0.03146401420235634,-0.039645273238420486,-0.0
375,5,-0.0020785918459296227,-0.0007820946048013866,0.0021222210489213467,0.004894072189927101,0.014276339672505856,0.018197059631347656,-0.012657574377954006,0.019872518256306648,-0.012553728185594082,0.8963531255722046,0.2368307262659073,0.01575499027967453,0.0,0.0,0.0,-0.015924418345093727,5.1208586228312925e-05,-0.0,0.0,0.0,0.0,-0.0027285513933748007,-0.005056318826973438,-0.001176761114038527,13547.0,14920.0,13581.0,13934.0,0.4094716012477875,0.5023996829986572,0.411714643239975,0.43472328782081604,0.0,0.0,0.0,0.0,13357.0,15182.0,14015.0,14130.0,1.7650926113128662,0.004603389533245508,-0.01417396431018868,-0.03927856963061928,-0.00021777454821858555,-0.052096229046583176,-0.0
380,5,-0.01667705364525318,-0.013690592721104622,0.01371369045227766,0.004894072189927101,0.014276339672505856,0.018197059631347656,-0.012657574377954006,0.019872518256306648,-0.012553728185594082,0.8963531255722046,0.2368307262659073,0.01575499027967453,0.0,0.0,0.0,-0.015924418345093727,5.1208586228312925e-05,-0.0,0.0,0.0,0.0,-0.0027285513933748007,-0.005056318826973438,-0.001176761114038527,13547.0,14920.0,13581.0,13934.0,0.4094716012477875,0.5023996829986572,0.411714643239975,0.43472328782081604,0.0,0.0,0.0,0.0,13357.0,15182.0,14015.0,14130.0,1.7650926113128662,3.1038029971721595,0.061827979910956336,1.6183621325396993,-0.00021777454821858555,-0.052096229046583176,-0.0
386,5,-0.016655799001455307,-0.013828370720148087,0.013597301207482815,0.0045081255957484245,0.022243864834308624,0.021245572715997696,-0.0014095602091401815,0.01564449444413185,-0.012301120907068253,0.9792945981025696,0.43243223428726196,0.042832303792238235,0.0,0.0,0.0,-0.03460150212049484,-0.015178237110376358,-0.0,0.0,0.0,0.0,-0.005801019724458456,-0.001284789526835084,-0.0010492783039808273,13864.0,14883.0,13232.0,13998.0,0.4300948679447174,0.4997228682041168,0.3895091712474823,0.4389823377132416,0.0,0.0,0.0,0.0,13604.0,14986.0,13361.0,14019.0,2.0104706287384033,3.1106506240243617,0.05825299599493524,1.6186107257440872,0.07348424941301346,-0.1288972944021225,-0.0
391,5,-0.01662665233016014,-0.013972260989248753,0.013478152453899384,0.005300826858729124,0.026164306327700615,0.02279612421989441,-0.0014095602091401815,0.01564449444413185,-0.012301120907068253,0.9792945981025696,0.43243223428726196,0.042832303792238235,0.0,0.0,0.0,-0.03460150212049484,-0.015178237110376358,-0.0,0.0,0.0,0.0,-0.005801019724458456,-0.001284789526835084,-0.0010492783039808273,13864.0,14883.0,13232.0,13998.0,0.4300948679447174,0.4997228682041168,0.3895091712474823,0.4389823377132416,0.0,0.0,0.0,0.0,13604.0,14986.0,13361.0,14019.0,2.0104706287384033,3.115733853007673,0.05648828224652341,1.6187092462738264,0.07348424941301346,-0.1288972944021225,-0.0
396,5,-0.0020567476749420166,-0.0010615525534376502,0.00186987966299057,0.005300826858729124,0.026164306327700615,0.02279612421989441,0.006182139273732901,0.01224661897867918,-0.012735333293676376,0.9638233780860901,0.398564875125885,-0.0182436965405941,0.0,0.0,0.0,-0.04479505121707916,-0.014125671237707138,-0.0,0.0,0.0,0.0,-0.008795112371444702,0.00019190774764865637,-0.0028412730898708105,13388.0,15758.0,11945.0,14673.0,0.39935103058815,0.5637036561965942,0.3131069839000702,0.48499271273612976,0.0,0.0,0.0,0.0,13970.0,15059.0,12883.0,14070.0,2.1098427772521973,0.023899736057669242,-0.007011362074744957,-0.03917493170863128,0.07173990458250046,-0.1750752478837967,-0.0
401,5,-0.0020775445736944675,-0.0011200460139662027,0.0018628677353262901,-0.00037529709516093135,0.017484938725829124,0.009959878399968147,0.006182139273732901,0.01224661897867918,-0.012735333293676376,0.9638233780860901,0.398564875125885,-0.0182436965405941,0.0,0.0,0.0,-0.04479505121707916,-0.014125671237707138,-0.0,0.0,0.0,0.0,-0.008795112371444702,0.00019190774764865637,-0.0028412730898708105,13388.0,15758.0,11945.0,14673.0,0.39935103058815,0.5637036561965942,0.3131069839000702,0.48499271273612976,0.0,0.0,0.0,0.0,13970.0,15059.0,12883.0,14070.0,2.1098427772521973,0.028365887990382893,-0.006832374500973784,-0.03897177513302704,0.07173990458250046,-0.1750752478837967,-0.0
406,5,-0.0020768367685377598,-0.0011948475148528814,0.0018062732415273786,-6.516170833492652e-05,0.01597016118466854,0.010775287635624409,0.01722092367708683,0.008417485281825066,-0.012609075754880905,0.8958390951156616,0.25735607743263245,-0.0032303519546985626,0.0,0.0,0.0,-0.02130240388214588,-0.0029682081658393145,-0.0,0.0,0.0,0.0,-0.01146868895739317,0.00152523850556463,-0.0009916949784383178,14215.0,15265.0,12479.0,14022.0,0.45351314544677734,0.527193009853363,0.34380674362182617,0.44057971239089966,0.0,0.0,0.0,0.0,15001.0,16635.0,13303.0,14554.0,1.8197646141052246,0.03158495808539056,-0.006862259221005034,-0.03874228518232135,0.013012546114623547,-0.07184436172246933,-0.0
411,5,-0.0020945279393345118,-0.0012418038677424192,0.0017185843316838145,-0.0021490033250302076,0.012022818438708782,0.014832790940999985,0.01722092367708683,0.008417485281825066,-0.012609075754880905,0.8958390951156616,0.25735607743263245,-0.0032303519546985626,0.0,0.0,0.0,-0.02130240388214588,-0.0029682081658393145,-0.0,0.0,0.0,0.0,-0.01146868895739317,0.00152523850556463,-0.0009916949784383178,14215.0,15265.0,12479.0,14022.0,0.45351314544677734,0.527193009853363,0.34380674362182617,0.44057971239089966,0.0,0.0,0.0,0.0,15001.0,16635.0,13303.0,14554.0,1.8197646141052246,0.03380376304738705,-0.007411758622961587,-0.03845061659426225,0.013012546114623547,-0.07184436172246933,-0.0
416,5,-0.0021380071993917227,-0.0012404684675857425,0.0016515859169885516,-0.006077127531170845,0.004648885224014521,0.013972912915050983,0.023507466539740562,0.007413212209939957,-0.01295908261090517,0.7217681407928467,0.052869245409965515,-0.005840831436216831,0.0,0.0,0.0,-0.0158219113945961,-0.0046230582520365715,-0.0,0.0,0.0,0.0,-0.01566414162516594,-0.0031132984440773726,-0.0017661522142589092,14992.0,16697.0,13386.0,14414.0,0.5075287818908691,0.6366697549819946,0.39919915795326233,0.4670729339122772,0.0,0.0,0.0,0.0,15962.0,16663.0,14200.0,14077.0,1.774453043937683,0.03824906445479992,-0.007230973109082223,-0.037619943525804944,0.01976468414068222,-0.05203542485833168,-0.0
421,5,-0.002168640960007906,-0.0012579228496178985,0.0016599983209744096,-0.006106904242187738,0.003954076673835516,0.004579686094075441,0.023507466539740562,0.007413212209939957,-0.01295908261090517,0.7217681407928467,0.052869245409965515,-0.005840831436216831,0.0,0.0,0.0,-0.0158219113945961,-0.0046230582520365715,-0.0,0.0,0.0,0.0,-0.01566414162516594,-0.0031132984440773726,-0.0017661522142589092,14992.0,16697.0,13386.0,14414.0,0.5075287818908691,0.6366697549819946,0.39919915795326233,0.4670729339122772,0.0,0.0,0.0,0.0,15962.0,16663.0,14200.0,14077.0,1.774453043937683,0.039949141251924614,-0.009218188133501832,-0.03738366527235689,0.01976468414068222,-0.05203542485833168,-0.0
426,5,-0.002215914661064744,-0.0012475276598706841,0.0016903778305277228,-0.00811559334397316,0.0003342127602081746,-0.0018136673606932163,0.030698997899889946,0.007450011558830738,-0.012779803946614265,0.45806148648262024,-0.06175423786044121,-0.021834759041666985,0.0,0.0,0.0,-0.006794880609959364,-0.008370010182261467,-0.0,0.0,0.0,0.0,-0.01805366389453411,-0.00405835872516036,-0.0001974330807570368,15806.0,16753.0,14199.0,14148.0,0.5673078894615173,0.6410979628562927,0.4524276554584503,0.4490092694759369,0.0,0.0,0.0,0.0,15746.0,16756.0,14250.0,14159.0,1.7365145683288574,0.03946930643192048,-0.010706262297171027,-0.03689113728726628,0.03502202406525612,-0.021870702505111694,-0.0
431,5,-0.0022933229338377714,-0.0012080793967470527,0.0017891166498884559,-0.012535246089100838,-0.0046001095324754715,-0.012574129737913609,0.030698997899889946,0.007450011558830738,-0.012779803946614265,0.45806148648262024,-0.06175423786044121,-0.021834759041666985,0.0,0.0,0.0,-0.006794880609959364,-0.008370010182261467,-0.0,0.0,0.0,0.0,-0.01805366389453411,-0.00405835872516036,-0.0001974330807570368,15806.0,16753.0,14199.0,14148.0,0.5673078894615173,0.6410979628562927,0.4524276554584503,0.4490092694759369,0.0,0.0,0.0,0.0,15746.0,16756.0,14250.0,14159.0,1.7365145683288574,0.04075293296039344,-0.010955899497519763,-0.036533434764542544,0.03502202406525612,-0.021870702505111694,-0.0
436,5,-0.0023367309477180243,-0.001183473621495068,0.0018802935956045985,-0.010223058983683586,-0.004792730789631605,-0.015970885753631592,0.03253389522433281,0.008302676491439342,-0.012850657105445862,0.0018559825839474797,-0.14675608277320862,-0.022589828819036484,0.0,0.0,0.0,-0.006794880609959364,-0.008370010182261467,-0.0,0.0,0.0,0.0,-0.007276175543665886,-0.00433272123336792,-0.0007733163074590266,14404.0,15431.0,13384.0,13631.0,0.4663938879966736,0.5393480062484741,0.3990839719772339,0.41493868827819824,0.0,0.0,0.0,0.0,14145.0,15076.0,13541.0,13445.0,1.7365145683288574,0.03943662289579154,-0.012457636380555958,-0.0370741341119292,0.03502202406525612,-0.021870702505111694,-0.0
441,5,-0.0024147150106728077,-0.0011220058659091592,0.001950587728060782,-0.013447306118905544,-0.009293231181800365,-0.014823641628026962,0.03253389522433281,0.008302676491439342,-0.012850657105445862,0.0018559825839474797,-0.14675608277320862,-0.022589828819036484,0.0,0.0,0.0,0.003462044056504965,-0.012074087746441364,-0.0,0.0,0.0,0.0,-0.007276175543665886,-0.00433272123336792,-0.0007733163074590266,14404.0,15431.0,13384.0,13631.0,0.4663938879966736,0.5393480062484741,0.3990839719772339,0.41493868827819824,0.0,0.0,0.0,0.0,14145.0,15076.0,13541.0,13445.0,1.7663952112197876,0.03784567295968419,-0.01301453059516628,-0.037173906924107256,0.051390279084444046,0.011335154995322227,0.0
447,5,-0.0025080544874072075,-0.0010291108628734946,0.0020090199541300535,-0.01657964289188385,-0.014864693395793438,-0.012941339984536171,0.029918143525719643,0.010397960431873798,-0.012798736803233624,-0.3870786726474762,-0.2105155736207962,-0.008613296784460545,0.0,0.0,0.0,0.003462044056504965,-0.012074087746441364,-0.0,0.0,0.0,0.0,-0.0028856012504547834,-0.006129029206931591,-0.0013580608647316694,13962.0,15047.0,13631.0,13578.0,0.4365701973438263,0.5114704370498657,0.4149368703365326,0.4114755094051361,0.0,0.0,0.0,0.0,13493.0,15333.0,13399.0,13957.0,1.7663952112197876,0.03708810635682705,-0.01376760418999966,-0.036854257972658934,0.051390279084444046,0.011335154995322227,0.0
452,5,-0.0025966165121644735,-0.0008973173098638654,0.00213181902654469,-0.017259299755096436,-0.021761102601885796,-0.01991242729127407,0.029918143525719643,0.010397960431873798,-0.012798736803233624,-0.3870786726474762,-0.2105155736207962,-0.008613296784460545,0.0,0.0,0.0,0.014440634287893772,-0.016942406073212624,-0.0,0.0,0.0,0.0,-0.0028856012504547834,-0.006129029206931591,-0.0013580608647316694,13962.0,15047.0,13631.0,13578.0,0.4365701973438263,0.5114704370498657,0.4149368703365326,0.4114755094051361,0.0,0.0,0.0,0.0,13493.0,15333.0,13399.0,13957.0,1.8662577867507935,0.0363929811572741,-0.01610248338356959,-0.03570440350275185,0.07617852836847305,0.049950405955314636,0.0
457,5,-0.0026894360780715942,-0.0007998620858415961,0.0021866147872060537,-0.018042081966996193,-0.02039906568825245,-0.014540459029376507,0.025630399584770203,0.012234804220497608,-0.012788733467459679,-0.650761604309082,-0.25282543897628784,0.03470025584101677,0.0,0.0,0.0,0.014440634287893772,-0.016942406073212624,-0.0,0.0,0.0,0.0,0.0016724299639463425,-0.007752269972115755,-0.0013971988810226321,13278.0,14817.0,13863.0,13693.0,0.39242586493492126,0.49510428309440613,0.4300364553928375,0.4189479649066925,0.0,0.0,0.0,0.0,13225.0,14736.0,14014.0,13678.0,1.8662577867507935,0.035263437426288756,-0.016260780422228498,-0.035558307598012,0.07617852836847305,0.049950405955314636,0.0
462,5,-0.0028089298866689205,-0.0006787066231481731,0.0022799016442149878,-0.021556096151471138,-0.022698285058140755,-0.017010608687996864,0.025630399584770203,0.012234804220497608,-0.012788733467459679,-0.650761604309082,-0.25282543897628784,0.03470025584101677,0.0,0.0,0.0,0.020292602479457855,-0.017934685572981834,-0.0,0.0,0.0,0.0,0.0016724299639463425,-0.007752269972115755,-0.0013971988810226321,13278.0,14817.0,13863.0,13693.0,0.39242586493492126,0.49510428309440613,0.4300364553928375,0.4189479649066925,0.0,0.0,0.0,0.0,13225.0,14736.0,14014.0,13678.0,1.913433313369751,0.032138446960443205,-0.018549405714245938,-0.034571205788405314,0.0826696828007698,0.071962371468544,0.0
467,5,-0.002936753910034895,-0.0005233623669482768,0.002445211634039879,-0.023961300030350685,-0.02772062085568905,-0.026641443371772766,0.01724720001220703,0.015446770936250687,-0.012705565430223942,-0.7343782782554626,-0.26401010155677795,-0.0017875677440315485,0.0,0.0,0.0,0.020292602479457855,-0.017934685572981834,-0.0,0.0,0.0,0.0,0.0016724299639463425,-0.007752269972115755,-0.0013971988810226321,12808.0,14953.0,14136.0,14164.0,0.36341413855552673,0.5047162175178528,0.4481895864009857,0.45007529854774475,0.0,0.0,0.0,0.0,12353.0,15252.0,13847.0,14525.0,1.913433313369751,0.032722265154947354,-0.019507055957185587,-0.03317119140791976,0.0826696828007698,0.071962371468544,0.0
472,5,-0.003033403540030122,-0.00039702074718661606,0.0025374663528054953,-0.021182497963309288,-0.026249242946505547,-0.02172713726758957,0.01724720001220703,0.015446770936250687,-0.012705565430223942,-0.7343782782554626,-0.26401010155677795,-0.0017875677440315485,0.0,0.0,0.0,0.02715545892715454,-0.021990645676851273,-0.0,0.0,0.0,0.0,0.0016724299639463425,-0.007752269972115755,-0.0013971988810226321,12808.0,14953.0,14136.0,14164.0,0.36341413855552673,0.5047162175178528,0.4481895864009857,0.45007529854774475,0.0,0.0,0.0,0.0,12353.0,15252.0,13847.0,14525.0,2.005774974822998,0.030361277706016095,-0.020636045120042735,-0.03225764314336807,0.10623727738857269,0.100937120616436,0.0
477,5,-0.0031031465623527765,-0.00030290670110844076,0.002630231436342001,-0.016842160373926163,-0.021793382242321968,-0.01982266455888748,0.011232648976147175,0.017714444547891617,-0.01286916434764862,-0.7115383148193359,-0.23397202789783478,0.021142369136214256,0.0,0.0,0.0,0.02715545892715454,-0.021990645676851273,-0.0,0.0,0.0,0.0,0.005122743081301451,-0.009020209312438965,-0.0017578990664333105,12723.0,15242.0,14766.0,14758.0,0.3582715094089508,0.5255129337310791,0.4915122389793396,0.4909611642360687,0.0,0.0,0.0,0.0,12996.0,14992.0,15004.0,14537.0,2.005774974822998,0.029252435860446922,-0.0215739342341791,-0.03211358669619796,0.10623727738857269,0.100937120616436,0.0
