timestamp,dt,pos_x,pos_y,pos_z,vel_x,vel_y,vel_z,roll,pitch,yaw,agv_x,agv_y,agv_z,x_ref,y_ref,z_ref,roll_ref,pitch_ref,yaw_ref,x_vel_ref,y_vel_ref,z_vel_ref,x_torque,y_torque,z_torque,w0,w1,w2,w3,u0,u1,u2,u3,m0req,m1req,m2req,m3req,thrust0,thrust1,thrust2,thrust3,thrust_ref,roll_vicon,pitch_vicon,yaw_vicon,acc_x,acc_y,acc_z
5,5,0.0,0.0,0.0,-2.0837229385506362e-05,0.0011988437036052346,0.0016243638237938285,-0.001924762618727982,-0.08752378821372986,-0.013310552574694157,0.00015024197637103498,0.004189739935100079,-0.0010381749598309398,0.0,0.0,0.0,-0.0014278210001066327,-1.9090090063400567e-05,-0.0,0.0,0.0,0.0,0.000599483260884881,0.02634541690349579,-0.0013182562543079257,1495.0,1495.0,1495.0,1495.0,0.0,0.0,0.0,0.0,0.0,0.0,0.0,0.0,1495.0,1495.0,1495.0,1495.0,1.6986808776855469,-0.029893031800912555,0.09256572162617932,0.0063599496232226915,7.813960837665945e-05,-0.004495664034038782,0.0
31,26,0.0,0.0,0.0,0.0008087019086815417,-0.00042979023419320583,-0.0018977968720719218,-0.001924762618727982,-0.08752378821372986,-0.013310552574694157,0.00015024197637103498,0.004189739935100079,-0.0010381749598309398,0.0,0.0,0.0,-0.0014278210001066327,-1.9090090063400567e-05,-0.0,0.0,0.0,0.0,0.000599483260884881,0.02634541690349579,-0.0013182562543079257,1495.0,1495.0,1495.0,1495.0,0.0,0.0,0.0,0.0,0.0,0.0,0.0,0.0,1495.0,1495.0,1495.0,1495.0,1.6986808776855469,-0.030310330517946973,0.09247457360973764,0.0066133048040106,7.813960837665945e-05,-0.004495664034038782,0.0
36,5,0.0,0.0,0.0,-0.0008034159545786679,-0.00022644642740488052,-6.194146408233792e-05,-0.001924762618727982,-0.08752378821372986,-0.013310552574694157,0.00015024197637103498,0.004189739935100079,-0.0010381749598309398,0.0,0.0,0.0,0.0005118498811498284,0.0007408516248688102,-0.0,0.0,0.0,0.0,0.000599483260884881,0.02634541690349579,-0.0013182562543079257,1495.0,1495.0,1495.0,1495.0,0.0,0.0,0.0,0.0,0.0,0.0,0.0,0.0,1495.0,1495.0,1495.0,1495.0,1.6987782716751099,-0.029898950365440123,0.09263403272791083,0.006517850088196431,-0.0030326321721076965,0.001611713320016861,0.0
41,5,0.0,0.0,0.0,5.752293873229064e-05,0.0012203071964904666,0.0004480464558582753,-0.001939372275955975,-0.08751022815704346,-0.013315712101757526,-0.00440624775364995,0.002362394006922841,-0.004121023695915937,0.0,0.0,0.0,0.0005118498811498284,0.0007408516248688102,-0.0,0.0,0.0,0.0,0.00014430641022045165,0.026321612298488617,-0.0014494439819827676,1495.0,1495.0,1495.0,1495.0,0.0,0.0,0.0,0.0,0.0,0.0,0.0,0.0,1495.0,1495.0,1495.0,1495.0,1.6987782716751099,-0.029782205284348814,0.09256908448513301,0.006194379709212441,-0.0030326321721076965,0.001611713320016861,0.0
53,12,-9.553711606713478e-06,1.3427715202851687e-05,-1.432089902664302e-05,-0.0011234362609684467,-0.0011232029646635056,0.0018977264408022165,-0.0019517081091180444,-0.08752061426639557,-0.013345301151275635,0.0058283256366848946,0.002231493592262268,-0.001543276128359139,0.0,0.0,0.0,-0.0014532068744301796,5.269338726066053e-05,-0.0,0.0,0.0,0.0,0.00014430641022045165,0.026321612298488617,-0.0014494439819827676,1495.0,1495.0,1495.0,1495.0,0.0,0.0,0.0,0.0,0.0,0.0,0.0,0.0,1495.0,1495.0,1495.0,1495.0,1.6988879442214966,-0.030489030544757,0.09210917173977429,0.0067278583612474735,-0.000215711013879627,-0.004576152190566063,0.0
58,5,-7.298563559743343e-06,1.5360774341388606e-05,-2.39819291891763e-05,-0.0006441929144784808,-7.932903827168047e-05,0.0013177068904042244,-0.0019517081091180444,-0.08752061426639557,-0.013345301151275635,0.0058283256366848946,0.002231493592262268,-0.001543276128359139,0.0,0.0,0.0,-0.0014532068744301796,5.269338726066053e-05,-0.0,0.0,0.0,0.0,0.00014430641022045165,0.026321612298488617,-0.0014494439819827676,1495.0,1495.0,1495.0,1495.0,0.0,0.0,0.0,0.0,0.0,0.0,0.0,0.0,1495.0,1495.0,1495.0,1495.0,1.6988879442214966,-0.031095070760204818,0.09240305142071975,0.006917574049753158,-0.000215711013879627,-0.004576152190566063,0.0
63,5,-2.1857213141629472e-05,1.6355637853848748e-05,-9.298390068579465e-06,-0.002004715148359537,-0.00015111522225197405,-0.0012349419994279742,-0.001933745457790792,-0.0874897837638855,-0.013347898609936237,0.00021919998107478023,-0.00032272483804263175,-0.002578558400273323,0.0,0.0,0.0,0.00012127077206969261,-0.0005996994441375136,-0.0,0.0,0.0,0.0,0.0007762043969705701,0.026489382609725,-0.0013452718267217278,14995.0,12331.0,11217.0,16004.0,0.5077099800109863,0.3351389765739441,0.2735360264778137,0.5823933482170105,0.0,0.0,0.0,0.0,1495.0,1495.0,1495.0,1495.0,1.6995093822479248,-0.03166918999900173,0.09202985397489298,0.006925338368902445,0.0024558911100029945,0.0003820219135377556,0.0
68,5,-1.9140932636219077e-05,7.503723736590473e-06,-5.435818820842542e-06,-0.00047593226190656424,0.00100178353022784,-0.0009574854047968984,-0.001933745457790792,-0.0874897837638855,-0.013347898609936237,0.00021919998107478023,-0.00032272483804263175,-0.002578558400273323,0.0,0.0,0.0,0.00012127077206969261,-0.0005996994441375136,-0.0,0.0,0.0,0.0,0.0007762043969705701,0.026489382609725,-0.0013452718267217278,14995.0,12331.0,11217.0,16004.0,0.5077099800109863,0.3351389765739441,0.2735360264778137,0.5823933482170105,0.0,0.0,0.0,0.0,1495.0,1495.0,1495.0,1495.0,1.6995093822479248,-0.030032656511053763,0.0928018083032704,0.006665849410934262,0.0024558911100029945,0.0003820219135377556,0.0
73,5,-1.6838266674312763e-05,-1.1812537650257582e-06,1.6593703549006023e-05,8.594690734753385e-05,0.0014429106377065182,-0.0030265366658568382,-0.0019341054139658809,-0.08751212060451508,-0.013351294212043285,-0.0020755266305059195,0.008708002977073193,-0.004983942024409771,0.0,0.0,0.0,-0.0011793755693361163,-0.0004615285142790526,-0.0,0.0,0.0,0.0,0.00017597227997612208,0.026332296431064606,-0.001422869972884655,15015.0,12394.0,11133.0,15996.0,0.5091373920440674,0.3388010859489441,0.269135057926178,0.5818142890930176,0.0,0.0,0.0,0.0,15017.0,12391.0,11148.0,15986.0,1.6995651721954346,-0.030094969257737775,0.09240453331078168,0.006615063301550801,0.0018901136936619878,-0.0037153377197682858,0.0
78,5,1.0713095434766728e-05,4.956757493346231e-07,1.533030444988981e-05,0.0033405423164367676,0.0003759327228181064,-0.0010590067831799388,-0.0019341054139658809,-0.08751212060451508,-0.013351294212043285,-0.0020755266305059195,0.008708002977073193,-0.004983942024409771,0.0,0.0,0.0,-0.0011793755693361163,-0.0004615285142790526,-0.0,0.0,0.0,0.0,0.00017597227997612208,0.026332296431064606,-0.001422869972884655,15015.0,12394.0,11133.0,15996.0,0.5091373920440674,0.3388010859489441,0.269135057926178,0.5818142890930176,0.0,0.0,0.0,0.0,15017.0,12391.0,11148.0,15986.0,1.6995651721954346,-0.029422659560778976,0.09263541794443567,0.006173833096803895,0.0018901136936619878,-0.0037153377197682858,0.0
83,5,1.2252660326339537e-06,6.547837983816862e-06,-5.063216576672858e-06,0.0001976773637579754,-0.0005758863990195096,0.002023619832471013,-0.0019341054139658809,-0.08751212060451508,-0.013351294212043285,-0.0020755266305059195,0.008708002977073193,-0.004983942024409771,0.0,0.0,0.0,-0.0011793755693361163,-0.0004615285142790526,-0.0,0.0,0.0,0.0,0.00017597227997612208,0.026332296431064606,-0.001422869972884655,15015.0,12394.0,11133.0,15996.0,0.5091373920440674,0.3388010859489441,0.269135057926178,0.5818142890930176,0.0,0.0,0.0,0.0,15017.0,12391.0,11148.0,15986.0,1.6995651721954346,-0.029183758987971813,0.09286511649578706,0.006344963094921151,0.0018901136936619878,-0.0037153377197682858,0.0
91,8,-2.1580948668997735e-05,1.9897019228665158e-05,4.426949999469798e-06,-0.002209936734288931,-0.0009604117949493229,-0.0007460140623152256,-0.001945284428074956,-0.08749537914991379,-0.01341237686574459,0.0025847468059509993,0.0004630043695215136,-0.0007403200725093484,0.0,0.0,0.0,0.000696958159096539,0.0001826247462304309,-0.0,0.0,0.0,0.0,0.00021751062013208866,0.02609916217625141,-0.0013639581156894565,15000.0,12363.0,11246.0,15965.0,0.5080517530441284,0.33699679374694824,0.27502334117889404,0.5794374942779541,0.0,0.0,0.0,0.0,15022.0,12385.0,11227.0,15941.0,1.699635624885559,-0.032375164884454445,0.09171278050825646,0.007204596479202815,-0.0007479408523067832,0.0021956900600343943,0.0
96,5,-8.966910172603093e-06,1.3985556506668217e-05,-2.2114567400421947e-05,0.0006297100335359573,0.000325210829032585,0.0028865765780210495,-0.001945284428074956,-0.08749537914991379,-0.01341237686574459,0.0025847468059509993,0.0004630043695215136,-0.0007403200725093484,0.0,0.0,0.0,0.000696958159096539,0.0001826247462304309,-0.0,0.0,0.0,0.0,0.00021751062013208866,0.02609916217625141,-0.0013639581156894565,15000.0,12363.0,11246.0,15965.0,0.5080517530441284,0.33699679374694824,0.27502334117889404,0.5794374942779541,0.0,0.0,0.0,0.0,15022.0,12385.0,11227.0,15941.0,1.699635624885559,-0.030926771593756723,0.09222273394437956,0.00697840496114286,-0.0007479408523067832,0.0021956900600343943,0.0
101,5,-1.5751145838294178e-05,8.84397559275385e-06,-1.0061888133350294e-05,-0.000562224187888205,0.0007470740238204598,-0.00029169098706915975,-0.0019510498968884349,-0.08744369447231293,-0.01341596432030201,-0.00016002649499569088,-0.0005860141245648265,-0.0007490208372473717,0.0,0.0,0.0,-0.00036236929008737206,0.0005640882882289588,-0.0,0.0,0.0,0.0,0.00021751062013208866,0.02609916217625141,-0.0013639581156894565,15012.0,12395.0,11217.0,15950.0,0.5089665651321411,0.3388385772705078,0.2735043168067932,0.5782557725906372,0.0,0.0,0.0,0.0,15022.0,12385.0,11227.0,15941.0,1.7009211778640747,-0.03053956303689087,0.09225657400924217,0.00667183203054572,-0.002311974996700883,-0.0011424681870266795,0.0
107,5,-1.7684957128949463e-05,1.1077504495915491e-05,1.606233922757383e-06,-0.0004569471057038754,3.080615715589374e-05,-0.001516851014457643,-0.0019510498968884349,-0.08744369447231293,-0.01341596432030201,-0.00016002649499569088,-0.0005860141245648265,-0.0007490208372473717,0.0,0.0,0.0,-0.00036236929008737206,0.0005640882882289588,-0.0,0.0,0.0,0.0,0.00021751062013208866,0.02609916217625141,-0.0013639581156894565,15012.0,12395.0,11217.0,15950.0,0.5089665651321411,0.3388385772705078,0.2735043168067932,0.5782557725906372,0.0,0.0,0.0,0.0,15022.0,12385.0,11227.0,15941.0,1.7009211778640747,-0.029665880863524938,0.09242565629721217,0.006438022874490175,-0.002311974996700883,-0.0011424681870266795,0.0
112,5,-1.5933568647596985e-05,9.892677553580143e-06,1.6269555999315344e-05,2.7387632144382223e-05,0.00015450178761966527,-0.0023663390893489122,-0.0019429203821346164,-0.08744771033525467,-0.013440236449241638,0.0018567076185718179,0.005037588533014059,-0.004281315021216869,0.0,0.0,0.0,-1.7255837519769557e-05,-0.0004418382013682276,-0.0,0.0,0.0,0.0,0.00018953296239487827,0.026332320645451546,-0.0014644581824541092,14990.0,12428.0,11138.0,15999.0,0.5073484182357788,0.34079509973526,0.26937949657440186,0.5820421576499939,0.0,0.0,0.0,0.0,15005.0,12406.0,11183.0,15971.0,1.7009963989257812,-0.029162250374363177,0.09283635097697268,0.006171063045175955,0.001811000402085483,-5.4406151321018115e-05,0.0
117,5,-1.2238791896379553e-05,1.084488849301124e-05,1.709731986920815e-05,0.0004543283430393785,-5.2464642067207024e-05,-0.0010458673350512981,-0.0019429203821346164,-0.08744771033525467,-0.013440236449241638,0.0018567076185718179,0.005037588533014059,-0.004281315021216869,0.0,0.0,0.0,-1.7255837519769557e-05,-0.0004418382013682276,-0.0,0.0,0.0,0.0,0.00018953296239487827,0.026332320645451546,-0.0014644581824541092,14990.0,12428.0,11138.0,15999.0,0.5073484182357788,0.34079509973526,0.26937949657440186,0.5820421576499939,0.0,0.0,0.0,0.0,15005.0,12406.0,11183.0,15971.0,1.7009963989257812,-0.029988966274702343,0.09235942070430964,0.006615479849475816,0.001811000402085483,-5.4406151321018115e-05,0.0
122,5,4.066614565090276e-06,1.2836299902119208e-05,7.08658149051189e-07,0.002138380194082856,-0.00025995520991273224,0.0015482924645766616,-0.0019429203821346164,-0.08744771033525467,-0.013440236449241638,0.0018567076185718179,0.005037588533014059,-0.004281315021216869,0.0,0.0,0.0,8.136631367960945e-05,0.0003990699478890747,-0.0,0.0,0.0,0.0,0.00018953296239487827,0.026332320645451546,-0.0014644581824541092,14990.0,12428.0,11138.0,15999.0,0.5073484182357788,0.34079509973526,0.26937949657440186,0.5820421576499939,0.0,0.0,0.0,0.0,15005.0,12406.0,11183.0,15971.0,1.7015070915222168,-0.03081474397402766,0.09226024319670367,0.006915136385143795,-0.0016361935995519161,0.00025661790277808905,0.0
127,5,-4.567681116895983e-06,1.4724813581779017e-06,7.5861112236452755e-06,-0.00018076343985740095,0.001259676064364612,-0.00020597741240635514,-0.0019405852071940899,-0.08744558691978455,-0.013460355810821056,0.0010657376842573285,0.00663619814440608,-0.0012340021785348654,0.0,0.0,0.0,8.136631367960945e-05,0.0003990699478890747,-0.0,0.0,0.0,0.0,0.0004576846840791404,0.02661237120628357,-0.0012584214564412832,15036.0,12343.0,11186.0,16005.0,0.510678231716156,0.33586421608924866,0.27189716696739197,0.5824815034866333,0.0,0.0,0.0,0.0,15006.0,12381.0,11144.0,16034.0,1.7015070915222168,-0.030743280984844152,0.09236311123243403,0.006841343998690342,-0.0016361935995519161,0.00025661790277808905,0.0
132,5,-5.896550192119321e-06,4.299885404179804e-06,1.522729689895641e-05,-0.00023176964896265417,0.0001645819575060159,-0.0009993332205340266,-0.0019381981110200286,-0.08744534105062485,-0.013460425660014153,-0.00027820252580568194,0.006187174469232559,0.0002756721805781126,0.0,0.0,0.0,-0.0014947649324312806,-0.000171475054230541,-0.0,0.0,0.0,0.0,0.0005967260804027319,0.026488542556762695,-0.0013813016703352332,15034.0,12329.0,11257.0,15970.0,0.5105270147323608,0.33504506945610046,0.27564629912376404,0.5797779560089111,0.0,0.0,0.0,0.0,15005.0,12364.0,11220.0,15997.0,1.7019321918487549,-0.03107873105522012,0.09235943619827504,0.006939009605568963,0.0007032254943624139,-0.004715452902019024,0.0
137,5,-1.0906111128861085e-05,1.4532956811308395e-05,-7.72709881857736e-06,-0.000693855166900903,-0.0011621357407420874,0.002354794181883335,-0.0019381981110200286,-0.08744534105062485,-0.013460425660014153,-0.00027820252580568194,0.006187174469232559,0.0002756721805781126,0.0,0.0,0.0,-0.0014947649324312806,-0.000171475054230541,-0.0,0.0,0.0,0.0,0.0005967260804027319,0.026488542556762695,-0.0013813016703352332,15034.0,12329.0,11257.0,15970.0,0.5105270147323608,0.33504506945610046,0.27564629912376404,0.5797779560089111,0.0,0.0,0.0,0.0,15005.0,12364.0,11220.0,15997.0,1.7019321918487549,-0.03034121222306244,0.09273027330308838,0.006611511157216141,0.0007032254943624139,-0.004715452902019024,0.0
142,5,-2.2468124370789155e-05,7.507135705964174e-06,-1.0394625860499218e-05,-0.0016649835743010044,0.0003782442072406411,0.0012620209017768502,-0.0019474399741739035,-0.08748284727334976,-0.01346319355070591,0.001524992287158966,0.009865380823612213,-0.0030514835380017757,0.0,0.0,0.0,0.0014068841701373458,-0.0006491569220088422,-0.0,0.0,0.0,0.0,0.000646187283564359,0.026608608663082123,-0.0014917923836037517,15002.0,12367.0,11187.0,16019.0,0.5082643032073975,0.3372351825237274,0.27194681763648987,0.5835501551628113,0.0,0.0,0.0,0.0,15026.0,12349.0,11186.0,16019.0,1.701933741569519,-0.02952983331835335,0.09283440684761547,0.006041259525704907,0.0026622191071510315,0.0044382247142493725,0.0
149,7,-6.255754215089837e-06,2.0030160158057697e-05,-5.273366332403384e-05,0.001279490883462131,-0.0013514653546735644,0.005585493054240942,-0.0019474399741739035,-0.08748284727334976,-0.01346319355070591,0.001524992287158966,0.009865380823612213,-0.0030514835380017757,0.0,0.0,0.0,0.0014068841701373458,-0.0006491569220088422,-0.0,0.0,0.0,0.0,0.000646187283564359,0.026608608663082123,-0.0014917923836037517,15002.0,12367.0,11187.0,16019.0,0.5082643032073975,0.3372351825237274,0.27194681763648987,0.5835501551628113,0.0,0.0,0.0,0.0,15026.0,12349.0,11186.0,16019.0,1.701933741569519,-0.030054823008918406,0.09216534763314752,0.006757304466996319,0.0026622191071510315,0.0044382247142493725,0.0
154,5,-6.857550488348352e-06,2.281520028191153e-05,-1.4537017705151811e-05,0.00043958076275885105,-0.0008747907704673707,-0.0023494004271924496,-0.0019737600814551115,-0.08751656115055084,-0.013481044210493565,-0.0011717284796759486,0.0028876936994493008,-0.0002585109614301473,0.0,0.0,0.0,0.0016414937563240528,0.001161466003395617,-0.0,0.0,0.0,0.0,0.00017357645265292376,0.026516932994127274,-0.00138392997905612,15037.0,12391.0,11177.0,15987.0,0.5107641220092773,0.338623583316803,0.27144038677215576,0.581104040145874,0.0,0.0,0.0,0.0,15040.0,12387.0,11162.0,15999.0,1.7019933462142944,-0.02912440041352161,0.09276841255390149,0.006103320515928059,-0.004763383883982897,0.005178515799343586,0.0
159,5,-1.5946290659485385e-05,3.0032588256290182e-05,-2.360709368076641e-05,-0.0009148165117949247,-0.0012160029727965593,0.00014864900731481612,-0.0019737600814551115,-0.08751656115055084,-0.013481044210493565,-0.0011717284796759486,0.0028876936994493008,-0.0002585109614301473,0.0,0.0,0.0,0.0016414937563240528,0.001161466003395617,-0.0,0.0,0.0,0.0,0.00017357645265292376,0.026516932994127274,-0.00138392997905612,15037.0,12391.0,11177.0,15987.0,0.5107641220092773,0.338623583316803,0.27144038677215576,0.581104040145874,0.0,0.0,0.0,0.0,15040.0,12387.0,11162.0,15999.0,1.7019933462142944,-0.030112761870583628,0.0923827855818019,0.006843275929189329,-0.004763383883982897,0.005178515799343586,0.0
164,5,-4.796855819222401e-07,4.679831909015775e-05,-5.1685139624169096e-05,0.00149006606079638,-0.0024982888717204332,0.003428824944421649,-0.001960958819836378,-0.08746350556612015,-0.013490448705852032,0.005580217111855745,-0.0029283950570970774,-0.017363179475069046,0.0,0.0,0.0,0.001497614081017673,-0.0008577642147429287,-0.0,0.0,0.0,0.0,0.0009381993440911174,0.02605854719877243,-0.0015844270819798112,14852.0,12507.0,11113.0,16114.0,0.4975711703300476,0.34543275833129883,0.26810991764068604,0.5908198952674866,0.0,0.0,0.0,0.0,14985.0,12334.0,11277.0,16011.0,1.702367901802063,-0.028952576610647204,0.09310499721178861,0.007271548996731074,0.0035186228342354298,0.004725650418549776,0.0
169,5,8.521307609044015e-05,3.998289685114287e-05,-0.0002446295693516731,0.010879158042371273,-0.00018146475485991687,0.024524861946702003,-0.001960958819836378,-0.08746350556612015,-0.013490448705852032,0.005580217111855745,-0.0029283950570970774,-0.017363179475069046,0.0,0.0,0.0,0.001497614081017673,-0.0008577642147429287,-0.0,0.0,0.0,0.0,0.0009381993440911174,0.02605854719877243,-0.0015844270819798112,14852.0,12507.0,11113.0,16114.0,0.4975711703300476,0.34543275833129883,0.26810991764068604,0.5908198952674866,0.0,0.0,0.0,0.0,14985.0,12334.0,11277.0,16011.0,1.702367901802063,-0.028918302214044546,0.09309551494943939,0.007396825804016256,0.0035186228342354298,0.004725650418549776,0.0
174,5,0.00010556864435784519,3.7243153201416135e-05,-0.0001949766738107428,0.004428568761795759,0.0002152079250663519,0.002681385725736618,-0.0019189524464309216,-0.08747987449169159,-0.013679186813533306,-0.00228111632168293,0.01602070964872837,-0.01988212950527668,0.0,0.0,0.0,0.00027993100229650736,0.009862278588116169,-0.0,0.0,0.0,0.0,0.0009436073596589267,0.02702351100742817,-0.0020753173157572746,14768.0,12591.0,10827.0,16316.0,0.49163177609443665,0.35042357444763184,0.2534460425376892,0.6064918637275696,0.0,0.0,0.0,0.0,15277.0,11930.0,11646.0,15782.0,1.7364591360092163,-0.027881206030453586,0.09379923588180505,0.007371085835202216,-0.04126545786857605,0.0009009985369630158,0.0
179,5,0.0001027324833557941,1.7803637092583813e-05,-0.00018474122043699026,0.0014310884289443493,0.0024188251700252295,-0.00015569900278933346,-0.0019189524464309216,-0.08747987449169159,-0.013679186813533306,-0.00228111632168293,0.01602070964872837,-0.01988212950527668,0.0,0.0,0.0,0.00027993100229650736,0.009862278588116169,-0.0,0.0,0.0,0.0,0.0009436073596589267,0.02702351100742817,-0.0020753173157572746,14768.0,12591.0,10827.0,16316.0,0.49163177609443665,0.35042357444763184,0.2534460425376892,0.6064918637275696,0.0,0.0,0.0,0.0,15277.0,11930.0,11646.0,15782.0,1.7364591360092163,-0.02804119242898851,0.09360243581252997,0.00674647538923687,-0.04126545786857605,0.0009009985369630158,0.0
184,5,0.0001027324833557941,1.7803637092583813e-05,-0.00018474122043699026,0.0014310884289443493,0.0024188251700252295,-0.00015569900278933346,-0.0019189524464309216,-0.08747987449169159,-0.013679186813533306,-0.00228111632168293,0.01602070964872837,-0.01988212950527668,0.0,0.0,0.0,-0.0028363901656121016,0.001442541484721005,-0.0,0.0,0.0,0.0,0.0014732741983607411,0.025901103392243385,-0.00042004481656476855,14878.0,12423.0,11231.0,16079.0,0.49941834807395935,0.34050166606903076,0.27426445484161377,0.5881834030151367,0.0,0.0,0.0,0.0,15277.0,11930.0,11646.0,15782.0,1.7065396308898926,-0.02804119242898851,0.09360243581252997,0.00674647538923687,-0.005931911990046501,-0.00897201243788004,0.0
189,5,0.000100325072708074,4.819933747057803e-05,-0.00018587589147500694,5.895476715522818e-05,-0.0041005271486938,0.0008764770464040339,-0.0019189524464309216,-0.08747987449169159,-0.013679186813533306,-0.00228111632168293,0.01602070964872837,-0.01988212950527668,0.0,0.0,0.0,-0.0028363901656121016,0.001442541484721005,-0.0,0.0,0.0,0.0,0.0014732741983607411,0.025901103392243385,-0.00042004481656476855,14878.0,12423.0,11231.0,16079.0,0.49941834807395935,0.34050166606903076,0.27426445484161377,0.5881834030151367,0.0,0.0,0.0,0.0,15277.0,11930.0,11646.0,15782.0,1.7065396308898926,-0.028263631643245187,0.09361403645258055,0.007827699299367556,-0.005931911990046501,-0.00897201243788004,0.0
195,5,0.00011143787560286,4.6814795496175066e-05,-0.00020275831047911197,0.0013571184827014804,-0.0014740657061338425,0.0023764814250171185,-0.0019189524464309216,-0.08747987449169159,-0.013679186813533306,-0.00228111632168293,0.01602070964872837,-0.01988212950527668,0.0,0.0,0.0,0.004945298656821251,0.00018810744222719222,-0.0,0.0,0.0,0.0,0.0014732741983607411,0.025901103392243385,-0.00042004481656476855,14878.0,12423.0,11231.0,16079.0,0.49941834807395935,0.34050166606903076,0.27426445484161377,0.5881834030151367,0.0,0.0,0.0,0.0,15277.0,11930.0,11646.0,15782.0,1.7065519094467163,-0.02820348887019512,0.09368834082844006,0.006877866972592925,-0.0007735209655947983,0.015642903745174408,0.0
200,5,0.00015116365102585405,-4.975163392373361e-05,-0.00029440788784995675,0.005309940781444311,0.010998344980180264,0.011948540806770325,-0.001977037638425827,-0.08762635290622711,-0.013603387400507927,0.003770958399400115,-7.058645860524848e-05,0.12167277187108994,0.0,0.0,0.0,0.004945298656821251,0.00018810744222719222,-0.0,0.0,0.0,0.0,0.0004921981017105281,0.02979345992207527,-0.0008365634130313993,15972.0,11406.0,11982.0,15679.0,0.5799826383590698,0.2835308909416199,0.31518763303756714,0.5577579736709595,0.0,0.0,0.0,0.0,14305.0,13468.0,9530.0,17234.0,1.7065519094467163,-0.035958489645981404,0.0888069434407325,0.006728910807562383,-0.0007735209655947983,0.015642903745174408,0.0
205,5,0.0001059123533195816,5.2759238315047696e-05,-0.00020207211491651833,-0.003306179540231824,-0.007901966571807861,-0.00630087498575449,-0.001977037638425827,-0.08762635290622711,-0.013603387400507927,0.003770958399400115,-7.058645860524848e-05,0.12167277187108994,0.0,0.0,0.0,-0.012799011543393135,0.004919668193906546,-0.0,0.0,0.0,0.0,0.0004921981017105281,0.02979345992207527,-0.0008365634130313993,15972.0,11406.0,11982.0,15679.0,0.5799826383590698,0.2835308909416199,0.31518763303756714,0.5577579736709595,0.0,0.0,0.0,0.0,14305.0,13468.0,9530.0,17234.0,1.7500889301300049,-0.025819747580415758,0.09449650019274435,0.006623529462933895,-0.02074486017227173,-0.04151676967740059,0.0
210,5,5.234396303421818e-05,-2.0069843230885454e-05,-0.00025298225227743387,-0.0077506788074970245,0.005578703247010708,0.0035888650454580784,-0.0019965949468314648,-0.08764452487230301,-0.0136485043913126,0.013822941109538078,-0.00450490228831768,-0.1358058899641037,0.0,0.0,0.0,-0.012799011543393135,0.004919668193906546,-0.0,0.0,0.0,0.0,-0.0002824848925229162,0.027306808158755302,-0.005586167331784964,13615.0,14055.0,8869.0,17301.0,0.4138984680175781,0.44274836778640747,0.16402648389339447,0.6858662366867065,0.0,0.0,0.0,0.0,16349.0,10681.0,12799.0,14722.0,1.7500889301300049,-0.03225793680911638,0.09320521699120249,0.0068831364718617725,-0.02074486017227173,-0.04151676967740059,0.0
215,5,2.2485959561890922e-05,2.6027615604107268e-05,-9.873864473775029e-05,-0.006683231797069311,-0.0033002139534801245,-0.01707368530333042,-0.0019965949468314648,-0.08764452487230301,-0.0136485043913126,0.013822941109538078,-0.00450490228831768,-0.1358058899641037,0.0,0.0,0.0,-0.006590514909476042,-0.006937013473361731,-0.0,0.0,0.0,0.0,-0.0002824848925229162,0.027306808158755302,-0.005586167331784964,13615.0,14055.0,8869.0,17301.0,0.4138984680175781,0.44274836778640747,0.16402648389339447,0.6858662366867065,0.0,0.0,0.0,0.0,16349.0,10681.0,12799.0,14722.0,1.7215344905853271,-0.027766287273107135,0.09275000420533915,0.006685761078157609,0.028775788843631744,-0.021029934287071228,0.0
220,5,2.0989784388802946e-05,1.998332118091639e-05,-8.67495036800392e-05,-0.0028528335969895124,-0.0005947701865807176,-0.008268171921372414,-0.0018396498635411263,-0.087295763194561,-0.013534524478018284,-0.011016860604286194,-0.042089857161045074,0.021643493324518204,0.0,0.0,0.0,-0.006590514909476042,-0.006937013473361731,-0.0,0.0,0.0,0.0,0.0020426863338798285,0.025269702076911926,0.0003945829812437296,15297.0,11803.0,12041.0,15620.0,0.5295042395591736,0.3051750063896179,0.3184753656387329,0.5533972978591919,0.0,0.0,0.0,0.0,14567.0,12787.0,10859.0,16383.0,1.7215344905853271,-0.02762211456490576,0.09172064844738582,0.006562321081339793,0.028775788843631744,-0.021029934287071228,0.0
225,5,4.9591897550271824e-05,1.1691426152538043e-05,-9.13889889488928e-05,0.0022911198902875185,0.0007571193273179233,-0.0027505296748131514,-0.0018396498635411263,-0.087295763194561,-0.013534524478018284,-0.011016860604286194,-0.042089857161045074,0.021643493324518204,0.0,0.0,0.0,0.0007413836428895593,-0.0025777702685445547,-0.0,0.0,0.0,0.0,0.0020426863338798285,0.025269702076911926,0.0003945829812437296,15297.0,11803.0,12041.0,15620.0,0.5295042395591736,0.3051750063896179,0.3184753656387329,0.5533972978591919,0.0,0.0,0.0,0.0,14567.0,12787.0,10859.0,16383.0,1.7034963369369507,-0.027782242775642875,0.08988934068001629,0.006287905532323397,0.01058124378323555,0.0023409528657794,0.0
230,5,2.8705710064969026e-05,2.0411715013324283e-05,-6.139360630186275e-05,-0.0015898944111540914,-0.0007435869192704558,-0.004699658136814833,-0.0017749904654920101,-0.08675915002822876,-0.01401551067829132,0.015551176853477955,-0.1223837360739708,0.035442713648080826,0.0,0.0,0.0,0.0007413836428895593,-0.0025777702685445547,-0.0,0.0,0.0,0.0,-0.003947599790990353,0.024920683354139328,-0.0018087481148540974,15430.0,12901.0,11392.0,15695.0,0.5392807126045227,0.3690447211265564,0.28279727697372437,0.5589662194252014,0.0,0.0,0.0,0.0,15590.0,12615.0,11858.0,15425.0,1.7034963369369507,-0.02773983549201186,0.08932775085338049,0.006119562542233008,0.01058124378323555,0.0023409528657794,0.0
235,5,-1.3314305761014111e-05,5.1850434829248115e-05,1.2494196198531426e-05,-0.0056783598847687244,-0.004070081282407045,-0.010746399872004986,-0.0017749904654920101,-0.08675915002822876,-0.01401551067829132,0.015551176853477955,-0.1223837360739708,0.035442713648080826,0.0,0.0,0.0,0.0009134772117249668,-0.0014053010381758213,-0.0,0.0,0.0,0.0,-0.003947599790990353,0.024920683354139328,-0.0018087481148540974,15430.0,12901.0,11392.0,15695.0,0.5392807126045227,0.3690447211265564,0.28279727697372437,0.5589662194252014,0.0,0.0,0.0,0.0,15590.0,12615.0,11858.0,15425.0,1.7135939598083496,-0.0284950406132456,0.08727453035955912,0.006560529279504467,0.005802683532238007,0.0029014432802796364,0.0
240,5,-0.00012170901754871011,4.388612069305964e-05,0.0002544192539062351,-0.01527870912104845,-0.0006723146652802825,-0.033329565078020096,-0.002092572394758463,-0.08481727540493011,-0.014178462326526642,-0.011177528649568558,-0.23232495784759521,-0.06682338565587997,0.0,0.0,0.0,0.0009134772117249668,-0.0014053010381758213,-0.0,0.0,0.0,0.0,-0.0007865121006034315,0.01822669245302677,-0.0029431721195578575,13978.0,13886.0,11166.0,15992.0,0.43761885166168213,0.4315473437309265,0.2708703279495239,0.5814979672431946,0.0,0.0,0.0,0.0,13870.0,14037.0,11337.0,15836.0,1.7135939598083496,-0.028351963450351993,0.0837765947179455,0.006440235593869671,0.005802683532238007,0.0029014432802796364,0.0
245,5,-0.0001778496807673946,2.83324461634038e-05,0.0003154182049911469,-0.012848363257944584,0.0015975149581208825,-0.02065170183777809,-0.002092572394758463,-0.08481727540493011,-0.014178462326526642,-0.011177528649568558,-0.23232495784759521,-0.06682338565587997,0.0,0.0,0.0,0.0008373044547624886,-0.013510090298950672,-0.0,0.0,0.0,0.0,-0.0007865121006034315,0.01822669245302677,-0.0029431721195578575,13978.0,13886.0,11166.0,15992.0,0.43761885166168213,0.4315473437309265,0.2708703279495239,0.5814979672431946,0.0,0.0,0.0,0.0,13870.0,14037.0,11337.0,15836.0,1.780563235282898,-0.030029010246217798,0.07953163972363221,0.005602478694470257,0.05796344578266144,0.002763435011729598,0.0
250,5,-0.00025032940902747214,5.640503150061704e-05,0.0004599634266924113,-0.013836913742125034,-0.002729704137891531,-0.025606106966733932,-0.0020439985673874617,-0.08197811245918274,-0.014098580926656723,0.025564931333065033,-0.5229706168174744,0.005870274268090725,0.0,0.0,0.0,0.0008373044547624886,-0.013510090298950672,-0.0,0.0,0.0,0.0,0.0009264962282031775,0.010182705707848072,8.262770279543474e-05,14205.0,13277.0,12995.0,14653.0,0.452812135219574,0.3923196792602539,0.37481123208999634,0.48355329036712646,0.0,0.0,0.0,0.0,13532.0,14102.0,12406.0,15020.0,1.780563235282898,-0.02688597686497269,0.07526725231341505,0.00564180507815776,0.05796344578266144,0.002763435011729598,0.0
255,5,-0.0004187295853625983,3.266472776886076e-05,0.0006855435203760862,-0.0257427841424942,0.001756954938173294,-0.03731205686926842,-0.0020439985673874617,-0.08197811245918274,-0.014098580926656723,0.025564931333065033,-0.5229706168174744,0.005870274268090725,0.0,0.0,0.0,0.0032135380897670984,-0.0124835055321455,-0.0,0.0,0.0,0.0,0.0009264962282031775,0.010182705707848072,8.262770279543474e-05,14205.0,13277.0,12995.0,14653.0,0.452812135219574,0.3923196792602539,0.37481123208999634,0.48355329036712646,0.0,0.0,0.0,0.0,13532.0,14102.0,12406.0,15020.0,1.7707897424697876,-0.02928630653059882,0.06921255971634023,0.00489807704737591,0.05326500162482262,0.010547696612775326,0.0
260,5,-0.0005123101873323321,6.205603131093085e-05,0.0008318780455738306,-0.02152678743004799,-0.0028241747058928013,-0.03248496353626251,-0.0010029515251517296,-0.07409454882144928,-0.014328811317682266,0.13053752481937408,-0.8602805733680725,0.025614535436034203,0.0,0.0,0.0,0.0032135380897670984,-0.0124835055321455,-0.0,0.0,0.0,0.0,-0.0011189376236870885,-0.0006768665043637156,-0.001750538474880159,13290.0,14574.0,13412.0,14035.0,0.3931983411312103,0.47807130217552185,0.40090981125831604,0.4414145052433014,0.0,0.0,0.0,0.0,13401.0,14542.0,13950.0,13426.0,1.7707897424697876,-0.027062343135011355,0.06290158897855555,0.005400946684139495,0.05326500162482262,0.010547696612775326,0.0
265,5,-0.0006538264569826424,9.476450213696808e-05,0.0010031970450654626,-0.025592666119337082,-0.005054686218500137,-0.033552270382642746,-0.0010029515251517296,-0.07409454882144928,-0.014328811317682266,0.13053752481937408,-0.8602805733680725,0.025614535436034203,0.0,0.0,0.0,0.003190740942955017,-0.018756156787276268,-0.0,0.0,0.0,0.0,-0.0011189376236870885,-0.0006768665043637156,-0.001750538474880159,13290.0,14574.0,13412.0,14035.0,0.3931983411312103,0.47807130217552185,0.40090981125831604,0.4414145052433014,0.0,0.0,0.0,0.0,13401.0,14542.0,13950.0,13426.0,1.848633885383606,-0.02653220382560312,0.05619103790694985,0.005906881067294964,0.08354471623897552,0.01093325950205326,0.0
271,5,-0.0007888206164352596,-4.575703133014031e-05,0.0012857028050348163,-0.026436366140842438,0.014840709045529366,-0.047321587800979614,0.00018333880871068686,-0.06601869314908981,-0.014165207743644714,0.15645566582679749,-1.1724095344543457,-0.03701505810022354,0.0,0.0,0.0,0.003190740942955017,-0.018756156787276268,-0.0,0.0,0.0,0.0,-0.0028597370255738497,-0.02538331039249897,-0.0003443396126385778,12145.0,16061.0,15529.0,11945.0,0.3244074881076813,0.5867329835891724,0.5465898513793945,0.31305941939353943,0.0,0.0,0.0,0.0,11887.0,16308.0,14545.0,13220.0,1.848633885383606,-0.03399346580750819,0.04411517793185086,0.00426656649363283,0.08354471623897552,0.01093325950205326,0.0
276,5,-0.0009070271626114845,0.00010081916843773797,0.001296423259191215,-0.024759333580732346,-0.01165285985916853,-0.020215097814798355,0.00018333880871068686,-0.06601869314908981,-0.014165207743644714,0.15645566582679749,-1.1724095344543457,-0.03701505810022354,0.0,0.0,0.0,-0.0155991455540061,-0.022214194759726524,-0.0,0.0,0.0,0.0,-0.0028597370255738497,-0.02538331039249897,-0.0003443396126385778,12145.0,16061.0,15529.0,11945.0,0.3244074881076813,0.5867329835891724,0.5465898513793945,0.31305941939353943,0.0,0.0,0.0,0.0,11887.0,16308.0,14545.0,13220.0,1.9335668087005615,-0.023254190575345654,0.04360744934921372,0.005737054770767066,0.10347920656204224,-0.05590318515896797,0.0
281,5,-0.0010654809884727001,6.400987331289798e-05,0.001459235674701631,-0.028918186202645302,-0.0002440283860778436,-0.027623523026704788,0.0020618343260139227,-0.05105751007795334,-0.014169782400131226,0.16395261883735657,-1.323506236076355,0.03181830048561096,0.0,0.0,0.0,-0.0155991455540061,-0.022214194759726524,-0.0,0.0,0.0,0.0,-0.003016108414158225,-0.029614301398396492,-0.002295896876603365,11649.0,16895.0,15393.0,12797.0,0.29670417308807373,0.6526042819023132,0.5365807414054871,0.36274468898773193,0.0,0.0,0.0,0.0,11688.0,16398.0,15162.0,12403.0,1.9335668087005615,-0.02358808872261002,0.03826365351685432,0.004739783499404949,0.10347920656204224,-0.05590318515896797,0.0
286,5,-0.001168870716355741,0.00010326755000278354,0.0015574563294649124,-0.023974040523171425,-0.004808533005416393,-0.02283589541912079,0.0020618343260139227,-0.05105751007795334,-0.014169782400131226,0.16395261883735657,-1.323506236076355,0.03181830048561096,0.0,0.0,0.0,0.00035548306186683476,-0.024644015356898308,-0.0,0.0,0.0,0.0,-0.003016108414158225,-0.029614301398396492,-0.002295896876603365,11649.0,16895.0,15393.0,12797.0,0.29670417308807373,0.6526042819023132,0.5365807414054871,0.36274468898773193,0.0,0.0,0.0,0.0,11688.0,16398.0,15162.0,12403.0,1.925174593925476,-0.020687963194250814,0.033883040720581896,0.004663573278079657,0.11431138962507248,0.0012685207184404135,0.0
291,5,-0.0012507331557571888,8.885673014447093e-05,0.0016665876610204577,-0.019413113594055176,-0.00019411508401390165,-0.022230109199881554,0.003444353584200144,-0.040864963084459305,-0.014342604205012321,0.14631009101867676,-1.199333667755127,0.0011215442791581154,0.0,0.0,0.0,0.00035548306186683476,-0.024644015356898308,-0.0,0.0,0.0,0.0,-0.00841630157083273,-0.025470634922385216,-0.0011172030353918672,12879.0,17133.0,15253.0,12875.0,0.36773020029067993,0.6720202565193176,0.5263175368309021,0.36749887466430664,0.0,0.0,0.0,0.0,11865.0,16784.0,15577.0,12521.0,1.925174593925476,-0.018745423944637195,0.030245094000069014,0.00397997003202355,0.11431138962507248,0.0012685207184404135,0.0
296,5,-0.0013896618038415909,2.8767028197762556e-05,0.0019344313768669963,-0.024436691775918007,0.007133118342608213,-0.0410332977771759,0.003444353584200144,-0.040864963084459305,-0.014342604205012321,0.14631009101867676,-1.199333667755127,0.0011215442791581154,0.0,0.0,0.0,0.0003578227770049125,-0.018005117774009705,-0.0,0.0,0.0,0.0,-0.00841630157083273,-0.025470634922385216,-0.0011172030353918672,12879.0,17133.0,15253.0,12875.0,0.36773020029067993,0.6720202565193176,0.5263175368309021,0.36749887466430664,0.0,0.0,0.0,0.0,11865.0,16784.0,15577.0,12521.0,1.8368890285491943,-0.022953785292208487,0.02360850778070073,0.0021627805469281677,0.07969063520431519,0.001218314515426755,0.0
301,5,-0.0013156358618289232,0.00011391548468964174,0.001725371228531003,-0.0008915509097278118,-0.007364566903561354,0.00867390725761652,0.005132406949996948,-0.027911514043807983,-0.014156446792185307,0.11506738513708115,-0.8802555203437805,-0.005791546776890755,0.0,0.0,0.0,0.0003578227770049125,-0.018005117774009705,-0.0,0.0,0.0,0.0,-0.002543485490605235,-0.013725929893553257,-0.0009713522740639746,12879.0,17133.0,15253.0,12875.0,0.36773020029067993,0.6720202565193176,0.5263175368309021,0.36749887466430664,0.0,0.0,0.0,0.0,12956.0,17047.0,14803.0,13431.0,1.8368890285491943,-0.01601402990203973,0.02741722999292751,0.0034953218440939206,0.07969063520431519,0.001218314515426755,0.0
306,5,-0.001335734035819769,8.671564137330279e-05,0.0017862976528704166,-0.0027684099040925503,0.0003181537031196058,-0.0038416143506765366,0.005132406949996948,-0.027911514043807983,-0.014156446792185307,0.11506738513708115,-0.8802555203437805,-0.005791546776890755,0.0,0.0,0.0,0.008877292275428772,-0.002561813686043024,-0.0,0.0,0.0,0.0,-0.002543485490605235,-0.013725929893553257,-0.0009713522740639746,12879.0,17133.0,15253.0,12875.0,0.36773020029067993,0.6720202565193176,0.5263175368309021,0.36749887466430664,0.0,0.0,0.0,0.0,12956.0,17047.0,14803.0,13431.0,1.7166197299957275,-0.017805145543334528,0.02739093763770054,0.0027522246927730995,0.010596341453492641,0.028245730325579643,-0.0
311,5,-0.001345934928394854,0.00012782424164470285,0.0018758277874439955,-0.0023314645513892174,-0.0048057702369987965,-0.012280254624783993,0.005480756051838398,-0.021477501839399338,-0.014018351212143898,-0.06979244202375412,0.24352684617042542,-0.008890928700566292,0.0,0.0,0.0,0.008877292275428772,-0.002561813686043024,-0.0,0.0,0.0,0.0,-0.0008366462425328791,0.005844347178936005,-0.0018219766207039356,14079.0,14620.0,13144.0,15265.0,0.4443843960762024,0.4812725782394409,0.3840414881706238,0.5271905660629272,0.0,0.0,0.0,0.0,14080.0,15371.0,15016.0,13962.0,1.7166197299957275,-0.014865867904178952,0.030372409963195773,0.002558085266222786,0.010596341453492641,0.028245730325579643,-0.0
316,5,-0.0011882605031132698,0.0001689804921625182,0.0016672133933752775,0.01798834092915058,-0.006861058529466391,0.020121613517403603,0.005480756051838398,-0.021477501839399338,-0.014018351212143898,-0.06979244202375412,0.24352684617042542,-0.008890928700566292,0.0,0.0,0.0,0.0058956993743777275,-0.003915281035006046,-0.0,0.0,0.0,0.0,-0.0008366462425328791,0.005844347178936005,-0.0018219766207039356,14079.0,14620.0,13144.0,15265.0,0.4443843960762024,0.4812725782394409,0.3840414881706238,0.5271905660629272,0.0,0.0,0.0,0.0,14080.0,15371.0,15016.0,13962.0,1.7136940956115723,-0.014105797640919817,0.033539129724611476,0.0030465485661177235,0.016167374327778816,0.018727188929915428,0.0
322,5,-0.0011495945509523153,0.00018954706320073456,0.001628935569897294,0.011835251934826374,-0.005212412215769291,0.012641988694667816,0.005480756051838398,-0.021477501839399338,-0.014018351212143898,-0.06979244202375412,0.24352684617042542,-0.008890928700566292,0.0,0.0,0.0,0.0058956993743777275,-0.003915281035006046,-0.0,0.0,0.0,0.0,-0.0008366462425328791,0.005844347178936005,-0.0018219766207039356,14079.0,14620.0,13144.0,15265.0,0.4443843960762024,0.4812725782394409,0.3840414881706238,0.5271905660629272,0.0,0.0,0.0,0.0,14080.0,15371.0,15016.0,13962.0,1.7136940956115723,-0.014219782728180192,0.03644096420839986,0.0028647562949714747,0.016167374327778816,0.018727188929915428,0.0
327,5,-0.0010652405908331275,0.0001965922419913113,0.0015958844451233745,0.014856581576168537,-0.0029303852934390306,0.009022930637001991,0.004877517465502024,-0.024775296449661255,-0.013817370869219303,-0.10494387894868851,0.5577870607376099,0.03482995182275772,0.0,0.0,0.0,0.006378629710525274,0.009062710218131542,-0.0,0.0,0.0,0.0,0.002929129172116518,0.022855527698993683,-0.000542126246728003,14985.0,12173.0,12146.0,15696.0,0.5070257186889648,0.3260330855846405,0.3244992792606354,0.5590617060661316,0.0,0.0,0.0,0.0,14482.0,14110.0,12903.0,15568.0,1.741698145866394,-0.011006570575069622,0.04085554215280591,0.0013815326880938321,-0.038033660501241684,0.020592235028743744,-0.0
332,5,-0.0010146157583221793,0.0002095787349389866,0.0016231564804911613,0.012017599307000637,-0.0027305337134748697,0.00033653448917903006,0.004877517465502024,-0.024775296449661255,-0.013817370869219303,-0.10494387894868851,0.5577870607376099,0.03482995182275772,0.0,0.0,0.0,0.006378629710525274,0.009062710218131542,-0.0,0.0,0.0,0.0,0.002929129172116518,0.022855527698993683,-0.000542126246728003,14985.0,12173.0,12146.0,15696.0,0.5070257186889648,0.3260330855846405,0.3244992792606354,0.5590617060661316,0.0,0.0,0.0,0.0,14482.0,14110.0,12903.0,15568.0,1.741698145866394,-0.009384936011588407,0.043521556808076144,0.0009574073145555515,-0.038033660501241684,0.020592235028743744,-0.0
337,5,-0.000994394882582128,0.00022451847326010466,0.0016214586794376373,0.007233552169054747,-0.0028849816881120205,0.0003383415751159191,0.0036201931070536375,-0.031234996393322945,-0.01369759812951088,-0.11629119515419006,0.5041553974151611,-0.0036611768882721663,0.0,0.0,0.0,0.0035417682956904173,0.009432883001863956,-0.0,0.0,0.0,0.0,0.00364136416465044,0.02459046244621277,-0.0016293259104713798,14628.0,12497.0,11612.0,16171.0,0.4818611443042755,0.3448236286640167,0.29467836022377014,0.5952566266059875,0.0,0.0,0.0,0.0,14995.0,12061.0,12001.0,15880.0,1.7359176874160767,-0.00913591916220503,0.0445854803933345,0.0010168588261052728,-0.03945629671216011,0.01139609795063734,-0.0
342,5,-0.0009973689448088408,0.0002413193287793547,0.0016698413528501987,0.0025365380570292473,-0.003170095616951585,-0.005670574493706226,0.0036201931070536375,-0.031234996393322945,-0.01369759812951088,-0.11629119515419006,0.5041553974151611,-0.0036611768882721663,0.0,0.0,0.0,0.0035417682956904173,0.009432883001863956,-0.0,0.0,0.0,0.0,0.00364136416465044,0.02459046244621277,-0.0016293259104713798,14628.0,12497.0,11612.0,16171.0,0.4818611443042755,0.3448236286640167,0.29467836022377014,0.5952566266059875,0.0,0.0,0.0,0.0,14995.0,12061.0,12001.0,15880.0,1.7359176874160767,-0.008982143316164813,0.044816876535859716,0.0007010215747096555,-0.03945629671216011,0.01139609795063734,-0.0
347,5,-0.001029366161674261,0.00025321575230918825,0.0017406514380127192,-0.002825054805725813,-0.0026956102810800076,-0.01076544914394617,0.0028440537862479687,-0.03359077125787735,-0.013624811545014381,-0.08001703023910522,0.09736660122871399,-0.011458572000265121,0.0,0.0,0.0,0.0041820937767624855,0.0009718479122966528,-0.0,0.0,0.0,0.0,0.0025820983573794365,0.014869701117277145,-0.0013926863903179765,14030.0,13293.0,12425.0,15421.0,0.44107383489608765,0.3933529853820801,0.34060877561569214,0.5386584997177124,0.0,0.0,0.0,0.0,13884.0,13712.0,12316.0,15653.0,1.7054040431976318,-0.00903914316286623,0.042944495141382134,0.0007285210962631879,-0.003993683494627476,0.013219873420894146,0.0
352,5,-0.0010773936519399285,0.0002706230734474957,0.0018196111777797341,-0.006893329322338104,-0.0031671207398176193,-0.013781346380710602,0.0028440537862479687,-0.03359077125787735,-0.013624811545014381,-0.08001703023910522,0.09736660122871399,-0.011458572000265121,0.0,0.0,0.0,0.0041820937767624855,0.0009718479122966528,-0.0,0.0,0.0,0.0,0.0025820983573794365,0.014869701117277145,-0.0013926863903179765,14030.0,13293.0,12425.0,15421.0,0.44107383489608765,0.3933529853820801,0.34060877561569214,0.5386584997177124,0.0,0.0,0.0,0.0,13884.0,13712.0,12316.0,15653.0,1.7054040431976318,-0.008467280863931727,0.040658291139194745,0.0006907850154709499,-0.003993683494627476,0.013219873420894146,0.0
357,5,-0.001148844137787819,0.00027586633223108947,0.0019197670044377446,-0.011331385001540184,-0.0018960408633574843,-0.01753123104572296,0.002545339986681938,-0.03164253011345863,-0.013731885701417923,0.0002012645563809201,-0.39476969838142395,0.020861957222223282,0.0,0.0,0.0,0.0041975839994847775,-0.00768240774050355,-0.0,0.0,0.0,0.0,0.0010523826349526644,0.0036374893970787525,-0.0015124761266633868,13586.0,14145.0,13426.0,14590.0,0.4120192527770996,0.44876742362976074,0.40174293518066406,0.47916853427886963,0.0,0.0,0.0,0.0,13442.0,14413.0,13596.0,14215.0,1.7185132503509521,-0.006819323171646404,0.03765712569602771,0.0002401381941869531,0.03181222453713417,0.013370835222303867,0.0
362,5,-0.001236748998053372,0.0002826987183652818,0.0019987118430435658,-0.015081129036843777,-0.0015783022390678525,-0.016485881060361862,0.002545339986681938,-0.03164253011345863,-0.013731885701417923,0.0002012645563809201,-0.39476969838142395,0.020861957222223282,0.0,0.0,0.0,0.0041975839994847775,-0.00768240774050355,-0.0,0.0,0.0,0.0,0.0010523826349526644,0.0036374893970787525,-0.0015124761266633868,13586.0,14145.0,13426.0,14590.0,0.4120192527770996,0.44876742362976074,0.40174293518066406,0.47916853427886963,0.0,0.0,0.0,0.0,13442.0,14413.0,13596.0,14215.0,1.7185132503509521,-0.005636921974222283,0.03399613219900929,-0.00044601301487100334,0.03181222453713417,0.013370835222303867,0.0
367,5,-0.0013336195843294263,0.0002818346256390214,0.0020839632488787174,-0.01765693537890911,-0.0005276296869851649,-0.0168245080858469,0.002842972055077553,-0.026850778609514236,-0.013702324591577053,0.033894799649715424,-0.7393372058868408,-0.01416961383074522,0.0,0.0,0.0,0.0022472955752164125,-0.014651825651526451,-0.0,0.0,0.0,0.0,-0.0008080037077888846,-0.009359530173242092,-0.0016034430591389537,12538.0,15250.0,13953.0,13810.0,0.34728512167930603,0.526085376739502,0.4360082447528839,0.4265389144420624,0.0,0.0,0.0,0.0,12203.0,15549.0,13774.0,13951.0,1.795740008354187,-0.004839846192436398,0.030608004345717022,-0.00021680046373313925,0.06339725852012634,0.007480171509087086,0.0
372,5,-0.0014204088365659118,0.0003196658508386463,0.0021426156163215637,-0.017477476969361305,-0.00475080031901598,-0.013768091797828674,0.002842972055077553,-0.026850778609514236,-0.013702324591577053,0.033894799649715424,-0.7393372058868408,-0.01416961383074522,0.0,0.0,0.0,0.0022472955752164125,-0.014651825651526451,-0.0,0.0,0.0,0.0,-0.0008080037077888846,-0.009359530173242092,-0.0016034430591389537,12538.0,15250.0,13953.0,13810.0,0.34728512167930603,0.526085376739502,0.4360082447528839,0.4265389144420624,0.0,0.0,0.0,0.0,12203.0,15549.0,13774.0,13951.0,1.795740008354187,-0.004124057360446951,0.02719232342315578,-0.00016554135345670293,0.06339725852012634,0.007480171509087086,0.0
377,5,-0.0014771210262551904,0.0003303940175101161,0.0021760985255241394,-0.013796450570225716,-0.0031876976136118174,-0.00952520128339529,0.003570771077647805,-0.01813530921936035,-0.01378366444259882,0.04974975436925888,-0.7388409972190857,0.03758922591805458,0.0,0.0,0.0,0.005781525745987892,-0.01667111925780773,-0.0,0.0,0.0,0.0,-0.0012283908436074853,-0.015013448894023895,-0.0012536104768514633,12412.0,15196.0,14424.0,13007.0,0.3398626744747162,0.5222002267837524,0.4677554666996002,0.3755856454372406,0.0,0.0,0.0,0.0,12784.0,14873.0,14698.0,12713.0,1.8272536993026733,-0.0032033563632019968,0.02416266970514762,-6.699857217268534e-05,0.0733986645936966,0.019581478089094162,0.0
382,5,-0.0015618348261341453,0.0003492952964734286,0.002190938452258706,-0.01568424515426159,-0.003543231636285782,-0.005590861663222313,0.003570771077647805,-0.01813530921936035,-0.01378366444259882,0.04974975436925888,-0.7388409972190857,0.03758922591805458,0.0,0.0,0.0,0.005781525745987892,-0.01667111925780773,-0.0,0.0,0.0,0.0,-0.0012283908436074853,-0.015013448894023895,-0.0012536104768514633,12412.0,15196.0,14424.0,13007.0,0.3398626744747162,0.5222002267837524,0.4677554666996002,0.3755856454372406,0.0,0.0,0.0,0.0,12784.0,14873.0,14698.0,12713.0,1.8272536993026733,-0.0025489090416516026,0.022859420319769563,-0.0003886155462824695,0.0733986645936966,0.019581478089094162,0.0
387,5,-0.0016575217014178634,0.0003023639728780836,0.0022598369978368282,-0.01775612123310566,0.004214465152472258,-0.01050417311489582,0.004128712695091963,-0.013224118389189243,-0.013737672008574009,0.041383951902389526,-0.5028643608093262,-0.03447581082582474,0.0,0.0,0.0,-0.004093313589692116,-0.01707351766526699,-0.0,0.0,0.0,0.0,-0.0007186341681517661,-0.01445276290178299,-0.0019934242591261864,11977.0,15595.0,13882.0,13723.0,0.31488147377967834,0.5514886379241943,0.43127360939979553,0.42086949944496155,0.0,0.0,0.0,0.0,12269.0,15335.0,13953.0,13689.0,1.828617811203003,-0.004973642460399786,0.020861971897980315,-0.0011641002217588053,0.07522688806056976,-0.013874083757400513,0.0
393,5,-0.0016966571565717459,0.0002776449837256223,0.0023799664340913296,-0.011798693798482418,0.004652065224945545,-0.01861719787120819,0.004128712695091963,-0.013224118389189243,-0.013737672008574009,0.041383951902389526,-0.5028643608093262,-0.03447581082582474,0.0,0.0,0.0,-0.004093313589692116,-0.01707351766526699,-0.0,0.0,0.0,0.0,-0.0007186341681517661,-0.01445276290178299,-0.0019934242591261864,11977.0,15595.0,13882.0,13723.0,0.31488147377967834,0.5514886379241943,0.43127360939979553,0.42086949944496155,0.0,0.0,0.0,0.0,12269.0,15335.0,13953.0,13689.0,1.828617811203003,-0.008137069694773237,0.015545274595648747,-0.002301736762171146,0.07522688806056976,-0.013874083757400513,0.0
398,5,-0.0016591832973062992,0.00040787391480989754,0.002227486576884985,-0.00022262449783738703,-0.013766646385192871,0.010850692167878151,0.004603388719260693,-0.009110132232308388,-0.01364922896027565,0.05598260089755058,-0.17698001861572266,0.010328047908842564,0.0,0.0,0.0,0.01640314608812332,-0.002346166642382741,-0.0,0.0,0.0,0.0,-0.0011690797982737422,-0.008606375195086002,-0.0006100605241954327,13390.0,15053.0,14213.0,13878.0,0.39949125051498413,0.5118791460990906,0.4533407688140869,0.4310288429260254,0.0,0.0,0.0,0.0,13249.0,15137.0,13777.0,14353.0,1.772201418876648,-0.000991187285775073,0.020828547020901374,-0.000529300684452451,0.010017630644142628,0.053878240287303925,-0.0
403,5,-0.0016466401284560561,0.00044740785961039364,0.0021863202564418316,0.0014161313883960247,-0.01025073416531086,0.009280240163207054,0.004603388719260693,-0.009110132232308388,-0.01364922896027565,0.05598260089755058,-0.17698001861572266,0.010328047908842564,0.0,0.0,0.0,0.01640314608812332,-0.002346166642382741,-0.0,0.0,0.0,0.0,-0.0011690797982737422,-0.008606375195086002,-0.0006100605241954327,13390.0,15053.0,14213.0,13878.0,0.39949125051498413,0.5118791460990906,0.4533407688140869,0.4310288429260254,0.0,0.0,0.0,0.0,13249.0,15137.0,13777.0,14353.0,1.772201418876648,-0.001575115769068154,0.021177796972950594,-0.00033232498104229303,0.010017630644142628,0.053878240287303925,-0.0
408,5,-0.0016458124155178666,0.00047073527821339667,0.0021904511377215385,0.0006657779449597001,-0.006899580825120211,0.003216381184756756,0.004738863557577133,-0.008708033710718155,-0.013887778855860233,0.04145484417676926,0.1037905290722847,-0.000808113079983741,0.0,0.0,0.0,0.008978563360869884,-0.0016053486615419388,-0.0,0.0,0.0,0.0,-0.0002145124162780121,-0.0007503869710490108,-0.0019505127565935254,13638.0,14910.0,13575.0,14872.0,0.4153677225112915,0.501656711101532,0.4112853407859802,0.49894392490386963,0.0,0.0,0.0,0.0,14164.0,14374.0,13819.0,14684.0,1.7109826803207397,-0.002635510831887945,0.022006298877500753,-0.00018409242720361177,0.006618341896682978,0.028474127873778343,-0.0
413,5,-0.0016155692283064127,0.0004963219398632646,0.002187831327319145,0.0038954971823841333,-0.00583023251965642,0.0016009443206712604,0.004738863557577133,-0.008708033710718155,-0.013887778855860233,0.04145484417676926,0.1037905290722847,-0.000808113079983741,0.0,0.0,0.0,0.008978563360869884,-0.0016053486615419388,-0.0,0.0,0.0,0.0,-0.0002145124162780121,-0.0007503869710490108,-0.0019505127565935254,13638.0,14910.0,13575.0,14872.0,0.4153677225112915,0.501656711101532,0.4112853407859802,0.49894392490386963,0.0,0.0,0.0,0.0,14164.0,14374.0,13819.0,14684.0,1.7109826803207397,-0.0016442142186655305,0.02390347471333048,-0.0004951979881298422,0.006618341896682978,0.028474127873778343,-0.0
418,5,-0.0015885591274127364,0.0005195258418098092,0.002201296854764223,0.004799406509846449,-0.0051165614277124405,-0.0009754786151461303,0.005001670680940151,-0.010910673066973686,-0.013881229795515537,0.012624356895685196,0.24541929364204407,-0.02905046008527279,0.0,0.0,0.0,0.008978563360869884,-0.0016053486615419388,-0.0,0.0,0.0,0.0,0.002909632632508874,0.011341857723891735,-0.0003279273514635861,14070.0,14832.0,12940.0,15128.0,0.4437483549118042,0.496162474155426,0.3714485168457031,0.5172584652900696,0.0,0.0,0.0,0.0,14146.0,14777.0,12794.0,15233.0,1.7108197212219238,-0.004104031578807925,0.02419875662432341,-3.199658779127367e-05,-0.009192097932100296,0.022057970985770226,0.0
423,5,-0.001602419768460095,0.0005221358733251691,0.0022404082119464874,0.0002564905444160104,-0.002359827281907201,-0.005083549302071333,0.005001670680940151,-0.010910673066973686,-0.013881229795515537,0.012624356895685196,0.24541929364204407,-0.02905046008527279,0.0,0.0,0.0,0.006955992896109819,0.0022298176772892475,-0.0,0.0,0.0,0.0,0.002909632632508874,0.011341857723891735,-0.0003279273514635861,14070.0,14832.0,12940.0,15128.0,0.4437483549118042,0.496162474155426,0.3714485168457031,0.5172584652900696,0.0,0.0,0.0,0.0,14146.0,14777.0,12794.0,15233.0,1.7108197212219238,-0.004747941950632453,0.025128553461392575,-0.00022112987215616427,-0.009192097932100296,0.022057970985770226,0.0
428,5,-0.00162099814042449,0.0005395063199102879,0.0022730904165655375,-0.0021268094424158335,-0.0030283827800303698,-0.005955299362540245,0.005001670680940151,-0.010910673066973686,-0.013881229795515537,0.012624356895685196,0.24541929364204407,-0.02905046008527279,0.0,0.0,0.0,0.006955992896109819,0.0022298176772892475,-0.0,0.0,0.0,0.0,0.002909632632508874,0.011341857723891735,-0.0003279273514635861,14070.0,14832.0,12940.0,15128.0,0.4437483549118042,0.496162474155426,0.3714485168457031,0.5172584652900696,0.0,0.0,0.0,0.0,14146.0,14777.0,12794.0,15233.0,1.710806131362915,-0.0072093592678319825,0.02579098205624165,-0.0005492335996952852,0.01696529984474182,0.0143390828743577,0.0
433,5,-0.0016330155776813626,0.0005609065410681069,0.0022767018526792526,-0.0022928141988813877,-0.003779386170208454,-0.002815496176481247,0.005194507539272308,-0.01295741368085146,-0.013676105067133904,0.012743212282657623,0.24010902643203735,0.048855096101760864,0.0,0.0,0.0,0.004521835129708052,-0.004115423187613487,-0.0,0.0,0.0,0.0,0.0011865247506648302,0.009249468334019184,-0.002237280597910285,14533.0,13155.0,13430.0,15029.0,0.475279301404953,0.38472357392311096,0.40201303362846375,0.5101854801177979,0.0,0.0,0.0,0.0,14300.0,13402.0,13169.0,15263.0,1.710806131362915,-0.007576036939611762,0.0260916988443204,-0.00027007127306798834,0.01696529984474182,0.0143390828743577,0.0
439,5,-0.001644240110181272,0.0005708123790100217,0.0023000549990683794,-0.002264071721583605,-0.002700451761484146,-0.003928571939468384,0.005194507539272308,-0.01295741368085146,-0.013676105067133904,0.012743212282657623,0.24010902643203735,0.048855096101760864,0.0,0.0,0.0,0.004521835129708052,-0.004115423187613487,-0.0,0.0,0.0,0.0,0.0011865247506648302,0.009249468334019184,-0.002237280597910285,14533.0,13155.0,13430.0,15029.0,0.475279301404953,0.38472357392311096,0.40201303362846375,0.5101854801177979,0.0,0.0,0.0,0.0,14300.0,13402.0,13169.0,15263.0,1.7064969539642334,-0.005824126159780882,0.026192174682835655,-0.0005917879410776023,0.017613619565963745,0.013283522799611092,0.0
444,5,-0.0016843785997480154,0.0005754272569902241,0.002322070999071002,-0.0057222479954361916,-0.001633965177461505,-0.0042133573442697525,0.005069848150014877,-0.015294518321752548,-0.013684060424566269,-0.023869531229138374,0.11747655272483826,-0.014097938314080238,0.0,0.0,0.0,0.004199537914246321,-0.004283476155251265,-0.0,0.0,0.0,0.0,0.0001546834100736305,0.0032480156514793634,-0.0011931812623515725,13448.0,14186.0,13073.0,14551.0,0.40317702293395996,0.4515458941459656,0.37960386276245117,0.47647935152053833,0.0,0.0,0.0,0.0,13677.0,13754.0,12883.0,14918.0,1.7064969539642334,-0.005474011132400483,0.025502049899511568,-0.0008314487300485625,0.017613619565963745,0.013283522799611092,0.0
449,5,-0.0017383620142936707,0.0005685955984517932,0.0023182162549346685,-0.008766909129917622,0.00016621363465674222,-0.0012227499391883612,0.005069848150014877,-0.015294518321752548,-0.013684060424566269,-0.023869531229138374,0.11747655272483826,-0.014097938314080238,0.0,0.0,0.0,0.004199537914246321,-0.004283476155251265,-0.0,0.0,0.0,0.0,0.0001546834100736305,0.0032480156514793634,-0.0011931812623515725,13448.0,14186.0,13073.0,14551.0,0.40317702293395996,0.4515458941459656,0.37960386276245117,0.47647935152053833,0.0,0.0,0.0,0.0,13677.0,13754.0,12883.0,14918.0,1.7064969539642334,-0.004076765447129194,0.02523641989429033,-0.0010732580045435755,0.042523015290498734,0.002523325150832534,0.0
454,5,-0.0018227921100333333,0.0005729489494115114,0.0023695167619735003,-0.013638370670378208,-0.0004559172666631639,-0.006645170506089926,0.004728461150079966,-0.013957512564957142,-0.013699403963983059,-0.0004164731071796268,-0.2098408341407776,0.0025541039649397135,0.0,0.0,0.0,0.0007823946652933955,-0.010142402723431587,-0.0,0.0,0.0,0.0,9.42679398576729e-05,-0.00193815550301224,-0.0015366541920229793,13061.0,14539.0,13361.0,14227.0,0.37889906764030457,0.4756506383419037,0.39763781428337097,0.4543094336986542,0.0,0.0,0.0,0.0,13169.0,14403.0,13133.0,14538.0,1.73995840549469,-0.003769606746947592,0.024289957023879524,-0.00096940436581467,0.042523015290498734,0.002523325150832534,0.0
459,5,-0.001892270054668188,0.0005743877845816314,0.0023478299845010042,-0.013792700134217739,-0.00035502592800185084,-5.5652984883636236e-05,0.004728461150079966,-0.013957512564957142,-0.013699403963983059,-0.0004164731071796268,-0.2098408341407776,0.0025541039649397135,0.0,0.0,0.0,0.001358371926471591,-0.014410752803087234,-0.0,0.0,0.0,0.0,9.42679398576729e-05,-0.00193815550301224,-0.0015366541920229793,13061.0,14539.0,13361.0,14227.0,0.37889906764030457,0.4756506383419037,0.39763781428337097,0.4543094336986542,0.0,0.0,0.0,0.0,13169.0,14403.0,13133.0,14538.0,1.791953444480896,-0.004145155332448355,0.023000150396640495,-0.0010287172509842648,0.06222284585237503,0.004511840641498566,0.0
464,5,-0.0019352490780875087,0.0005502508138306439,0.002315367804840207,-0.010674563236534595,0.002754426095634699,0.0038731922395527363,0.004719829186797142,-0.011876815930008888,-0.013728632591664791,0.015206865966320038,-0.2672605514526367,-0.025145774707198143,0.0,0.0,0.0,0.001358371926471591,-0.014410752803087234,-0.0,0.0,0.0,0.0,-0.001185581088066101,-0.007433195598423481,-0.0017025525448843837,12738.0,15197.0,13607.0,14090.0,0.3591786026954651,0.5222817063331604,0.41336941719055176,0.4451286792755127,0.0,0.0,0.0,0.0,13160.0,14409.0,13724.0,13920.0,1.791953444480896,-0.005017056592496691,0.02124484687656757,-0.0013423257476363594,0.06222284585237503,0.004511840641498566,0.0
469,5,-0.0019618351943790913,0.0005342194344848394,0.0022799328435212374,-0.00746016064658761,0.0030255343299359083,0.0058014653623104095,0.004719829186797142,-0.011876815930008888,-0.013728632591664791,0.015206865966320038,-0.2672605514526367,-0.025145774707198143,0.0,0.0,0.0,-0.002584122121334076,-0.009277417324483395,-0.0,0.0,0.0,0.0,-0.001185581088066101,-0.007433195598423481,-0.0017025525448843837,12738.0,15197.0,13607.0,14090.0,0.3591786026954651,0.5222817063331604,0.41336941719055176,0.4451286792755127,0.0,0.0,0.0,0.0,13160.0,14409.0,13724.0,13920.0,1.7320188283920288,-0.007178870057931936,0.01745515953591892,-0.0015925071525279154,0.03871898353099823,-0.008296087384223938,-0.0
