timestamp,dt,pos_x,pos_y,pos_z,vel_x,vel_y,vel_z,roll,pitch,yaw,agv_x,agv_y,agv_z,x_ref,y_ref,z_ref,roll_ref,pitch_ref,yaw_ref,x_vel_ref,y_vel_ref,z_vel_ref,x_torque,y_torque,z_torque,w0,w1,w2,w3,u0,u1,u2,u3,m0req,m1req,m2req,m3req,thrust0,thrust1,thrust2,thrust3,thrust_ref,roll_vicon,pitch_vicon,yaw_vicon,acc_x,acc_y,acc_z,roll_received,pitch_received,yaw_received
5,5,0.0,0.0,0.0,-0.0013913311995565891,0.00034310563933104277,-0.0034555429592728615,0.017391186207532883,-0.22271853685379028,0.005546299275010824,0.0,0.0,0.0,0.0,0.0,0.0,-0.00042317615589126945,-0.001320020528510213,-0.0,0.0,0.0,0.0,-0.003459738101810217,0.06682858616113663,0.0005642155883833766,1495.0,1495.0,1495.0,1495.0,0.0,0.0,0.0,0.0,0.0,0.0,0.0,0.0,0.0,0.0,0.0,0.0,1.6403230428695679,0.030604236513329944,0.07085287786572696,-0.09380352427074738,0.005217492114752531,-0.00128664611838758,0.0,-0.0,-0.0,0.0
34,29,0.0,0.0,0.0,-0.0014672264223918319,-0.0008344299276359379,-0.00011892625479958951,0.017391186207532883,-0.22271853685379028,0.005546299275010824,0.0,0.0,0.0,0.0,0.0,0.0,-0.00042317615589126945,-0.001320020528510213,-0.0,0.0,0.0,0.0,-0.003459738101810217,0.06682858616113663,0.0005642155883833766,1495.0,1495.0,1495.0,1495.0,0.0,0.0,0.0,0.0,0.0,0.0,0.0,0.0,0.0,0.0,0.0,0.0,1.6403230428695679,0.03107458149214712,0.07132714058125023,-0.09406076448406751,0.005217492114752531,-0.00128664611838758,0.0,-0.0,-0.0,0.0
39,5,0.0,0.0,0.0,-0.0014672264223918319,-0.0008344299276359379,-0.00011892625479958951,0.017385834828019142,-0.22269998490810394,0.005535945761948824,0.0,0.0,0.0,0.0,0.0,0.0,0.0010275396052747965,-0.001389833283610642,-0.0,0.0,0.0,0.0,-0.0035978613886982203,0.06640803068876266,0.0005499015678651631,1495.0,1495.0,1495.0,1495.0,0.0,0.0,0.0,0.0,0.0,0.0,0.0,0.0,0.0,0.0,0.0,0.0,1.6429115533828735,0.03107458149214712,0.07132714058125023,-0.09406076448406751,0.005502099171280861,0.0031291123013943434,0.0,-0.00042317615589126945,-0.001320020528510213,0.0
44,5,0.0,0.0,0.0,-0.0014672264223918319,-0.0008344299276359379,-0.00011892625479958951,0.017385834828019142,-0.22269998490810394,0.005535945761948824,0.0,0.0,0.0,0.0,0.0,0.0,0.0010275396052747965,-0.001389833283610642,-0.0,0.0,0.0,0.0,-0.0035978613886982203,0.06640803068876266,0.0005499015678651631,1495.0,1495.0,1495.0,1495.0,0.0,0.0,0.0,0.0,0.0,0.0,0.0,0.0,0.0,0.0,0.0,0.0,1.6429115533828735,0.030162076930663737,0.07126267275413509,-0.09387283886385352,0.005502099171280861,0.0031291123013943434,0.0,-0.00042317615589126945,-0.001320020528510213,0.0
49,5,0.0,0.0,0.0,-0.0014672264223918319,-0.0008344299276359379,-0.00011892625479958951,0.017395788803696632,-0.2227473258972168,0.0055402722209692,0.0,0.0,0.0,0.0,0.0,0.0,0.0010275396052747965,-0.001389833283610642,-0.0,0.0,0.0,0.0,-0.003571240697056055,0.06649046391248703,0.0006028641946613789,1495.0,1495.0,1495.0,1495.0,0.0,0.0,0.0,0.0,0.0,0.0,0.0,0.0,0.0,0.0,0.0,0.0,1.6429115533828735,0.030162076930663737,0.07126267275413509,-0.09387283886385352,0.005502099171280861,0.0031291123013943434,0.0,-0.00042317615589126945,-0.001320020528510213,0.0
57,9,1.925424840010237e-05,-4.95808581035817e-06,-2.7674650482367724e-05,-0.0014672264223918319,-0.0008344299276359379,-0.00011892625479958951,0.017395788803696632,-0.2227473258972168,0.0055402722209692,0.0,0.0,0.0,0.0,0.0,0.0,0.0010275396052747965,-0.001389833283610642,-0.0,0.0,0.0,0.0,-0.003571240697056055,0.06649046391248703,0.0006028641946613789,1495.0,1495.0,1495.0,1495.0,0.0,0.0,0.0,0.0,0.0,0.0,0.0,0.0,0.0,0.0,0.0,0.0,1.6429115533828735,0.029351264598867395,0.07071264586436954,-0.0934954480524442,0.005502099171280861,0.0031291123013943434,0.0,-0.00042317615589126945,-0.001320020528510213,0.0
64,7,1.529323708382435e-05,-1.1539124898263253e-05,-3.49017973348964e-05,-0.001062211929820478,0.0004559527151286602,0.000819687033072114,0.017395788803696632,-0.2227473258972168,0.0055402722209692,0.0,0.0,0.0,0.0,0.0,0.0,0.0010275396052747965,-0.001389833283610642,-0.0,0.0,0.0,0.0,-0.003571240697056055,0.06649046391248703,0.0006028641946613789,1495.0,1495.0,1495.0,1495.0,0.0,0.0,0.0,0.0,0.0,0.0,0.0,0.0,0.0,0.0,0.0,0.0,1.6429115533828735,0.030170468251174525,0.07099947721793634,-0.0940130766997455,0.005502099171280861,0.0031291123013943434,0.0,-0.00042317615589126945,-0.001320020528510213,0.0
70,5,5.992517799313646e-06,-1.3279258382681292e-05,-3.463009124970995e-05,-0.001062211929820478,0.0004559527151286602,0.000819687033072114,0.01739659160375595,-0.22275854647159576,0.005541000049561262,0.0,0.0,0.0,0.0,0.0,0.0,-0.0005842976388521492,-0.000988255487754941,-0.0,0.0,0.0,0.0,-0.0032617454417049885,0.06642547994852066,0.0005921135889366269,17946.0,7384.0,7361.0,17291.0,0.740500807762146,0.10906124114990234,0.10831372439861298,0.685035765171051,0.0,0.0,0.0,0.0,0.0,0.0,0.0,0.0,1.6373687982559204,0.030495785205426767,0.07121408072125061,-0.0939139103182604,0.003899128409102559,-0.0017733282875269651,0.0,0.0010275396052747965,-0.001389833283610642,0.0
75,5,5.992517799313646e-06,-1.3279258382681292e-05,-3.463009124970995e-05,-0.001062211929820478,0.0004559527151286602,0.000819687033072114,0.01739659160375595,-0.22275854647159576,0.005541000049561262,0.0,0.0,0.0,0.0,0.0,0.0,-0.0005842976388521492,-0.000988255487754941,-0.0,0.0,0.0,0.0,-0.0032617454417049885,0.06642547994852066,0.0005921135889366269,17946.0,7384.0,7361.0,17291.0,0.740500807762146,0.10906124114990234,0.10831372439861298,0.685035765171051,0.0,0.0,0.0,0.0,0.0,0.0,0.0,0.0,1.6373687982559204,0.030495785205426767,0.07121408072125061,-0.0939139103182604,0.003899128409102559,-0.0017733282875269651,0.0,0.0010275396052747965,-0.001389833283610642,0.0
80,5,9.001235412142705e-06,3.2175651085708523e-06,-3.2322783226845786e-05,-6.383863365044817e-05,-0.001797237666323781,5.0997809012187645e-05,0.017392877489328384,-0.22275757789611816,0.005549861118197441,0.0,0.0,0.0,0.0,0.0,0.0,-0.0005874172784388065,-0.001001131720840931,-0.0,0.0,0.0,0.0,-0.0032817081082612276,0.06661678850650787,0.0005581543664447963,17960.0,7350.0,7344.0,17297.0,0.7417197227478027,0.10793197154998779,0.10774987936019897,0.685509979724884,0.0,0.0,0.0,0.0,0.0,0.0,0.0,0.0,1.6375058889389038,0.03128244493315408,0.0714981444999315,-0.094103013173691,0.003950261510908604,-0.00178294547367841,0.0,0.0010275396052747965,-0.001389833283610642,0.0
85,5,9.001235412142705e-06,3.2175651085708523e-06,-3.2322783226845786e-05,-6.383863365044817e-05,-0.001797237666323781,5.0997809012187645e-05,0.017392877489328384,-0.22275757789611816,0.005549861118197441,0.0,0.0,0.0,0.0,0.0,0.0,-0.0005874172784388065,-0.001001131720840931,-0.0,0.0,0.0,0.0,-0.0032817081082612276,0.06661678850650787,0.0005581543664447963,17960.0,7350.0,7344.0,17297.0,0.7417197227478027,0.10793197154998779,0.10774987936019897,0.685509979724884,0.0,0.0,0.0,0.0,0.0,0.0,0.0,0.0,1.6375058889389038,0.03128244493315408,0.0714981444999315,-0.094103013173691,0.003950261510908604,-0.00178294547367841,0.0,0.0010275396052747965,-0.001389833283610642,0.0
90,5,2.9469597393472213e-06,7.032597750367131e-06,-7.509229362767655e-06,-6.383863365044817e-05,-0.001797237666323781,5.0997809012187645e-05,0.01739584468305111,-0.22278109192848206,0.005546509753912687,0.0,0.0,0.0,0.0,0.0,0.0,0.002217382425442338,-4.790513776242733e-05,-0.0,0.0,0.0,0.0,-0.0036035829689353704,0.06668014824390411,0.0005415076157078147,17957.0,7360.0,7238.0,17271.0,0.7413876056671143,0.10828699171543121,0.104280486702919,0.6834136843681335,0.0,0.0,0.0,0.0,0.0,0.0,0.0,0.0,1.6440774202346802,0.029989003643539857,0.07081389139545939,-0.09390714316274075,0.00018978207663167268,0.006757262162864208,0.0,-0.0005842976388521492,-0.000988255487754941,0.0
95,5,2.9469597393472213e-06,7.032597750367131e-06,-7.509229362767655e-06,-6.383863365044817e-05,-0.001797237666323781,5.0997809012187645e-05,0.01739584468305111,-0.22278109192848206,0.005546509753912687,0.0,0.0,0.0,0.0,0.0,0.0,0.002217382425442338,-4.790513776242733e-05,-0.0,0.0,0.0,0.0,-0.0036035829689353704,0.06668014824390411,0.0005415076157078147,17957.0,7360.0,7238.0,17271.0,0.7413876056671143,0.10828699171543121,0.104280486702919,0.6834136843681335,0.0,0.0,0.0,0.0,0.0,0.0,0.0,0.0,1.6440774202346802,0.029989003643539857,0.07081389139545939,-0.09390714316274075,0.00018978207663167268,0.006757262162864208,0.0,-0.0005842976388521492,-0.000988255487754941,0.0
100,5,1.199245252792025e-05,-2.435585429338971e-06,-9.92453260550974e-06,-6.383863365044817e-05,-0.001797237666323781,5.0997809012187645e-05,0.017392098903656006,-0.22276082634925842,0.005565776955336332,0.0,0.0,0.0,0.0,0.0,0.0,0.002224195282906294,-5.630576561088674e-05,-0.0,0.0,0.0,0.0,-0.003035952104255557,0.06716018915176392,0.0005176733830012381,17960.0,7344.0,7249.0,17272.0,0.7417100071907043,0.10774857550859451,0.10462308675050735,0.6834242343902588,0.0,0.0,0.0,0.0,0.0,0.0,0.0,0.0,1.6441370248794556,0.029918637689417726,0.07095538935307437,-0.09384656648584311,0.00022307028120849282,0.006778269540518522,0.0,0.002217382425442338,-4.790513776242733e-05,0.0
105,5,1.199245252792025e-05,-2.435585429338971e-06,-9.92453260550974e-06,-6.383863365044817e-05,-0.001797237666323781,5.0997809012187645e-05,0.017392098903656006,-0.22276082634925842,0.005565776955336332,0.0,0.0,0.0,0.0,0.0,0.0,0.00220729922875762,-4.374144191388041e-05,-0.0,0.0,0.0,0.0,-0.003035952104255557,0.06716018915176392,0.0005176733830012381,17960.0,7344.0,7249.0,17272.0,0.7417100071907043,0.10774857550859451,0.10462308675050735,0.6834242343902588,0.0,0.0,0.0,0.0,0.0,0.0,0.0,0.0,1.6439921855926514,0.029918637689417726,0.07095538935307437,-0.09384656648584311,0.00017327809473499656,0.006726185791194439,0.0,0.002217382425442338,-4.790513776242733e-05,0.0
110,5,7.794329576427117e-06,-2.1261290385155007e-05,-2.3070599127095193e-05,-0.0005293102003633976,0.0015401893761008978,0.0015979270683601499,0.017392098903656006,-0.22276082634925842,0.005565776955336332,0.0,0.0,0.0,0.0,0.0,0.0,0.00220729922875762,-4.374144191388041e-05,-0.0,0.0,0.0,0.0,-0.003035952104255557,0.06716018915176392,0.0005176733830012381,17960.0,7344.0,7249.0,17272.0,0.7417100071907043,0.10774857550859451,0.10462308675050735,0.6834242343902588,0.0,0.0,0.0,0.0,0.0,0.0,0.0,0.0,1.6439921855926514,0.029963467037178785,0.071139171004698,-0.09386703349951611,0.00017327809473499656,0.006726185791194439,0.0,0.002217382425442338,-4.790513776242733e-05,0.0
115,5,7.794329576427117e-06,-2.1261290385155007e-05,-2.3070599127095193e-05,-0.0005293102003633976,0.0015401893761008978,0.0015979270683601499,0.017372358590364456,-0.2227770835161209,0.005545331165194511,0.0,0.0,0.0,0.0,0.0,0.0,0.00220729922875762,-4.374144191388041e-05,-0.0,0.0,0.0,0.0,-0.0030590645037591457,0.0672856867313385,0.0006451422814279795,17958.0,7314.0,7247.0,17366.0,0.7415168285369873,0.10675302147865295,0.10454730689525604,0.6912602782249451,0.0,0.0,0.0,0.0,0.0,0.0,0.0,0.0,1.6439921855926514,0.029963467037178785,0.071139171004698,-0.09386703349951611,0.00017327809473499656,0.006726185791194439,0.0,0.002224195282906294,-5.630576561088674e-05,0.0
120,5,1.2453526778699597e-06,-6.813303343733423e-07,-2.951011083496269e-05,-0.0005293102003633976,0.0015401893761008978,0.0015979270683601499,0.017372358590364456,-0.2227770835161209,0.005545331165194511,0.0,0.0,0.0,0.0,0.0,0.0,-0.001935474225319922,-0.0004906160174869001,-0.0,0.0,0.0,0.0,-0.0030590645037591457,0.0672856867313385,0.0006451422814279795,17958.0,7314.0,7247.0,17366.0,0.7415168285369873,0.10675302147865295,0.10454730689525604,0.6912602782249451,0.0,0.0,0.0,0.0,0.0,0.0,0.0,0.0,1.6425737142562866,0.030313986375964275,0.0709808915132139,-0.09403967420128297,0.0019418589072301984,-0.00589278107509017,0.0,0.002224195282906294,-5.630576561088674e-05,0.0
125,5,1.2453526778699597e-06,-6.813303343733423e-07,-2.951011083496269e-05,-0.0005293102003633976,0.0015401893761008978,0.0015979270683601499,0.017383364960551262,-0.22283363342285156,0.0055631608702242374,0.0,0.0,0.0,0.0,0.0,0.0,-0.001935474225319922,-0.0004906160174869001,-0.0,0.0,0.0,0.0,-0.0030831291805952787,0.06713762134313583,0.0005278970347717404,17975.0,7272.0,7300.0,17343.0,0.7429895401000977,0.1053784117102623,0.10630025714635849,0.688705563545227,0.0,0.0,0.0,0.0,0.0,0.0,0.0,0.0,1.6425737142562866,0.030313986375964275,0.0709808915132139,-0.09403967420128297,0.0019418589072301984,-0.00589278107509017,0.0,0.00220729922875762,-4.374144191388041e-05,0.0
130,5,9.248276910511777e-06,2.0131110431975685e-05,-1.337602770945523e-05,-0.0005293102003633976,0.0015401893761008978,0.0015979270683601499,0.017383364960551262,-0.22283363342285156,0.0055631608702242374,0.0,0.0,0.0,0.0,0.0,0.0,-0.001898597925901413,-0.0004997942596673965,-0.0,0.0,0.0,0.0,-0.0030831291805952787,0.06713762134313583,0.0005278970347717404,17975.0,7272.0,7300.0,17343.0,0.7429895401000977,0.1053784117102623,0.10630025714635849,0.688705563545227,0.0,0.0,0.0,0.0,0.0,0.0,0.0,0.0,1.6423141956329346,0.02965394397047193,0.07069300991910661,-0.09364637304728764,0.0019778739660978317,-0.005779593717306852,0.0,0.00220729922875762,-4.374144191388041e-05,0.0
135,5,9.248276910511777e-06,2.0131110431975685e-05,-1.337602770945523e-05,-0.0005293102003633976,0.0015401893761008978,0.0015979270683601499,0.017385201528668404,-0.22282657027244568,0.005562325473874807,0.0,0.0,0.0,0.0,0.0,0.0,-0.001898597925901413,-0.0004997942596673965,-0.0,0.0,0.0,0.0,-0.0038985866121947765,0.06708093732595444,0.0005292946589179337,18006.0,7382.0,7198.0,17289.0,0.7456817626953125,0.10901147872209549,0.10296764224767685,0.6849128007888794,0.0,0.0,0.0,0.0,0.0,0.0,0.0,0.0,1.6423141956329346,0.02965394397047193,0.07069300991910661,-0.09364637304728764,0.0019778739660978317,-0.005779593717306852,0.0,-0.001935474225319922,-0.0004906160174869001,0.0
140,5,9.825917004491203e-06,9.263213541998994e-06,-7.3462488217046484e-06,-0.00014240735617931932,0.0019202233524993062,-8.440267265541479e-05,0.017385201528668404,-0.22282657027244568,0.005562325473874807,0.0,0.0,0.0,0.0,0.0,0.0,-0.0018613481661304832,-0.0004887623363174498,-0.0,0.0,0.0,0.0,-0.0038985866121947765,0.06708093732595444,0.0005292946589179337,18006.0,7382.0,7198.0,17289.0,0.7456817626953125,0.10901147872209549,0.10296764224767685,0.6849128007888794,0.0,0.0,0.0,0.0,0.0,0.0,0.0,0.0,1.641982078552246,0.03001634033324846,0.07124430862550366,-0.09356919761198026,0.001933825435116887,-0.005665055010467768,0.0,-0.001935474225319922,-0.0004906160174869001,0.0
146,5,9.825917004491203e-06,9.263213541998994e-06,-7.3462488217046484e-06,-0.00014240735617931932,0.0019202233524993062,-8.440267265541479e-05,0.017382102087140083,-0.22282476723194122,0.0055596609599888325,0.0,0.0,0.0,0.0,0.0,0.0,-0.0018613481661304832,-0.0004887623363174498,-0.0,0.0,0.0,0.0,-0.003934480249881744,0.0671905055642128,0.0005718912580050528,18010.0,7386.0,7145.0,17301.0,0.746026873588562,0.10914619266986847,0.10124766826629639,0.6858934760093689,0.0,0.0,0.0,0.0,0.0,0.0,0.0,0.0,1.641982078552246,0.03001634033324846,0.07124430862550366,-0.09356919761198026,0.001933825435116887,-0.005665055010467768,0.0,-0.001898597925901413,-0.0004997942596673965,0.0
151,5,9.825917004491203e-06,9.263213541998994e-06,-7.3462488217046484e-06,-0.00014240735617931932,0.0019202233524993062,-8.440267265541479e-05,0.017382102087140083,-0.22282476723194122,0.0055596609599888325,0.0,0.0,0.0,0.0,0.0,0.0,-0.002344666514545679,-0.00012101305037504062,-0.0,0.0,0.0,0.0,-0.003934480249881744,0.0671905055642128,0.0005718912580050528,18010.0,7386.0,7145.0,17301.0,0.746026873588562,0.10914619266986847,0.10124766826629639,0.6858934760093689,0.0,0.0,0.0,0.0,0.0,0.0,0.0,0.0,1.6451764106750488,0.03001634033324846,0.07124430862550366,-0.09356919761198026,0.0004797283618245274,-0.007149923127144575,0.0,-0.001898597925901413,-0.0004997942596673965,0.0
156,5,9.825917004491203e-06,9.263213541998994e-06,-7.3462488217046484e-06,-0.00014240735617931932,0.0019202233524993062,-8.440267265541479e-05,0.01738874241709709,-0.2228391170501709,0.005573105067014694,0.0,0.0,0.0,0.0,0.0,0.0,-0.002344666514545679,-0.00012101305037504062,-0.0,0.0,0.0,0.0,-0.0039008476305752993,0.06721130013465881,0.0006521452451124787,18056.0,7252.0,7273.0,17253.0,0.7499558329582214,0.10472586005926132,0.10540609806776047,0.6818942427635193,0.0,0.0,0.0,0.0,0.0,0.0,0.0,0.0,1.6451764106750488,0.03001634033324846,0.07124430862550366,-0.09356919761198026,0.0004797283618245274,-0.007149923127144575,0.0,-0.0018613481661304832,-0.0004887623363174498,0.0
161,5,1.394920218444895e-05,-3.774259312194772e-06,-3.444154572207481e-05,0.00035505028790794313,0.0008282604976557195,0.0026860199868679047,0.01738874241709709,-0.2228391170501709,0.005573105067014694,0.0,0.0,0.0,0.0,0.0,0.0,-0.0023446560371667147,-0.00012100438470952213,-0.0,0.0,0.0,0.0,-0.0039008476305752993,0.06721130013465881,0.0006521452451124787,18056.0,7252.0,7273.0,17253.0,0.7499558329582214,0.10472586005926132,0.10540609806776047,0.6818942427635193,0.0,0.0,0.0,0.0,0.0,0.0,0.0,0.0,1.6451762914657593,0.02942561121490053,0.07058079472511605,-0.09352825143583422,0.0004796939610969275,-0.007149890996515751,0.0,-0.0018613481661304832,-0.0004887623363174498,0.0
166,5,1.394920218444895e-05,-3.774259312194772e-06,-3.444154572207481e-05,0.00035505028790794313,0.0008282604976557195,0.0026860199868679047,0.017387939617037773,-0.22282180190086365,0.005596453789621592,0.0,0.0,0.0,0.0,0.0,0.0,-0.0023446560371667147,-0.00012100438470952213,-0.0,0.0,0.0,0.0,-0.00397144490852952,0.06724366545677185,0.0006619622581638396,18070.0,7310.0,7247.0,17264.0,0.7511825561523438,0.10663574188947678,0.10454387217760086,0.6828141808509827,0.0,0.0,0.0,0.0,0.0,0.0,0.0,0.0,1.6451762914657593,0.02942561121490053,0.07058079472511605,-0.09352825143583422,0.0004796939610969275,-0.007149890996515751,0.0,-0.002344666514545679,-0.00012101305037504062,0.0
171,5,3.601224534577341e-06,1.2460274774639402e-05,5.2758437959710136e-05,0.00035505028790794313,0.0008282604976557195,0.0026860199868679047,0.017387939617037773,-0.22282180190086365,0.005596453789621592,0.0,0.0,0.0,0.0,0.0,0.0,-0.00103169830981642,0.00035749742528423667,-0.0,0.0,0.0,0.0,-0.00397144490852952,0.06724366545677185,0.0006619622581638396,18070.0,7310.0,7247.0,17264.0,0.7511825561523438,0.10663574188947678,0.10454387217760086,0.6828141808509827,0.0,0.0,0.0,0.0,0.0,0.0,0.0,0.0,1.6350535154342651,0.029851751945346963,0.07332147251507626,-0.09462131297568716,-0.001408499083481729,-0.003126749536022544,0.0,-0.002344666514545679,-0.00012101305037504062,0.0
176,5,3.601224534577341e-06,1.2460274774639402e-05,5.2758437959710136e-05,0.00035505028790794313,0.0008282604976557195,0.0026860199868679047,0.017411798238754272,-0.2227770984172821,0.00546456640586257,0.0,0.0,0.0,0.0,0.0,0.0,-0.00103169830981642,0.00035749742528423667,-0.0,0.0,0.0,0.0,-0.0039050260093063116,0.06727535277605057,0.00019102200167253613,18184.0,6959.0,7602.0,17136.0,0.7611146569252014,0.09536684304475784,0.11646301299333572,0.6722317337989807,0.0,0.0,0.0,0.0,0.0,0.0,0.0,0.0,1.6350535154342651,0.029851751945346963,0.07332147251507626,-0.09462131297568716,-0.001408499083481729,-0.003126749536022544,0.0,-0.002344666514545679,-0.00012101305037504062,0.0
181,5,1.2582718227349687e-06,3.884813395416131e-06,-1.4846325939288363e-05,0.00035505028790794313,0.0008282604976557195,0.0026860199868679047,0.017411798238754272,-0.2227770984172821,0.00546456640586257,0.0,0.0,0.0,0.0,0.0,0.0,-0.0010023961076512933,0.0003431146906223148,-0.0,0.0,0.0,0.0,-0.0039050260093063116,0.06727535277605057,0.00019102200167253613,18184.0,6959.0,7602.0,17136.0,0.7611146569252014,0.09536684304475784,0.11646301299333572,0.6722317337989807,0.0,0.0,0.0,0.0,0.0,0.0,0.0,0.0,1.634769320487976,0.03103514604674781,0.0712882097814656,-0.09392650485347175,-0.0013515978353098035,-0.003037415910512209,0.0,-0.002344666514545679,-0.00012101305037504062,0.0
186,5,1.2582718227349687e-06,3.884813395416131e-06,-1.4846325939288363e-05,0.00035505028790794313,0.0008282604976557195,0.0026860199868679047,0.017795978114008904,-0.2226119488477707,0.006096018478274345,0.0,0.0,0.0,0.0,0.0,0.0,-0.0010023961076512933,0.0003431146906223148,-0.0,0.0,0.0,0.0,-0.004232840612530708,0.06720992922782898,-0.0005428515141829848,17306.0,8937.0,4724.0,17983.0,0.6862950325012207,0.16682592034339905,0.03825899213552475,0.74367356300354,0.0,0.0,0.0,0.0,0.0,0.0,0.0,0.0,1.634769320487976,0.03103514604674781,0.0712882097814656,-0.09392650485347175,-0.0013515978353098035,-0.003037415910512209,0.0,-0.00103169830981642,0.00035749742528423667,0.0
191,5,2.321340434718877e-05,9.262954336008988e-06,-7.14493671694072e-06,0.002776636043563485,-0.00031407279311679304,0.00015024127787910402,0.017795978114008904,-0.2226119488477707,0.006096018478274345,0.0,0.0,0.0,0.0,0.0,0.0,-0.0010178927332162857,0.0003398231347091496,-0.0,0.0,0.0,0.0,-0.004232840612530708,0.06720992922782898,-0.0005428515141829848,17306.0,8937.0,4724.0,17983.0,0.6862950325012207,0.16682592034339905,0.03825899213552475,0.74367356300354,0.0,0.0,0.0,0.0,0.0,0.0,0.0,0.0,1.634872317314148,0.03041837385340412,0.0709071552075604,-0.09325005442697369,-0.0013387160142883658,-0.0030845673754811287,0.0,-0.00103169830981642,0.00035749742528423667,0.0
196,5,2.321340434718877e-05,9.262954336008988e-06,-7.14493671694072e-06,0.002776636043563485,-0.00031407279311679304,0.00015024127787910402,0.017593424767255783,-0.2222984880208969,0.006012775935232639,0.0,0.0,0.0,0.0,0.0,0.0,-0.0010178927332162857,0.0003398231347091496,-0.0,0.0,0.0,0.0,-0.003684757277369499,0.06648232787847519,0.004117132630199194,18878.0,4373.0,9393.0,16156.0,0.8230780959129333,0.03157953917980194,0.18606068193912506,0.5940510034561157,0.0,0.0,0.0,0.0,0.0,0.0,0.0,0.0,1.634872317314148,0.03041837385340412,0.0709071552075604,-0.09325005442697369,-0.0013387160142883658,-0.0030845673754811287,0.0,-0.00103169830981642,0.00035749742528423667,0.0
202,5,-1.331273506366415e-05,-2.144205973308999e-05,-1.7786349417292513e-05,0.002776636043563485,-0.00031407279311679304,0.00015024127787910402,0.017593424767255783,-0.2222984880208969,0.006012775935232639,0.0,0.0,0.0,0.0,0.0,0.0,0.0004006889648735523,0.0026439079083502293,-0.0,0.0,0.0,0.0,-0.003684757277369499,0.06648232787847519,0.004117132630199194,18878.0,4373.0,9393.0,16156.0,0.8230780959129333,0.03157953917980194,0.18606068193912506,0.5940510034561157,0.0,0.0,0.0,0.0,0.0,0.0,0.0,0.0,1.6544872522354126,0.02927537807261398,0.06944500903519366,-0.0939358687436388,-0.010540497489273548,0.001228794688358903,0.0,-0.00103169830981642,0.00035749742528423667,0.0
207,5,-1.331273506366415e-05,-2.144205973308999e-05,-1.7786349417292513e-05,0.002776636043563485,-0.00031407279311679304,0.00015024127787910402,0.017345502972602844,-0.2218112051486969,0.005278808530420065,0.0,0.0,0.0,0.0,0.0,0.0,0.0004006889648735523,0.0026439079083502293,-0.0,0.0,0.0,0.0,-0.0027337586507201195,0.06670454144477844,-0.002171373227611184,17427.0,8374.0,5913.0,17805.0,0.6964024305343628,0.1444838047027588,0.06553074717521667,0.7283523678779602,0.0,0.0,0.0,0.0,0.0,0.0,0.0,0.0,1.6544872522354126,0.02927537807261398,0.06944500903519366,-0.0939358687436388,-0.010540497489273548,0.001228794688358903,0.0,-0.0010023961076512933,0.0003431146906223148,0.0
212,5,8.20136847323738e-06,3.98989868699573e-05,5.9049518313258886e-05,0.0036923468578606844,-0.0074865547940135,-0.009160207584500313,0.017345502972602844,-0.2218112051486969,0.005278808530420065,0.0,0.0,0.0,0.0,0.0,0.0,0.0004006889648735523,0.0026439079083502293,-0.0,0.0,0.0,0.0,-0.0027337586507201195,0.06670454144477844,-0.002171373227611184,17427.0,8374.0,5913.0,17805.0,0.6964024305343628,0.1444838047027588,0.06553074717521667,0.7283523678779602,0.0,0.0,0.0,0.0,0.0,0.0,0.0,0.0,1.6544872522354126,0.02830617239171768,0.0717184324545879,-0.09353582522338814,-0.013773472048342228,0.027956649661064148,0.0,-0.0010023961076512933,0.0003431146906223148,0.0
217,5,8.20136847323738e-06,3.98989868699573e-05,5.9049518313258886e-05,0.0036923468578606844,-0.0074865547940135,-0.009160207584500313,0.017677126452326775,-0.22130069136619568,0.005975587759166956,0.0,0.0,0.0,0.0,0.0,0.0,0.008822315372526646,0.003343528136610985,-0.0,0.0,0.0,0.0,-0.0046524894423782825,0.06644657999277115,0.0019340014550834894,18081.0,7276.0,7347.0,17101.0,0.752153754234314,0.10550703853368759,0.1078462079167366,0.6693652868270874,0.0,0.0,0.0,0.0,0.0,0.0,0.0,0.0,1.7096383571624756,0.02830617239171768,0.0717184324545879,-0.09353582522338814,-0.013773472048342228,0.027956649661064148,0.0,-0.0010178927332162857,0.0003398231347091496,0.0
222,5,0.0001664827432250604,-2.9901568268542178e-05,0.00018054382235277444,0.02047070302069187,0.005381444469094276,-0.018243400380015373,0.017677126452326775,-0.22130069136619568,0.005975587759166956,0.0,0.0,0.0,0.0,0.0,0.0,0.008822315372526646,0.003343528136610985,-0.0,0.0,0.0,0.0,-0.0046524894423782825,0.06644657999277115,0.0019340014550834894,18081.0,7276.0,7347.0,17101.0,0.752153754234314,0.10550703853368759,0.1078462079167366,0.6693652868270874,0.0,0.0,0.0,0.0,0.0,0.0,0.0,0.0,1.7096383571624756,0.04749937309464546,0.07249568212906093,-0.10115506561350496,-0.077681764960289,-0.02034498006105423,0.0,-0.0010178927332162857,0.0003398231347091496,0.0
227,5,0.0001664827432250604,-2.9901568268542178e-05,0.00018054382235277444,0.02047070302069187,0.005381444469094276,-0.018243400380015373,0.017677126452326775,-0.22130069136619568,0.005975587759166956,0.0,0.0,0.0,0.0,0.0,0.0,-0.00597035838291049,0.017536550760269165,-0.0,0.0,0.0,0.0,-0.0046524894423782825,0.06644657999277115,0.0019340014550834894,18081.0,7276.0,7347.0,17101.0,0.752153754234314,0.10550703853368759,0.1078462079167366,0.6693652868270874,0.0,0.0,0.0,0.0,0.0,0.0,0.0,0.0,1.8384549617767334,0.04749937309464546,0.07249568212906093,-0.10115506561350496,-0.077681764960289,-0.02034498006105423,0.0,-0.0010178927332162857,0.0003398231347091496,0.0
232,5,0.0001579904492245987,0.00010257470421493053,0.00021451117936521769,0.02047070302069187,0.005381444469094276,-0.018243400380015373,0.017107225954532623,-0.22088506817817688,0.005732242483645678,0.0,0.0,0.0,0.0,0.0,0.0,-0.00597035838291049,0.017536550760269165,-0.0,0.0,0.0,0.0,-0.0025128007400780916,0.06662730127573013,0.0016230861656367779,18386.0,6193.0,8498.0,16904.0,0.7789493799209595,0.07296997308731079,0.1492580622434616,0.6533098220825195,0.0,0.0,0.0,0.0,0.0,0.0,0.0,0.0,1.8384549617767334,0.04296273910007408,0.07056727396667327,-0.10409561908648259,-0.07763563841581345,-0.019616464152932167,0.0,0.0004006889648735523,0.0026439079083502293,0.0
237,5,0.0001579904492245987,0.00010257470421493053,0.00021451117936521769,0.02047070302069187,0.005381444469094276,-0.018243400380015373,0.017107225954532623,-0.22088506817817688,0.005732242483645678,0.0,0.0,0.0,0.0,0.0,0.0,-0.005758397281169891,0.017531689256429672,-0.0,0.0,0.0,0.0,-0.0025128007400780916,0.06662730127573013,0.0016230861656367779,18386.0,6193.0,8498.0,16904.0,0.7789493799209595,0.07296997308731079,0.1492580622434616,0.6533098220825195,0.0,0.0,0.0,0.0,0.0,0.0,0.0,0.0,1.837870478630066,0.04296273910007408,0.07056727396667327,-0.10409561908648259,-0.07763563841581345,-0.019616464152932167,0.0,0.0004006889648735523,0.0026439079083502293,0.0
242,5,1.427645929652499e-05,0.00015405246813315898,0.00017796728934627026,0.02047070302069187,0.005381444469094276,-0.018243400380015373,0.017272457480430603,-0.2199103832244873,0.0057290163822472095,0.0,0.0,0.0,0.0,0.0,0.0,-0.005758397281169891,0.017531689256429672,-0.0,0.0,0.0,0.0,-0.003967752680182457,0.06728101521730423,0.0007003070204518735,17781.0,8305.0,7509.0,17804.0,0.726273238658905,0.13533039391040802,0.12231872975826263,0.7205440402030945,0.0,0.0,0.0,0.0,0.0,0.0,0.0,0.0,1.8357136249542236,0.025956297928664874,0.0687274523580544,-0.09788721648874382,-0.07684526592493057,-0.019332798197865486,0.0,-0.00597035838291049,0.017536550760269165,0.0
247,5,1.427645929652499e-05,0.00015405246813315898,0.00017796728934627026,0.02047070302069187,0.005381444469094276,-0.018243400380015373,0.017272457480430603,-0.2199103832244873,0.0057290163822472095,0.0,0.0,0.0,0.0,0.0,0.0,-0.005681794136762619,0.017373573035001755,-0.0,0.0,0.0,0.0,-0.003967752680182457,0.06728101521730423,0.0007003070204518735,17781.0,8305.0,7509.0,17804.0,0.726273238658905,0.13533039391040802,0.12231872975826263,0.7205440402030945,0.0,0.0,0.0,0.0,0.0,0.0,0.0,0.0,1.8357136249542236,0.025956297928664874,0.0687274523580544,-0.09788721648874382,-0.07684526592493057,-0.019332798197865486,0.0,-0.00597035838291049,0.017536550760269165,0.0
252,5,-3.6379242374096066e-05,4.386302680359222e-05,0.0004252565558999777,0.02047070302069187,0.005381444469094276,-0.018243400380015373,0.01661108061671257,-0.2185327708721161,0.005844644270837307,0.0,0.0,0.0,0.0,0.0,0.0,-0.005860849283635616,0.017313476651906967,-0.0,0.0,0.0,0.0,-0.003217918798327446,0.05545809492468834,0.0008602619054727256,18445.0,9124.0,8311.0,17913.0,0.7841237783432007,0.1745918095111847,0.14209401607513428,0.7376453876495361,0.0,0.0,0.0,0.0,0.0,0.0,0.0,0.0,1.8354052305221558,0.03019163628527275,0.061327297576645096,-0.09415244705726336,-0.07656653225421906,-0.01993868686258793,0.0,-0.005758397281169891,0.017531689256429672,0.0
258,5,-3.6379242374096066e-05,4.386302680359222e-05,0.0004252565558999777,0.02047070302069187,0.005381444469094276,-0.018243400380015373,0.01661108061671257,-0.2185327708721161,0.005844644270837307,0.0,0.0,0.0,0.0,0.0,0.0,-0.005860849283635616,0.017313476651906967,-0.0,0.0,0.0,0.0,-0.003217918798327446,0.05545809492468834,0.0008602619054727256,18445.0,9124.0,8311.0,17913.0,0.7841237783432007,0.1745918095111847,0.14209401607513428,0.7376453876495361,0.0,0.0,0.0,0.0,0.0,0.0,0.0,0.0,1.8354052305221558,0.03019163628527275,0.061327297576645096,-0.09415244705726336,-0.07656653225421906,-0.01993868686258793,0.0,-0.005758397281169891,0.017531689256429672,0.0
263,5,-0.00011777611507568508,0.00014050713798496872,0.0007430966361425817,0.02047070302069187,0.005381444469094276,-0.018243400380015373,0.016054818406701088,-0.21191638708114624,0.005780043080449104,0.0,0.0,0.0,0.0,0.0,0.0,-0.005709011107683182,0.01722586527466774,-0.0,0.0,0.0,0.0,-0.004245510324835777,0.03538248687982559,0.0016998809296637774,17820.0,10069.0,10107.0,17151.0,0.7295982837677002,0.2165423035621643,0.2183002233505249,0.6734296083450317,0.0,0.0,0.0,0.0,0.0,0.0,0.0,0.0,1.8339414596557617,0.03202113003172806,0.04421429845358767,-0.09122402329249846,-0.07611843198537827,-0.019406652078032494,0.0,-0.005681794136762619,0.017373573035001755,0.0
268,5,-0.00011777611507568508,0.00014050713798496872,0.0007430966361425817,0.02047070302069187,0.005381444469094276,-0.018243400380015373,0.016054818406701088,-0.21191638708114624,0.005780043080449104,0.0,0.0,0.0,0.0,0.0,0.0,-0.005709011107683182,0.01722586527466774,-0.0,0.0,0.0,0.0,-0.004245510324835777,0.03538248687982559,0.0016998809296637774,17820.0,10069.0,10107.0,17151.0,0.7295982837677002,0.2165423035621643,0.2183002233505249,0.6734296083450317,0.0,0.0,0.0,0.0,0.0,0.0,0.0,0.0,1.8339414596557617,0.03202113003172806,0.04421429845358767,-0.09122402329249846,-0.07611843198537827,-0.019406652078032494,0.0,-0.005681794136762619,0.017373573035001755,0.0
273,5,-0.0002228501543868333,0.00016389481606893241,0.0012862845323979855,-0.004420603159815073,-0.000653943745419383,-0.07247990369796753,0.015701914206147194,-0.20191700756549835,0.005873161368072033,0.0,0.0,0.0,0.0,0.0,0.0,-0.005709011107683182,0.01722586527466774,-0.0,0.0,0.0,0.0,-0.004359045531600714,0.010638107545673847,0.0018855136586353183,16977.0,11635.0,12079.0,15707.0,0.6592478156089783,0.29592177271842957,0.32066115736961365,0.5598829388618469,0.0,0.0,0.0,0.0,0.0,0.0,0.0,0.0,1.8339414596557617,0.034891646715457525,0.02222558468513883,-0.09355277476168765,-0.07611843198537827,-0.019406652078032494,0.0,-0.005860849283635616,0.017313476651906967,0.0
278,5,-0.0002228501543868333,0.00016389481606893241,0.0012862845323979855,-0.004420603159815073,-0.000653943745419383,-0.07247990369796753,0.015701914206147194,-0.20191700756549835,0.005873161368072033,0.0,0.0,0.0,0.0,0.0,0.0,0.0010808896040543914,-0.004411619156599045,-0.0,0.0,0.0,0.0,-0.004359045531600714,0.010638107545673847,0.0018855136586353183,16977.0,11635.0,12079.0,15707.0,0.6592478156089783,0.29592177271842957,0.32066115736961365,0.5598829388618469,0.0,0.0,0.0,0.0,0.0,0.0,0.0,0.0,1.6746976375579834,0.034891646715457525,0.02222558468513883,-0.09355277476168765,0.01780265010893345,0.0033552597742527723,0.0,-0.005860849283635616,0.017313476651906967,0.0
283,5,-0.00029594014631584287,0.0002082144346786663,0.001721839653328061,-0.004420603159815073,-0.000653943745419383,-0.07247990369796753,0.015536954626441002,-0.17511941492557526,0.005821248982101679,0.0,0.0,0.0,0.0,0.0,0.0,0.0010808896040543914,-0.004411619156599045,-0.0,0.0,0.0,0.0,-0.00566522590816021,-0.018765628337860107,0.0021261703222990036,14127.0,15150.0,16036.0,11390.0,0.44759124517440796,0.5188416838645935,0.584828794002533,0.28267979621887207,0.0,0.0,0.0,0.0,0.0,0.0,0.0,0.0,1.6746976375579834,0.03796562212101874,-0.011906844504258897,-0.09324287489711418,0.01780265010893345,0.0033552597742527723,0.0,-0.005709011107683182,0.01722586527466774,0.0
288,5,-0.00029594014631584287,0.0002082144346786663,0.001721839653328061,-0.004420603159815073,-0.000653943745419383,-0.07247990369796753,0.015536954626441002,-0.17511941492557526,0.005821248982101679,0.0,0.0,0.0,0.0,0.0,0.0,0.0011588287306949496,-0.004508296959102154,-0.0,0.0,0.0,0.0,-0.00566522590816021,-0.018765628337860107,0.0021261703222990036,14127.0,15150.0,16036.0,11390.0,0.44759124517440796,0.5188416838645935,0.584828794002533,0.28267979621887207,0.0,0.0,0.0,0.0,0.0,0.0,0.0,0.0,1.6758852005004883,0.03796562212101874,-0.011906844504258897,-0.09324287489711418,0.018205681815743446,0.003599746385589242,0.0,-0.005709011107683182,0.01722586527466774,0.0
293,5,-0.0004443212237674743,0.00019142402743455023,0.0023450988810509443,-0.01957397162914276,0.001753270160406828,-0.10378307104110718,0.01585208997130394,-0.10242357850074768,0.005951560568064451,0.0,0.0,0.0,0.0,0.0,0.0,0.0011588287306949496,-0.004508296959102154,-0.0,0.0,0.0,0.0,-0.003627732628956437,-0.04753284528851509,0.0021012204233556986,10589.0,16586.0,17427.0,7382.0,0.24153393507003784,0.6277679204940796,0.6963768601417542,0.10901889204978943,0.0,0.0,0.0,0.0,0.0,0.0,0.0,0.0,1.6758852005004883,0.035754058621786655,-0.05047545297523892,-0.09255977495909026,0.018205681815743446,0.003599746385589242,0.0,0.0010808896040543914,-0.004411619156599045,0.0
298,5,-0.0004443212237674743,0.00019142402743455023,0.0023450988810509443,-0.01957397162914276,0.001753270160406828,-0.10378307104110718,0.01585208997130394,-0.10242357850074768,0.005951560568064451,0.0,0.0,0.0,0.0,0.0,0.0,-0.0016293094959110022,-0.017225412651896477,-0.0,0.0,0.0,0.0,-0.003627732628956437,-0.04753284528851509,0.0021012204233556986,10589.0,16586.0,17427.0,7382.0,0.24153393507003784,0.6277679204940796,0.6963768601417542,0.10901889204978943,0.0,0.0,0.0,0.0,0.0,0.0,0.0,0.0,1.8274574279785156,0.035754058621786655,-0.05047545297523892,-0.09255977495909026,0.07584846019744873,-0.005518983118236065,0.0,0.0010808896040543914,-0.004411619156599045,0.0
303,5,-0.0006352555355988443,0.00023753666027914733,0.003056630026549101,-0.030741704627871513,-0.0048322067596018314,-0.12689697742462158,0.015682267025113106,-0.06743750721216202,0.005875923205167055,0.0,0.0,0.0,0.0,0.0,0.0,-0.0016293094959110022,-0.017225412651896477,-0.0,0.0,0.0,0.0,-0.001802752842195332,-0.06878741830587387,0.0019224410643801093,8746.0,17361.0,18307.0,5446.0,0.15906038880348206,0.6908952593803406,0.7719492316246033,0.053980279713869095,0.0,0.0,0.0,0.0,0.0,0.0,0.0,0.0,1.8274574279785156,0.03261205742182664,-0.09377788947946164,-0.09195630327241637,0.07584846019744873,-0.005518983118236065,0.0,0.0011588287306949496,-0.004508296959102154,0.0
308,5,-0.0006352555355988443,0.00023753666027914733,0.003056630026549101,-0.030741704627871513,-0.0048322067596018314,-0.12689697742462158,0.015682267025113106,-0.06743750721216202,0.005875923205167055,0.0,0.0,0.0,0.0,0.0,0.0,0.00540262321010232,-0.02540726587176323,-0.0,0.0,0.0,0.0,-0.001802752842195332,-0.06878741830587387,0.0019224410643801093,8746.0,17361.0,18307.0,5446.0,0.15906038880348206,0.6908952593803406,0.7719492316246033,0.053980279713869095,0.0,0.0,0.0,0.0,0.0,0.0,0.0,0.0,1.9403760433197021,0.03261205742182664,-0.09377788947946164,-0.09195630327241637,0.11877982318401337,0.01943100616335869,0.0,0.0011588287306949496,-0.004508296959102154,0.0
313,5,-0.000894120370503515,0.0003838443954009563,0.0039054816588759422,-0.030741704627871513,-0.0048322067596018314,-0.12689697742462158,0.015682267025113106,-0.06743750721216202,0.005875923205167055,0.0,0.0,0.0,0.0,0.0,0.0,0.00540262321010232,-0.02540726587176323,-0.0,0.0,0.0,0.0,-0.001802752842195332,-0.06878741830587387,0.0019224410643801093,8746.0,17361.0,18307.0,5446.0,0.15906038880348206,0.6908952593803406,0.7719492316246033,0.053980279713869095,0.0,0.0,0.0,0.0,0.0,0.0,0.0,0.0,1.9403760433197021,0.037478805875415064,-0.13543911211482212,-0.08865148844964119,0.11877982318401337,0.01943100616335869,0.0,0.0011588287306949496,-0.004508296959102154,0.0
318,5,-0.000894120370503515,0.0003838443954009563,0.0039054816588759422,-0.030741704627871513,-0.0048322067596018314,-0.12689697742462158,0.01449604332447052,-0.01698322966694832,0.005679335445165634,0.0,0.0,0.0,0.0,0.0,0.0,0.005615559872239828,-0.025661485269665718,-0.0,0.0,0.0,0.0,-0.003117356449365616,-0.07383623719215393,0.0016184333944693208,8752.0,18429.0,18932.0,5591.0,0.1592942774295807,0.7827054858207703,0.828002393245697,0.05745525658130646,0.0,0.0,0.0,0.0,0.0,0.0,0.0,0.0,1.944238543510437,0.037478805875415064,-0.13543911211482212,-0.08865148844964119,0.12020671367645264,0.020237041637301445,0.0,-0.0016293094959110022,-0.017225412651896477,0.0
323,5,-0.0010471255518496037,0.0003589105326682329,0.00431415531784296,-0.030741704627871513,-0.0048322067596018314,-0.12689697742462158,0.01449604332447052,-0.01698322966694832,0.005679335445165634,0.0,0.0,0.0,0.0,0.0,0.0,0.005615559872239828,-0.025661485269665718,-0.0,0.0,0.0,0.0,-0.003117356449365616,-0.07383623719215393,0.0016184333944693208,8752.0,18429.0,18932.0,5591.0,0.1592942774295807,0.7827054858207703,0.828002393245697,0.05745525658130646,0.0,0.0,0.0,0.0,0.0,0.0,0.0,0.0,1.944238543510437,0.039339634969684255,-0.16388764586513557,-0.08780182873060065,0.12020671367645264,0.020237041637301445,0.0,-0.0016293094959110022,-0.017225412651896477,0.0
329,5,-0.001209664042107761,0.00038285349728539586,0.004751557018607855,-0.03180130198597908,-0.004806038923561573,-0.1032470166683197,0.014555036090314388,0.009923410601913929,0.005327504128217697,0.0,0.0,0.0,0.0,0.0,0.0,0.005572027992457151,-0.025814952328801155,-0.0,0.0,0.0,0.0,-0.003918117843568325,-0.06687633693218231,0.0007601511897519231,10121.0,18327.0,18665.0,8360.0,0.21895341575145721,0.7736967206001282,0.8037756085395813,0.14395023882389069,0.0,0.0,0.0,0.0,0.0,0.0,0.0,0.0,1.9462714195251465,0.03744265047822252,-0.18071985857781495,-0.08809821551803058,0.12105190753936768,0.020101161673665047,0.0,-0.0016293094959110022,-0.017225412651896477,0.0
334,5,-0.001209664042107761,0.00038285349728539586,0.004751557018607855,-0.03180130198597908,-0.004806038923561573,-0.1032470166683197,0.014555036090314388,0.009923410601913929,0.005327504128217697,0.0,0.0,0.0,0.0,0.0,0.0,0.005572027992457151,-0.025814952328801155,-0.0,0.0,0.0,0.0,-0.003918117843568325,-0.06687633693218231,0.0007601511897519231,10121.0,18327.0,18665.0,8360.0,0.21895341575145721,0.7736967206001282,0.8037756085395813,0.14395023882389069,0.0,0.0,0.0,0.0,0.0,0.0,0.0,0.0,1.9462714195251465,0.03744265047822252,-0.18071985857781495,-0.08809821551803058,0.12105190753936768,0.020101161673665047,0.0,-0.0016293094959110022,-0.017225412651896477,0.0
339,5,-0.001209664042107761,0.00038285349728539586,0.004751557018607855,-0.03180130198597908,-0.004806038923561573,-0.1032470166683197,0.014841047115623951,0.03610461205244064,0.005169603507965803,0.0,0.0,0.0,0.0,0.0,0.0,0.005547382403165102,-0.02668895572423935,-0.0,0.0,0.0,0.0,-0.002410725224763155,-0.05002061650156975,0.0007653568172827363,11558.0,17421.0,17762.0,10313.0,0.29172635078430176,0.6958305835723877,0.7247073650360107,0.22811174392700195,0.0,0.0,0.0,0.0,0.0,0.0,0.0,0.0,1.9583117961883545,0.03744265047822252,-0.18071985857781495,-0.08809821551803058,0.12592358887195587,0.02013605833053589,0.0,0.00540262321010232,-0.02540726587176323,0.0
344,5,-0.0012142950436100364,0.00038671641959808767,0.0047486633993685246,-0.03180130198597908,-0.004806038923561573,-0.1032470166683197,0.014841047115623951,0.03610461205244064,0.005169603507965803,0.0,0.0,0.0,0.0,0.0,0.0,0.005547382403165102,-0.02668895572423935,-0.0,0.0,0.0,0.0,-0.002410725224763155,-0.05002061650156975,0.0007653568172827363,11558.0,17421.0,17762.0,10313.0,0.29172635078430176,0.6958305835723877,0.7247073650360107,0.22811174392700195,0.0,0.0,0.0,0.0,0.0,0.0,0.0,0.0,1.9583117961883545,0.026304738240080568,-0.18660834417536865,-0.08952842389931207,0.12592358887195587,0.02013605833053589,0.0,0.00540262321010232,-0.02540726587176323,0.0
349,5,-0.0012142950436100364,0.00038671641959808767,0.0047486633993685246,-0.03180130198597908,-0.004806038923561573,-0.1032470166683197,0.014382016845047474,0.04260910302400589,0.005120777990669012,0.0,0.0,0.0,0.0,0.0,0.0,0.005553375463932753,-0.02669413760304451,-0.0,0.0,0.0,0.0,-0.0009205928072333336,-0.02614368498325348,0.00023163380683399737,13045.0,16253.0,16021.0,13095.0,0.377907931804657,0.6016258597373962,0.5837260484695435,0.38097870349884033,0.0,0.0,0.0,0.0,0.0,0.0,0.0,0.0,1.9583940505981445,0.026304738240080568,-0.18660834417536865,-0.08952842389931207,0.1259533166885376,0.020158657804131508,0.0,0.005615559872239828,-0.025661485269665718,0.0
354,5,-0.001099831541068852,0.0004346892819739878,0.004584208596497774,-0.03180130198597908,-0.004806038923561573,-0.1032470166683197,0.014382016845047474,0.04260910302400589,0.005120777990669012,0.0,0.0,0.0,0.0,0.0,0.0,0.005553375463932753,-0.02669413760304451,-0.0,0.0,0.0,0.0,-0.0009205928072333336,-0.02614368498325348,0.00023163380683399737,13045.0,16253.0,16021.0,13095.0,0.377907931804657,0.6016258597373962,0.5837260484695435,0.38097870349884033,0.0,0.0,0.0,0.0,0.0,0.0,0.0,0.0,1.9583940505981445,0.033019726292250674,-0.178590426189544,-0.08932718598084964,0.1259533166885376,0.020158657804131508,0.0,0.005615559872239828,-0.025661485269665718,0.0
359,5,-0.0009477448766119778,0.00038026017136871815,0.004272529389709234,0.005529880989342928,0.0046090795658528805,-0.0038973044138401747,0.013707187958061695,0.03726857900619507,0.004796063061803579,0.0,0.0,0.0,0.0,0.0,0.0,0.005630613304674625,-0.026581013575196266,-0.0,0.0,0.0,0.0,-0.000861490610986948,-0.0028125669341534376,2.0797993784071878e-05,14777.0,14728.0,14638.0,14639.0,0.4923020005226135,0.4888345003128052,0.4825204610824585,0.4826144576072693,0.0,0.0,0.0,0.0,0.0,0.0,0.0,0.0,1.9569573402404785,0.033878885319846445,-0.16268721143071674,-0.08954329341850667,0.12532761693000793,0.02042403072118759,0.0,0.005572027992457151,-0.025814952328801155,0.0
364,5,-0.0009477448766119778,0.00038026017136871815,0.004272529389709234,0.005529880989342928,0.0046090795658528805,-0.0038973044138401747,0.013707187958061695,0.03726857900619507,0.004796063061803579,0.0,0.0,0.0,0.0,0.0,0.0,0.005630613304674625,-0.026581013575196266,-0.0,0.0,0.0,0.0,-0.000861490610986948,-0.0028125669341534376,2.0797993784071878e-05,14777.0,14728.0,14638.0,14639.0,0.4923020005226135,0.4888345003128052,0.4825204610824585,0.4826144576072693,0.0,0.0,0.0,0.0,0.0,0.0,0.0,0.0,1.9569573402404785,0.033878885319846445,-0.16268721143071674,-0.08954329341850667,0.12532761693000793,0.02042403072118759,0.0,0.005572027992457151,-0.025814952328801155,0.0
369,5,-0.0009477448766119778,0.00038026017136871815,0.004272529389709234,0.005529880989342928,0.0046090795658528805,-0.0038973044138401747,0.013455810956656933,0.02659788727760315,0.0045648678205907345,0.0,0.0,0.0,0.0,0.0,0.0,-0.004862559027969837,0.0038185128942131996,-0.0,0.0,0.0,0.0,-0.0018900847062468529,0.016305098310112953,-0.0010478385956957936,15602.0,14090.0,13003.0,16050.0,0.5520199537277222,0.4451008141040802,0.37529996037483215,0.5858911275863647,0.0,0.0,0.0,0.0,0.0,0.0,0.0,0.0,1.6843070983886719,0.033878885319846445,-0.16268721143071674,-0.08954329341850667,-0.015497485175728798,-0.015180693008005619,0.0,0.005547382403165102,-0.02668895572423935,0.0
374,5,-0.000746980425901711,0.0003782358835451305,0.0039045820012688637,0.005529880989342928,0.0046090795658528805,-0.0038973044138401747,0.013455810956656933,0.02659788727760315,0.0045648678205907345,0.0,0.0,0.0,0.0,0.0,0.0,-0.004862559027969837,0.0038185128942131996,-0.0,0.0,0.0,0.0,-0.0018900847062468529,0.016305098310112953,-0.0010478385956957936,15602.0,14090.0,13003.0,16050.0,0.5520199537277222,0.4451008141040802,0.37529996037483215,0.5858911275863647,0.0,0.0,0.0,0.0,0.0,0.0,0.0,0.0,1.6843070983886719,0.035130893104636185,-0.14663730489248417,-0.0895313392863864,-0.015497485175728798,-0.015180693008005619,0.0,0.005547382403165102,-0.02668895572423935,0.0
379,5,-0.00055098527809605,0.000329971982864663,0.0033980170264840126,0.025731371715664864,0.007635299116373062,0.05922885984182358,0.013455810956656933,0.02659788727760315,0.0045648678205907345,0.0,0.0,0.0,0.0,0.0,0.0,-0.004862559027969837,0.0038185128942131996,-0.0,0.0,0.0,0.0,-0.0018900847062468529,0.016305098310112953,-0.0010478385956957936,15602.0,14090.0,13003.0,16050.0,0.5520199537277222,0.4451008141040802,0.37529996037483215,0.5858911275863647,0.0,0.0,0.0,0.0,0.0,0.0,0.0,0.0,1.6843070983886719,0.032543020392054714,-0.12485488383174356,-0.09117785023702893,-0.015497485175728798,-0.015180693008005619,0.0,0.005547382403165102,-0.02668895572423935,0.0
384,5,-0.00055098527809605,0.000329971982864663,0.0033980170264840126,0.025731371715664864,0.007635299116373062,0.05922885984182358,0.013916783034801483,0.004215022549033165,0.004194944631308317,0.0,0.0,0.0,0.0,0.0,0.0,-0.007684769108891487,0.02060716599225998,-0.0,0.0,0.0,0.0,-0.0040886192582547665,0.0460914671421051,-0.0010991570306941867,16492.0,13056.0,11888.0,16858.0,0.6203580498695374,0.37856173515319824,0.3098878264427185,0.6495864987373352,0.0,0.0,0.0,0.0,0.0,0.0,0.0,0.0,1.881807565689087,0.032543020392054714,-0.12485488383174356,-0.09117785023702893,-0.09343332797288895,-0.026804445311427116,-0.0,-0.004862559027969837,0.0038185128942131996,0.0
389,5,-0.0004067993722856045,0.00039533653762191534,0.003272163448855281,0.025731371715664864,0.007635299116373062,0.05922885984182358,0.013916783034801483,0.004215022549033165,0.004194944631308317,0.0,0.0,0.0,0.0,0.0,0.0,-0.007684769108891487,0.02060716599225998,-0.0,0.0,0.0,0.0,-0.0040886192582547665,0.0460914671421051,-0.0010991570306941867,16492.0,13056.0,11888.0,16858.0,0.6203580498695374,0.37856173515319824,0.3098878264427185,0.6495864987373352,0.0,0.0,0.0,0.0,0.0,0.0,0.0,0.0,1.881807565689087,0.04024642122849937,-0.11197358051486055,-0.09265350084018185,-0.09343332797288895,-0.026804445311427116,-0.0,-0.004862559027969837,0.0038185128942131996,0.0
394,5,-0.0004067993722856045,0.00039533653762191534,0.003272163448855281,0.025731371715664864,0.007635299116373062,0.05922885984182358,0.013655576854944229,-0.012199796736240387,0.003927253186702728,0.0,0.0,0.0,0.0,0.0,0.0,-0.007574498653411865,0.02076311782002449,-0.0,0.0,0.0,0.0,-0.004175023175776005,0.046984754502773285,-0.000518112035933882,16498.0,10908.0,9028.0,16681.0,0.6208059787750244,0.2575185298919678,0.1705915778875351,0.6353909969329834,0.0,0.0,0.0,0.0,0.0,0.0,0.0,0.0,1.8834972381591797,0.04024642122849937,-0.11197358051486055,-0.09265350084018185,-0.09422492235898972,-0.02644355781376362,-0.0,-0.007684769108891487,0.02060716599225998,0.0
400,5,-0.00040175233152695,0.0003788048925343901,0.003157007275149226,0.010898194275796413,0.005037916358560324,0.03751027211546898,0.013655576854944229,-0.012199796736240387,0.003927253186702728,0.0,0.0,0.0,0.0,0.0,0.0,-0.007574498653411865,0.02076311782002449,-0.0,0.0,0.0,0.0,-0.004175023175776005,0.046984754502773285,-0.000518112035933882,16498.0,10908.0,9028.0,16681.0,0.6208059787750244,0.2575185298919678,0.1705915778875351,0.6353909969329834,0.0,0.0,0.0,0.0,0.0,0.0,0.0,0.0,1.8834972381591797,0.038762426353041474,-0.10007066867453704,-0.09161714040158846,-0.038626860827207565,-0.016792969778180122,-0.0,-0.007684769108891487,0.02060716599225998,0.0
405,5,-0.00040175233152695,0.0003788048925343901,0.003157007275149226,0.010898194275796413,0.005037916358560324,0.03751027211546898,0.013569085858762264,-0.033419739454984665,0.0037141714710742235,0.0,0.0,0.0,0.0,0.0,0.0,-0.005210714880377054,0.009219860658049583,-0.0,0.0,0.0,0.0,-0.00436859205365181,0.03601745888590813,-7.041291246423498e-05,16876.0,12279.0,11654.0,16276.0,0.651012659072876,0.33213403820991516,0.29695889353752136,0.6033915877342224,0.0,0.0,0.0,0.0,0.0,0.0,0.0,0.0,1.7387021780014038,0.038762426353041474,-0.10007066867453704,-0.09161714040158846,-0.038626860827207565,-0.016792969778180122,-0.0,-0.007574498653411865,0.02076311782002449,0.0
410,5,-0.00037365895695984364,0.000319103040965274,0.0031590922735631466,0.010898194275796413,0.005037916358560324,0.03751027211546898,0.013569085858762264,-0.033419739454984665,0.0037141714710742235,0.0,0.0,0.0,0.0,0.0,0.0,-0.005210714880377054,0.009219860658049583,-0.0,0.0,0.0,0.0,-0.00436859205365181,0.03601745888590813,-7.041291246423498e-05,16876.0,12279.0,11654.0,16276.0,0.651012659072876,0.33213403820991516,0.29695889353752136,0.6033915877342224,0.0,0.0,0.0,0.0,0.0,0.0,0.0,0.0,1.7387021780014038,0.04000045345783327,-0.10252851786611272,-0.09225874882701063,-0.03878006711602211,-0.01712021417915821,-0.0,-0.007574498653411865,0.02076311782002449,0.0
415,5,-0.00037365895695984364,0.000319103040965274,0.0031590922735631466,0.010898194275796413,0.005037916358560324,0.03751027211546898,0.013479932211339474,-0.04232467710971832,0.003577357390895486,0.0,0.0,0.0,0.0,0.0,0.0,-0.005310061853379011,0.009252609685063362,-0.0,0.0,0.0,0.0,-0.004181849770247936,0.0151820108294487,-5.942125426372513e-05,15013.0,13326.0,12676.0,14584.0,0.5090368390083313,0.3954300582408905,0.3554878532886505,0.4787473976612091,0.0,0.0,0.0,0.0,0.0,0.0,0.0,0.0,1.7394211292266846,0.04000045345783327,-0.10252851786611272,-0.09225874882701063,-0.03878006711602211,-0.01712021417915821,-0.0,-0.005210714880377054,0.009219860658049583,0.0
420,5,-0.0004457881150301546,0.00037188976421020925,0.0033058866392821074,-0.004296223632991314,-0.004319238942116499,-0.002611210336908698,0.013479932211339474,-0.04232467710971832,0.003577357390895486,0.0,0.0,0.0,0.0,0.0,0.0,-0.005310061853379011,0.009252609685063362,-0.0,0.0,0.0,0.0,-0.004181849770247936,0.0151820108294487,-5.942125426372513e-05,15013.0,13326.0,12676.0,14584.0,0.5090368390083313,0.3954300582408905,0.3554878532886505,0.4787473976612091,0.0,0.0,0.0,0.0,0.0,0.0,0.0,0.0,1.7394211292266846,0.0356186611547488,-0.11028998421115183,-0.09344149464399773,0.018597271293401718,0.01826074719429016,0.0,-0.005210714880377054,0.009219860658049583,0.0
425,5,-0.0004457881150301546,0.00037188976421020925,0.0033058866392821074,-0.004296223632991314,-0.004319238942116499,-0.002611210336908698,0.014042441733181477,-0.04505385458469391,0.003438100451603532,0.0,0.0,0.0,0.0,0.0,0.0,0.00580880232155323,-0.0045507014729082584,-0.0,0.0,0.0,0.0,-0.002986401319503784,-0.0030863257125020027,0.00016508839325979352,13853.0,14382.0,14084.0,13405.0,0.4293915629386902,0.46487075090408325,0.4446946382522583,0.40046417713165283,0.0,0.0,0.0,0.0,0.0,0.0,0.0,0.0,1.6960077285766602,0.0356186611547488,-0.11028998421115183,-0.09344149464399773,0.018597271293401718,0.01826074719429016,0.0,-0.005310061853379011,0.009252609685063362,0.0
430,5,-0.0006535421125590801,0.0003135885635856539,0.0036976211704313755,-0.004296223632991314,-0.004319238942116499,-0.002611210336908698,0.014042441733181477,-0.04505385458469391,0.003438100451603532,0.0,0.0,0.0,0.0,0.0,0.0,0.0057016415521502495,-0.004826202057301998,-0.0,0.0,0.0,0.0,-0.002986401319503784,-0.0030863257125020027,0.00016508839325979352,13853.0,14382.0,14084.0,13405.0,0.4293915629386902,0.46487075090408325,0.4446946382522583,0.40046417713165283,0.0,0.0,0.0,0.0,0.0,0.0,0.0,0.0,1.6976454257965088,0.04573381247332483,-0.12461179219356522,-0.09002429190835189,0.0197422057390213,0.0179411880671978,0.0,-0.005310061853379011,0.009252609685063362,0.0
435,5,-0.0006535421125590801,0.0003135885635856539,0.0036976211704313755,-0.004296223632991314,-0.004319238942116499,-0.002611210336908698,0.01388839166611433,-0.024329854175448418,0.003025020705536008,0.0,0.0,0.0,0.0,0.0,0.0,0.0057016415521502495,-0.004826202057301998,-0.0,0.0,0.0,0.0,-0.002161928918212652,-0.020137425512075424,0.00023165128368418664,12331.0,15331.0,15234.0,11780.0,0.3351176977157593,0.5320404171943665,0.5249500274658203,0.30389952659606934,0.0,0.0,0.0,0.0,0.0,0.0,0.0,0.0,1.6976454257965088,0.04573381247332483,-0.12461179219356522,-0.09002429190835189,0.0197422057390213,0.0179411880671978,0.0,0.00580880232155323,-0.0045507014729082584,0.0
440,5,-0.0008130942587740719,0.00024217393365688622,0.0038868773262947798,-0.004296223632991314,-0.004319238942116499,-0.002611210336908698,0.01388839166611433,-0.024329854175448418,0.003025020705536008,0.0,0.0,0.0,0.0,0.0,0.0,0.0057019684463739395,-0.00482674315571785,-0.0,0.0,0.0,0.0,-0.002161928918212652,-0.020137425512075424,0.00023165128368418664,12331.0,15331.0,15234.0,11780.0,0.3351176977157593,0.5320404171943665,0.5249500274658203,0.30389952659606934,0.0,0.0,0.0,0.0,0.0,0.0,0.0,0.0,1.697651982307434,0.037402542693987795,-0.1431152003871153,-0.09073188508435463,0.019744493067264557,0.017942285165190697,0.0,0.00580880232155323,-0.0045507014729082584,0.0
445,5,-0.0008130942587740719,0.00024217393365688622,0.0038868773262947798,-0.004296223632991314,-0.004319238942116499,-0.002611210336908698,0.013807528652250767,-0.010823086835443974,0.002786387922242284,0.0,0.0,0.0,0.0,0.0,0.0,0.0057019684463739395,-0.00482674315571785,-0.0,0.0,0.0,0.0,-0.0014719648752361536,-0.032030511647462845,0.00033748193527571857,11616.0,15788.0,15911.0,10984.0,0.29487282037734985,0.565999448299408,0.575330376625061,0.26144272089004517,0.0,0.0,0.0,0.0,0.0,0.0,0.0,0.0,1.697651982307434,0.037402542693987795,-0.1431152003871153,-0.09073188508435463,0.019744493067264557,0.017942285165190697,0.0,0.0057016415521502495,-0.004826202057301998,0.0
450,5,-0.0016905084485188127,0.000642243365291506,0.003791592549532652,-0.1070081889629364,-0.04973603039979935,0.010389712639153004,0.013807528652250767,-0.010823086835443974,0.002786387922242284,0.0,0.0,0.0,0.0,0.0,0.0,0.005573884584009647,-0.005038770847022533,-0.0,0.0,0.0,0.0,-0.0014719648752361536,-0.032030511647462845,0.00033748193527571857,11616.0,15788.0,15911.0,10984.0,0.29487282037734985,0.565999448299408,0.575330376625061,0.26144272089004517,0.0,0.0,0.0,0.0,0.0,0.0,0.0,0.0,1.6987264156341553,-0.010989684760666042,-0.19550423968796612,-0.1139391543926992,0.020624876022338867,0.017550352960824966,0.0,0.0057016415521502495,-0.004826202057301998,0.0
456,5,-0.0016905084485188127,0.000642243365291506,0.003791592549532652,-0.1070081889629364,-0.04973603039979935,0.010389712639153004,0.013763345777988434,0.009725655429065228,0.002623903099447489,0.0,0.0,0.0,0.0,0.0,0.0,0.005573884584009647,-0.005038770847022533,-0.0,0.0,0.0,0.0,-0.0019005475332960486,-0.03465147688984871,0.0005005132989026606,11325.0,16073.0,16101.0,10577.0,0.2792072594165802,0.5877060890197754,0.5898092985153198,0.24092929065227509,0.0,0.0,0.0,0.0,0.0,0.0,0.0,0.0,1.6987264156341553,-0.010989684760666042,-0.19550423968796612,-0.1139391543926992,0.020624876022338867,0.017550352960824966,0.0,0.0057019684463739395,-0.00482674315571785,0.0
461,5,-0.0018784577259793878,0.0006097665173001587,0.003877317765727639,-0.06535719335079193,-0.015997188165783882,-0.006131152156740427,0.013763345777988434,0.009725655429065228,0.002623903099447489,0.0,0.0,0.0,0.0,0.0,0.0,0.005573884584009647,-0.005038770847022533,-0.0,0.0,0.0,0.0,-0.0019005475332960486,-0.03465147688984871,0.0005005132989026606,11325.0,16073.0,16101.0,10577.0,0.2792072594165802,0.5877060890197754,0.5898092985153198,0.24092929065227509,0.0,0.0,0.0,0.0,0.0,0.0,0.0,0.0,1.6987264156341553,-0.015853390509085487,-0.20993483713299718,-0.11288324768635435,0.020624876022338867,0.017550352960824966,0.0,0.0057019684463739395,-0.00482674315571785,0.0
466,5,-0.0018784577259793878,0.0006097665173001587,0.003877317765727639,-0.06535719335079193,-0.015997188165783882,-0.006131152156740427,0.014174753800034523,0.02129514329135418,0.0022610235027968884,0.0,0.0,0.0,0.0,0.0,0.0,0.014988168142735958,-0.04650076478719711,-0.0,0.0,0.0,0.0,-0.002553632715716958,-0.03306486830115318,-0.0004681318823713809,11295.0,16161.0,15589.0,11256.0,0.2776201665401459,0.594447910785675,0.551091730594635,0.27556660771369934,0.0,0.0,0.0,0.0,0.0,0.0,0.0,0.0,2.2810380458831787,-0.015853390509085487,-0.20993483713299718,-0.11288324768635435,0.25546959042549133,0.06336655467748642,0.0,0.005573884584009647,-0.005038770847022533,0.0
471,5,-0.001991579309105873,0.0006270063458941877,0.004299261141568422,-0.06535719335079193,-0.015997188165783882,-0.006131152156740427,0.014174753800034523,0.02129514329135418,0.0022610235027968884,0.0,0.0,0.0,0.0,0.0,0.0,0.014988168142735958,-0.04650076478719711,-0.0,0.0,0.0,0.0,-0.002553632715716958,-0.03306486830115318,-0.0004681318823713809,11295.0,16161.0,15589.0,11256.0,0.2776201665401459,0.594447910785675,0.551091730594635,0.27556660771369934,0.0,0.0,0.0,0.0,0.0,0.0,0.0,0.0,2.2810380458831787,-0.009554603564894846,-0.20590022574528893,-0.11483231222080956,0.25546959042549133,0.06336655467748642,0.0,0.005573884584009647,-0.005038770847022533,0.0
476,5,-0.001991579309105873,0.0006270063458941877,0.004299261141568422,-0.06535719335079193,-0.015997188165783882,-0.006131152156740427,0.014227444306015968,0.03369607776403427,0.0014811630826443434,0.0,0.0,0.0,0.0,0.0,0.0,0.01500170212239027,-0.046586114913225174,-0.0,0.0,0.0,0.0,-0.001443204004317522,-0.0263950414955616,-0.00160368368960917,12587.0,18468.0,17553.0,13978.0,0.35019972920417786,0.7862067222595215,0.70699143409729,0.43764016032218933,0.0,0.0,0.0,0.0,0.0,0.0,0.0,0.0,2.2824695110321045,-0.009554603564894846,-0.20590022574528893,-0.11483231222080956,0.2560987174510956,0.06346356868743896,0.0,0.005573884584009647,-0.005038770847022533,0.0
481,5,-0.0021108051296323538,0.0006168926483951509,0.004178192466497421,-0.06535719335079193,-0.015997188165783882,-0.006131152156740427,0.014227444306015968,0.03369607776403427,0.0014811630826443434,0.0,0.0,0.0,0.0,0.0,0.0,0.01500170212239027,-0.046586114913225174,-0.0,0.0,0.0,0.0,-0.001443204004317522,-0.0263950414955616,-0.00160368368960917,12587.0,18468.0,17553.0,13978.0,0.35019972920417786,0.7862067222595215,0.70699143409729,0.43764016032218933,0.0,0.0,0.0,0.0,0.0,0.0,0.0,0.0,2.2824695110321045,-0.012114563003852545,-0.2162165393623698,-0.11606534162984085,0.2560987174510956,0.06346356868743896,0.0,0.005573884584009647,-0.005038770847022533,0.0
486,5,-0.0021108051296323538,0.0006168926483951509,0.004178192466497421,-0.06535719335079193,-0.015997188165783882,-0.006131152156740427,0.01376207172870636,0.03763570263981819,0.0011050824541598558,0.0,0.0,0.0,0.0,0.0,0.0,0.014979720115661621,-0.046677686274051666,-0.0,0.0,0.0,0.0,0.001281666336581111,-0.03093096613883972,-0.0010820651659741998,13384.0,17826.0,17289.0,14433.0,0.3991193175315857,0.730121910572052,0.6848796010017395,0.4683486223220825,0.0,0.0,0.0,0.0,0.0,0.0,0.0,0.0,2.283892869949341,-0.012114563003852545,-0.2162165393623698,-0.11606534162984085,0.2567618489265442,0.06341010332107544,0.0,0.01500170212239027,-0.046586114913225174,0.0
