timestamp,dt,pos_x,pos_y,pos_z,vel_x,vel_y,vel_z,roll,pitch,yaw,agv_x,agv_y,agv_z,x_ref,y_ref,z_ref,roll_ref,pitch_ref,yaw_ref,x_vel_ref,y_vel_ref,z_vel_ref,x_torque,y_torque,z_torque,w0,w1,w2,w3,u0,u1,u2,u3,m0req,m1req,m2req,m3req,thrust0,thrust1,thrust2,thrust3,thrust_ref,roll_vicon,pitch_vicon,yaw_vicon,acc_x,acc_y,acc_z
5,5,0.0,0.0,0.0,0.004918841645121574,0.006531678605824709,0.011072630062699318,0.00695034908130765,0.005006591323763132,-0.0014229234075173736,0.0029651152435690165,-0.0029916749335825443,-0.0001777475408744067,0.0,0.0,0.0,-0.007735587656497955,0.004481202457100153,-0.0,0.0,0.0,0.0,-0.0020686876960098743,-0.001369637786410749,-0.0002599112631287426,1495.0,1495.0,1495.0,1495.0,0.0,0.0,0.0,0.0,0.0,0.0,0.0,0.0,1495.0,1495.0,1495.0,1495.0,1.7082918882369995,0.026326232332716294,0.024752908438683614,-0.08617465216022362,-0.018445655703544617,-0.02449379488825798,0.0
29,24,0.0,0.0,0.0,-0.0004614607023540884,0.0013798591680824757,0.007221709471195936,0.00695034908130765,0.005006591323763132,-0.0014229234075173736,0.0029651152435690165,-0.0029916749335825443,-0.0001777475408744067,0.0,0.0,0.0,-0.007735587656497955,0.004481202457100153,-0.0,0.0,0.0,0.0,-0.0020686876960098743,-0.001369637786410749,-0.0002599112631287426,1495.0,1495.0,1495.0,1495.0,0.0,0.0,0.0,0.0,0.0,0.0,0.0,0.0,1495.0,1495.0,1495.0,1495.0,1.7082918882369995,0.022205534304075205,0.025672966706228102,-0.08811183932191244,-0.018445655703544617,-0.02449379488825798,0.0
34,5,0.0,0.0,0.0,0.050155144184827805,0.00862840749323368,0.08692244440317154,0.006966611836105585,0.004976649768650532,-0.0014439539518207312,8.639848965685815e-05,0.002383501036092639,-0.001160618383437395,0.0,0.0,0.0,-0.0017016457859426737,-0.0004377498698886484,-0.0,0.0,0.0,0.0,-0.004298408981412649,-0.00021591086988337338,-0.00020086890435777605,1495.0,1495.0,1495.0,1495.0,0.0,0.0,0.0,0.0,0.0,0.0,0.0,0.0,1495.0,1495.0,1495.0,1495.0,1.6405470371246338,-0.004083064378808773,0.022843857734185503,-0.09877534324951998,0.0017304776702076197,-0.0051744719967246056,0.0
39,5,0.0,0.0,0.0,0.019752778112888336,0.0035523539409041405,0.03414584696292877,0.006966611836105585,0.004976649768650532,-0.0014439539518207312,8.639848965685815e-05,0.002383501036092639,-0.001160618383437395,0.0,0.0,0.0,-0.0017016457859426737,-0.0004377498698886484,-0.0,0.0,0.0,0.0,-0.004298408981412649,-0.00021591086988337338,-0.00020086890435777605,1495.0,1495.0,1495.0,1495.0,0.0,0.0,0.0,0.0,0.0,0.0,0.0,0.0,1495.0,1495.0,1495.0,1495.0,1.6405470371246338,-0.0034953465362770933,0.022908995958327235,-0.0989835446417006,0.0017304776702076197,-0.0051744719967246056,0.0
44,5,0.0,0.0,0.0,0.019752778112888336,0.0035523539409041405,0.03414584696292877,0.006938099395483732,0.004972940776497126,-0.0014578945701941848,0.0002846640709321946,-0.001170731382444501,-0.002193720079958439,0.0,0.0,0.0,-0.003937107045203447,0.016840992495417595,-0.0,0.0,0.0,0.0,-0.004328243900090456,-0.0002669877139851451,-0.00014272450061980635,1495.0,1495.0,1495.0,1495.0,0.0,0.0,0.0,0.0,0.0,0.0,0.0,0.0,1495.0,1495.0,1495.0,1495.0,1.825424075126648,-0.0034953465362770933,0.022908995958327235,-0.0989835446417006,-0.07407291978597641,-0.013321327045559883,0.0
57,13,3.787135938182473e-05,2.695162038435228e-05,-4.6384124289033934e-05,0.004199354909360409,-0.0021767159923911095,0.005843355320394039,0.006938099395483732,0.004972940776497126,-0.0014578945701941848,0.0002846640709321946,-0.001170731382444501,-0.002193720079958439,0.0,0.0,0.0,-0.003937107045203447,0.016840992495417595,-0.0,0.0,0.0,0.0,-0.004328243900090456,-0.0002669877139851451,-0.00014272450061980635,14019.0,14180.0,13507.0,13552.0,0.44037675857543945,0.4511793255805969,0.40691518783569336,0.4098206162452698,0.0,0.0,0.0,0.0,1495.0,1495.0,1495.0,1495.0,1.825424075126648,-0.004952514157696344,0.02270239111683706,-0.09882150915583088,-0.015956005081534386,0.008311012759804726,0.0
62,5,9.459745342610404e-05,5.185081681702286e-05,-0.00016259163385257125,0.008486872538924217,-0.003858590265735984,0.01628224365413189,0.006938099395483732,0.004972940776497126,-0.0014578945701941848,0.0002846640709321946,-0.001170731382444501,-0.002193720079958439,0.0,0.0,0.0,0.002677914686501026,0.003954807296395302,-0.0,0.0,0.0,0.0,-0.004328243900090456,-0.0002669877139851451,-0.00014272450061980635,14019.0,14180.0,13507.0,13552.0,0.44037675857543945,0.4511793255805969,0.40691518783569336,0.4098206162452698,0.0,0.0,0.0,0.0,1495.0,1495.0,1495.0,1495.0,1.6743628978729248,-0.0043619474499001975,0.023034648906728888,-0.09948383887277033,-0.015956005081534386,0.008311012759804726,0.0
67,5,0.0001264032325707376,9.681118535809219e-05,-0.00029424717649817467,0.007211442105472088,-0.006938680075109005,0.022311562672257423,0.006923535373061895,0.004985969513654709,-0.0014600189169868827,-0.002367822453379631,-0.008154529146850109,0.0003723597910720855,0.0,0.0,0.0,0.008286144584417343,0.006658734288066626,-0.0,0.0,0.0,0.0,-0.004372034687548876,-0.00038545450661331415,-4.7906418330967426e-05,14056.0,14144.0,13540.0,13519.0,0.4428275227546692,0.44873958826065063,0.4090268015861511,0.40769797563552856,0.0,0.0,0.0,0.0,14015.0,14185.0,13509.0,13550.0,1.7288633584976196,-0.005431437615116355,0.021951437826930792,-0.0992301443827325,-0.027738701552152634,0.026552945375442505,0.0
73,5,0.00018265827384311706,0.00016707516624592245,-0.00045528492773883045,0.009635182097554207,-0.011207150295376778,0.02824915386736393,0.006923535373061895,0.004985969513654709,-0.0014600189169868827,-0.002367822453379631,-0.008154529146850109,0.0003723597910720855,0.0,0.0,0.0,0.008286144584417343,0.006658734288066626,-0.0,0.0,0.0,0.0,-0.004372034687548876,-0.00038545450661331415,-4.7906418330967426e-05,14056.0,14144.0,13540.0,13519.0,0.4428275227546692,0.44873958826065063,0.4090268015861511,0.40769797563552856,0.0,0.0,0.0,0.0,14015.0,14185.0,13509.0,13550.0,1.7288633584976196,-0.005848860137477942,0.02161639386591445,-0.09905076224184363,-0.027738701552152634,0.026552945375442505,0.0
78,5,0.00022111214639153332,0.00023186716134659946,-0.0006402750732377172,0.008468538522720337,-0.012257898226380348,0.033498480916023254,0.006923535373061895,0.004985969513654709,-0.0014600189169868827,-0.002367822453379631,-0.008154529146850109,0.0003723597910720855,0.0,0.0,0.0,0.008286144584417343,0.006658734288066626,-0.0,0.0,0.0,0.0,-0.004372034687548876,-0.00038545450661331415,-4.7906418330967426e-05,14056.0,14144.0,13540.0,13519.0,0.4428275227546692,0.44873958826065063,0.4090268015861511,0.40769797563552856,0.0,0.0,0.0,0.0,14015.0,14185.0,13509.0,13550.0,1.7288633584976196,-0.006823948029334636,0.020644761996176975,-0.0986007004093852,-0.027738701552152634,0.026552945375442505,0.0
83,5,0.0002364698884775862,0.00030310783768072724,-0.0007690032944083214,0.005230343900620937,-0.013452041894197464,0.028846776112914085,0.006907741539180279,0.005020075011998415,-0.001439482904970646,-0.002015810227021575,-0.006242707371711731,0.002980973804369569,0.0,0.0,0.0,0.01432359404861927,0.00769068906083703,-0.0,0.0,0.0,0.0,-0.002597204875200987,-0.0015597508754581213,-0.00025321924476884305,14056.0,14144.0,13540.0,13519.0,0.4428275227546692,0.44873958826065063,0.4090268015861511,0.40769797563552856,0.0,0.0,0.0,0.0,13554.0,13911.0,13467.0,13288.0,1.7795480489730835,-0.005793213413913394,0.01995647785718246,-0.09801099621625456,-0.0329744853079319,0.047243632376194,0.0
88,5,0.00025968480622395873,0.00038355321157723665,-0.0008907120791263878,0.0048779272474348545,-0.015034261159598827,0.026143763214349747,0.006907741539180279,0.005020075011998415,-0.001439482904970646,-0.002015810227021575,-0.006242707371711731,0.002980973804369569,0.0,0.0,0.0,0.01432359404861927,0.00769068906083703,-0.0,0.0,0.0,0.0,-0.002597204875200987,-0.0015597508754581213,-0.00025321924476884305,14056.0,14144.0,13540.0,13519.0,0.4428275227546692,0.44873958826065063,0.4090268015861511,0.40769797563552856,0.0,0.0,0.0,0.0,13554.0,13911.0,13467.0,13288.0,1.7795480489730835,-0.005385442601650364,0.0197503899087949,-0.09742523762949808,-0.0329744853079319,0.047243632376194,0.0
93,5,0.0002467521990183741,0.0004402176709845662,-0.0009528486989438534,0.0003992588899563998,-0.012813439592719078,0.017913904041051865,0.006883573718369007,0.004964356776326895,-0.0014658226864412427,0.001299715950153768,0.0009348447783850133,-0.0032547505106776953,0.0,0.0,0.0,0.01762714982032776,0.0045724427327513695,-0.0,0.0,0.0,0.0,-0.0031527590472251177,0.0036390996538102627,-0.00014098193787503988,14628.0,14288.0,13728.0,14369.0,0.48181357979774475,0.45842376351356506,0.4211808741092682,0.46400585770606995,0.0,0.0,0.0,0.0,14640.0,14272.0,13722.0,14377.0,1.7903434038162231,-0.005683613197967479,0.018963969892666133,-0.09669016685223497,-0.019722752273082733,0.058490607887506485,0.0
98,5,-1.1880655620188918e-05,-2.655466232681647e-05,4.998277290724218e-05,-0.030876239761710167,0.05088730528950691,-0.11317421495914459,0.006883573718369007,0.004964356776326895,-0.0014658226864412427,0.001299715950153768,0.0009348447783850133,-0.0032547505106776953,0.0,0.0,0.0,0.01762714982032776,0.0045724427327513695,-0.0,0.0,0.0,0.0,-0.0031527590472251177,0.0036390996538102627,-0.00014098193787503988,14628.0,14288.0,13728.0,14369.0,0.48181357979774475,0.45842376351356506,0.4211808741092682,0.46400585770606995,0.0,0.0,0.0,0.0,14640.0,14272.0,13722.0,14377.0,1.7903434038162231,-0.0033096116111270245,0.023232287010861195,-0.09883338226630053,-0.019722752273082733,0.058490607887506485,0.0
103,5,-1.8059483409160748e-05,-5.470907581184292e-06,4.961755985277705e-05,-0.013091955333948135,0.017824871465563774,-0.04522586241364479,0.00691199442371726,0.004960852209478617,-0.001461188425309956,0.002846489194780588,-0.0034654971677809954,0.0012041089357808232,0.0,0.0,0.0,-0.0470651313662529,-0.021973827853798866,-0.0,0.0,0.0,0.0,-0.0013179584639146924,-0.0003604215453378856,-0.00013647401647176594,13706.0,13845.0,13579.0,13620.0,0.419744610786438,0.42885762453079224,0.41155409812927246,0.4142065644264221,0.0,0.0,0.0,0.0,13696.0,13856.0,13564.0,13633.0,2.1905384063720703,-0.003975018631690303,0.022702064225682127,-0.09871776592717277,0.11584902554750443,-0.19097095727920532,0.0
108,5,-1.9742059521377087e-05,-2.4262205897684908e-06,6.001165820634924e-05,-0.005438691005110741,0.006764586083590984,-0.019337637349963188,0.00691199442371726,0.004960852209478617,-0.001461188425309956,0.002846489194780588,-0.0034654971677809954,0.0012041089357808232,0.0,0.0,0.0,-0.0470651313662529,-0.021973827853798866,-0.0,0.0,0.0,0.0,-0.0013179584639146924,-0.0003604215453378856,-0.00013647401647176594,13706.0,13845.0,13579.0,13620.0,0.419744610786438,0.42885762453079224,0.41155409812927246,0.4142065644264221,0.0,0.0,0.0,0.0,13696.0,13856.0,13564.0,13633.0,2.1905384063720703,-0.00403883880767527,0.022914739351364975,-0.09867903378778964,0.11584902554750443,-0.19097095727920532,0.0
113,5,4.268950760888401e-06,3.248374014219735e-06,1.5811194316484034e-05,0.0007058447226881981,0.002024883171543479,-0.002430998720228672,0.0069230226799845695,0.005015462636947632,-0.0014361852081492543,0.0030499722342938185,-0.007151826750487089,0.0032167015597224236,0.0,0.0,0.0,-0.007990413345396519,-0.004965477157384157,-0.0,0.0,0.0,0.0,0.002216837601736188,0.000477704219520092,-6.470573862316087e-05,13959.0,13936.0,14172.0,14277.0,0.4363810420036316,0.4348466396331787,0.45063918828964233,0.45768117904663086,0.0,0.0,0.0,0.0,13932.0,13957.0,14124.0,14330.0,1.7135190963745117,-0.0038797181843534677,0.02283954904414544,-0.09882582609971198,0.020501526072621346,-0.02537805587053299,0.0
129,16,-1.6153124306583777e-05,-1.665625131863635e-05,5.686623262590729e-05,-0.003613254753872752,0.0030124601908028126,-0.006539158523082733,0.0069166189059615135,0.005025370046496391,-0.0014415525365620852,0.0017907131696119905,-0.009004475548863411,0.0010128512512892485,0.0,0.0,0.0,-0.0036700177006423473,-0.003381120739504695,-0.0,0.0,0.0,0.0,-0.016106735914945602,-0.00806199386715889,-0.0001884463126771152,15967.0,16927.0,15064.0,14060.0,0.5795849561691284,0.6551955938339233,0.5126389265060425,0.44311895966529846,0.0,0.0,0.0,0.0,13816.0,14027.0,14287.0,14371.0,1.6737581491470337,-0.003566147352443923,0.02294677420616011,-0.0987581819183898,0.013636456802487373,-0.011385907419025898,0.0
134,5,-2.527712240407709e-05,-8.487298146064859e-06,6.516492430819198e-05,-0.0025401816237717867,0.00022470962721854448,-0.0036115064285695553,0.006907339673489332,0.005033257883042097,-0.0014509453903883696,0.0011333351721987128,0.0038220910355448723,0.004084964748471975,0.0,0.0,0.0,-0.0036700177006423473,-0.003381120739504695,-0.0,0.0,0.0,0.0,-0.004454557318240404,-0.0030679176561534405,-0.00017027203284669667,13881.0,14365.0,13713.0,13372.0,0.43124207854270935,0.4636697471141815,0.42025241255760193,0.3983548581600189,0.0,0.0,0.0,0.0,15966.0,16932.0,15055.0,14065.0,1.6737581491470337,-0.0028555098049900442,0.023016934968029992,-0.09873374334725683,0.013636456802487373,-0.011385907419025898,0.0
139,5,-2.0038773072883487e-05,-4.693588834925322e-06,2.3488810256822035e-05,-0.0003874708490911871,-0.0003653612220659852,0.0035565311554819345,0.006907339673489332,0.005033257883042097,-0.0014509453903883696,0.0011333351721987128,0.0038220910355448723,0.004084964748471975,0.0,0.0,0.0,-0.0036700177006423473,-0.003381120739504695,-0.0,0.0,0.0,0.0,-0.004454557318240404,-0.0030679176561534405,-0.00017027203284669667,13881.0,14365.0,13713.0,13372.0,0.43124207854270935,0.4636697471141815,0.42025241255760193,0.3983548581600189,0.0,0.0,0.0,0.0,15966.0,16932.0,15055.0,14065.0,1.6737581491470337,-0.0033628175307099713,0.02287042375422122,-0.09886042016598924,0.013636456802487373,-0.011385907419025898,0.0
144,5,-6.217089685378596e-05,-3.862790435960051e-06,9.841300925472751e-05,-0.005210842937231064,-0.0002458402595948428,-0.00756829185411334,0.006914512719959021,0.005034725181758404,-0.0014515373622998595,0.0014064660063013434,-0.0028581812512129545,-0.0038852891884744167,0.0,0.0,0.0,0.00044536625500768423,-0.00039715843740850687,-0.0,0.0,0.0,0.0,-0.004580196458846331,-0.0032065960112959146,-0.00022185749548953027,13820.0,14437.0,13658.0,13414.0,0.4272191524505615,0.4686436653137207,0.4166717529296875,0.400984525680542,0.0,0.0,0.0,0.0,13895.0,14349.0,13743.0,13344.0,1.6313430070877075,-0.0019785385856457513,0.023304335520315845,-0.09843174066838349,0.0015612085117027164,0.0013467008247971535,0.0
149,5,-8.819981303531677e-05,3.557875515980413e-06,0.0001313218817813322,-0.005207807291299105,-0.0009888160275295377,-0.006976381875574589,0.006914512719959021,0.005034725181758404,-0.0014515373622998595,0.0014064660063013434,-0.0028581812512129545,-0.0038852891884744167,0.0,0.0,0.0,0.00044536625500768423,-0.00039715843740850687,-0.0,0.0,0.0,0.0,-0.004580196458846331,-0.0032065960112959146,-0.00022185749548953027,13820.0,14437.0,13658.0,13414.0,0.4272191524505615,0.4686436653137207,0.4166717529296875,0.400984525680542,0.0,0.0,0.0,0.0,13895.0,14349.0,13743.0,13344.0,1.6313430070877075,-0.0015527511084230772,0.02303512288111188,-0.0983033679382467,0.0015612085117027164,0.0013467008247971535,0.0
154,5,-0.00011803195957327262,2.7729165594791993e-05,0.0002618636644911021,-0.005662980023771524,-0.0032960812095552683,-0.018455564975738525,0.006927455309778452,0.004995172843337059,-0.001441657543182373,0.00025029396056197584,0.002627298468723893,-0.0008009211160242558,0.0,0.0,0.0,0.0011973261134698987,-0.004941525403410196,-0.0,0.0,0.0,0.0,-0.0017092155758291483,-0.0017281722975894809,-0.00020490930182859302,13686.0,14103.0,13585.0,13357.0,0.4184463620185852,0.4459824562072754,0.41195183992385864,0.39737749099731445,0.0,0.0,0.0,0.0,13640.0,14145.0,13569.0,13375.0,1.6807149648666382,-0.000278522677818963,0.023226398682854955,-0.09741332744405251,0.020012665539979935,0.0037300519179552794,0.0
159,5,-0.00023547056480310857,2.505759402993135e-05,0.0004560063825920224,-0.016357824206352234,-0.0009978438029065728,-0.030679352581501007,0.006927455309778452,0.004995172843337059,-0.001441657543182373,0.00025029396056197584,0.002627298468723893,-0.0008009211160242558,0.0,0.0,0.0,0.0011973261134698987,-0.004941525403410196,-0.0,0.0,0.0,0.0,-0.0017092155758291483,-0.0017281722975894809,-0.00020490930182859302,13686.0,14103.0,13585.0,13357.0,0.4184463620185852,0.4459824562072754,0.41195183992385864,0.39737749099731445,0.0,0.0,0.0,0.0,13640.0,14145.0,13569.0,13375.0,1.6807149648666382,0.0013327721897389642,0.02361047810089319,-0.09726387632787951,0.020012665539979935,0.0037300519179552794,0.0
164,5,-0.000380231678718701,2.412338108115364e-05,0.0007146569550968707,-0.023914463818073273,-0.00028703195857815444,-0.043309811502695084,0.006839736830443144,0.004999140743166208,-0.0014505181461572647,-0.026048019528388977,-0.008980178274214268,0.006477650720626116,0.0,0.0,0.0,0.0011681901523843408,-0.014498637989163399,-0.0,0.0,0.0,0.0,-0.0016818676376715302,-0.0035009959246963263,-0.001111838617362082,13016.0,14580.0,13297.0,13900.0,0.37609997391700745,0.4785288870334625,0.39358416199684143,0.4325019419193268,0.0,0.0,0.0,0.0,13562.0,13650.0,13693.0,13172.0,1.7929191589355469,0.003150681133794757,0.022897952550312503,-0.09536020465120765,0.06263604015111923,0.0038822421338409185,0.0
169,5,-0.00047697292757220566,2.8173528335173614e-05,0.000871883356012404,-0.021174736320972443,-0.0006008304771967232,-0.03619108721613884,0.006839736830443144,0.004999140743166208,-0.0014505181461572647,-0.026048019528388977,-0.008980178274214268,0.006477650720626116,0.0,0.0,0.0,0.0011681901523843408,-0.014498637989163399,-0.0,0.0,0.0,0.0,-0.0016818676376715302,-0.0035009959246963263,-0.001111838617362082,13016.0,14580.0,13297.0,13900.0,0.37609997391700745,0.4785288870334625,0.39358416199684143,0.4325019419193268,0.0,0.0,0.0,0.0,13562.0,13650.0,13693.0,13172.0,1.7929191589355469,0.009402356850467782,0.023723593402175752,-0.09416807404078727,0.06263604015111923,0.0038822421338409185,0.0
175,5,-0.0006346203736029565,5.1289895054651424e-05,0.001115922350436449,-0.02738759107887745,-0.003014296293258667,-0.04376112297177315,0.006839736830443144,0.004999140743166208,-0.0014505181461572647,-0.026048019528388977,-0.008980178274214268,0.006477650720626116,0.0,0.0,0.0,0.000705681333784014,-0.01847226917743683,-0.0,0.0,0.0,0.0,-0.0016818676376715302,-0.0035009959246963263,-0.001111838617362082,13016.0,14580.0,13297.0,13900.0,0.37609997391700745,0.4785288870334625,0.39358416199684143,0.4325019419193268,0.0,0.0,0.0,0.0,13562.0,13650.0,13693.0,13172.0,1.8429864645004272,0.011463195505708634,0.023695388185809303,-0.09305236080101269,0.08202939480543137,0.0024106784258037806,0.0
180,5,-0.0007646883022971451,9.14366464712657e-05,0.0013070432469248772,-0.026563186198472977,-0.006023328751325607,-0.040438950061798096,0.006774093955755234,0.005079610273241997,-0.0015324160922318697,-0.000269716460024938,-0.01284208707511425,-0.03531334921717644,0.0,0.0,0.0,0.000705681333784014,-0.01847226917743683,-0.0,0.0,0.0,0.0,-0.0019374651601538062,-0.005876000504940748,-1.2959646483068354e-05,13386.0,15058.0,13940.0,14108.0,0.39924386143684387,0.5122296810150146,0.43511906266212463,0.44632652401924133,0.0,0.0,0.0,0.0,13747.0,13906.0,14018.0,13161.0,1.8429864645004272,0.014702812452505418,0.02442891816553569,-0.09178880085560219,0.08202939480543137,0.0024106784258037806,0.0
185,5,-0.0008817730704322457,0.00013089622370898724,0.0014985552988946438,-0.024675443768501282,-0.007144481409341097,-0.03915702551603317,0.006774093955755234,0.005079610273241997,-0.0015324160922318697,-0.000269716460024938,-0.01284208707511425,-0.03531334921717644,0.0,0.0,0.0,0.0065398975275456905,-0.022618720307946205,-0.0,0.0,0.0,0.0,-0.0019374651601538062,-0.005876000504940748,-1.2959646483068354e-05,13386.0,15058.0,13940.0,14108.0,0.39924386143684387,0.5122296810150146,0.43511906266212463,0.44632652401924133,0.0,0.0,0.0,0.0,13747.0,13906.0,14018.0,13161.0,1.905076503753662,0.01846524390532436,0.024349767406188088,-0.0897620206796858,0.10382119566202164,0.023093314841389656,0.0
190,5,-0.0009231310104951262,0.0001292040105909109,0.0015585040673613548,-0.01483312901109457,-0.0026547263842076063,-0.022856663912534714,0.006800360511988401,0.00508852070197463,-0.0015565345529466867,-0.0020274852868169546,-0.0034912365954369307,0.055574286729097366,0.0,0.0,0.0,0.0065398975275456905,-0.022618720307946205,-0.0,0.0,0.0,0.0,-0.0012842768337577581,-0.006364328786730766,0.00016261139535345137,14258.0,14590.0,15021.0,13363.0,0.456438273191452,0.4791792333126068,0.5095647573471069,0.3978041708469391,0.0,0.0,0.0,0.0,13458.0,14981.0,14013.0,14049.0,1.905076503753662,0.019748818447005573,0.025035821928657536,-0.09032426594931692,0.10382119566202164,0.023093314841389656,0.0
195,5,-0.0008780386997386813,0.00014919509703759104,0.0014863472897559404,-0.0005221787141636014,-0.0034608207643032074,-0.0004838521999772638,0.006800360511988401,0.00508852070197463,-0.0015565345529466867,-0.0020274852868169546,-0.0034912365954369307,0.055574286729097366,0.0,0.0,0.0,0.003215671516954899,-0.014075295999646187,-0.0,0.0,0.0,0.0,-0.0012842768337577581,-0.006364328786730766,0.00016261139535345137,14258.0,14590.0,15021.0,13363.0,0.456438273191452,0.4791792333126068,0.5095647573471069,0.3978041708469391,0.0,0.0,0.0,0.0,13458.0,14981.0,14013.0,14049.0,1.7900043725967407,0.018738680527389997,0.0249988763642004,-0.0896263352415342,0.060708142817020416,0.010669227689504623,0.0
200,5,-2.9825721412635176e-06,-1.796450646907033e-06,5.587410487351008e-05,0.10479786247015,0.016734657809138298,0.1714632362127304,0.006793538574129343,0.005093119107186794,-0.0016849329695105553,-0.001312153646722436,0.00461541535332799,-0.0317164808511734,0.0,0.0,0.0,0.003215671516954899,-0.014075295999646187,-0.0,0.0,0.0,0.0,-0.0015913613606244326,-0.0075521767139434814,-0.002171227242797613,13281.0,15695.0,14457.0,14651.0,0.3926122188568115,0.5590054988861084,0.46999630331993103,0.48346251249313354,0.0,0.0,0.0,0.0,14435.0,14455.0,15097.0,13233.0,1.7900043725967407,-0.003501576364413652,0.022931856427889624,-0.09868293661153973,0.060708142817020416,0.010669227689504623,0.0
205,5,-1.3773020327789709e-05,-1.3209169992478564e-05,0.00010344983456889167,0.04062429443001747,0.008063388988375664,0.06287620961666107,0.006793538574129343,0.005093119107186794,-0.0016849329695105553,-0.001312153646722436,0.00461541535332799,-0.0317164808511734,0.0,0.0,0.0,-0.013179817236959934,0.0635240375995636,-0.0,0.0,0.0,0.0,-0.0015913613606244326,-0.0075521767139434814,-0.002171227242797613,13281.0,15695.0,14457.0,14651.0,0.3926122188568115,0.5590054988861084,0.46999630331993103,0.48346251249313354,0.0,0.0,0.0,0.0,14435.0,14455.0,15097.0,13233.0,2.5692005157470703,-0.0034640167767031366,0.02342737622962627,-0.09898199501729638,-0.39296889305114746,-0.06276147067546844,-0.0
210,5,1.2278045687708072e-05,-9.785492693481501e-06,8.214566332753748e-05,0.019375845789909363,0.0028145143296569586,0.02770698443055153,0.0066091762855648994,0.0050757029093801975,-0.0013099323259666562,-0.015357108786702156,0.03527430072426796,-0.06915570795536041,0.0,0.0,0.0,-0.013179817236959934,0.0635240375995636,-0.0,0.0,0.0,0.0,0.0012986413203179836,-0.008364317007362843,0.00037176802288740873,13288.0,14934.0,13940.0,14288.0,0.3930191099643707,0.503392219543457,0.4351264536380768,0.4584665596485138,0.0,0.0,0.0,0.0,14397.0,14730.0,15399.0,13604.0,2.5692005157470703,-0.002835790696392933,0.02390841539120811,-0.09905780645603293,-0.39296889305114746,-0.06276147067546844,-0.0
215,5,2.105459316226188e-05,8.103723303065635e-06,6.869509525131434e-05,0.00880352407693863,-0.001020900090225041,0.012696861289441586,0.0066091762855648994,0.0050757029093801975,-0.0013099323259666562,-0.015357108786702156,0.03527430072426796,-0.06915570795536041,0.0,0.0,0.0,-0.003142167581245303,0.016575073823332787,-0.0,0.0,0.0,0.0,0.0012986413203179836,-0.008364317007362843,0.00037176802288740873,13288.0,14934.0,13940.0,14288.0,0.3930191099643707,0.503392219543457,0.4351264536380768,0.4584665596485138,0.0,0.0,0.0,0.0,14397.0,14730.0,15399.0,13604.0,1.8208338022232056,-0.003410149098933782,0.023795309861148646,-0.0988064099045437,-0.07272029668092728,-0.010604907758533955,-0.0
220,5,5.679405148839578e-05,9.21780701901298e-06,1.6942203728831373e-05,0.0078101446852087975,-0.0005420500528998673,0.011289091780781746,0.006705303676426411,0.004765182733535767,-0.0013539603678509593,0.007563277147710323,0.00013346594641916454,0.04135335236787796,0.0,0.0,0.0,-0.003142167581245303,0.016575073823332787,-0.0,0.0,0.0,0.0,-0.0011214858386665583,-0.005122294183820486,0.0011326706735417247,18380.0,15667.0,15804.0,17069.0,0.7783753871917725,0.5569125413894653,0.5671901702880859,0.6667224168777466,0.0,0.0,0.0,0.0,13226.0,15136.0,13606.0,14452.0,1.8208338022232056,-0.0030679559819992426,0.024013234187890028,-0.09904538575509564,-0.07272029668092728,-0.010604907758533955,-0.0
226,5,6.528356607304886e-05,2.1318717699614353e-05,-2.696115643630037e-06,0.004142799414694309,-0.0016689293552190065,0.006872235331684351,0.006705303676426411,0.004765182733535767,-0.0013539603678509593,0.007563277147710323,0.00013346594641916454,0.04135335236787796,0.0,0.0,0.0,0.0006600578781217337,0.007200672756880522,-0.0,0.0,0.0,0.0,-0.0011214858386665583,-0.005122294183820486,0.0011326706735417247,18380.0,15667.0,15804.0,17069.0,0.7783753871917725,0.5569125413894653,0.5671901702880859,0.6667224168777466,0.0,0.0,0.0,0.0,13226.0,15136.0,13606.0,14452.0,1.7056182622909546,-0.003391798984691306,0.024404665401985003,-0.09918164113861565,-0.029593952000141144,0.0020867593120783567,-0.0
231,5,0.0001089040088118054,3.6412379813555162e-06,-3.722194378497079e-05,0.006891572382301092,0.0014537257375195622,0.006891993340104818,0.007172934710979462,0.004101557191461325,-0.001504288287833333,0.10672922432422638,0.116941437125206,0.0033144874032586813,0.0,0.0,0.0,0.0006600578781217337,0.007200672756880522,-0.0,0.0,0.0,0.0,-0.00820484384894371,0.02266831509768963,-0.0008204223704524338,18329.0,16083.0,14757.0,17660.0,0.7739048600196838,0.5884255766868591,0.4908674359321594,0.7160026431083679,0.0,0.0,0.0,0.0,18121.0,16078.0,15259.0,17455.0,1.7056182622909546,-0.0052442483838519,0.024024139039016897,-0.09947122179798502,-0.029593952000141144,0.0020867593120783567,-0.0
236,5,0.0001975756895262748,3.662976814666763e-05,-7.631204789504409e-05,0.013397231698036194,-0.0033771335147321224,0.007447610143572092,0.007172934710979462,0.004101557191461325,-0.001504288287833333,0.10672922432422638,0.116941437125206,0.0033144874032586813,0.0,0.0,0.0,-0.0017241669120267034,0.00645944569259882,-0.0,0.0,0.0,0.0,-0.00820484384894371,0.02266831509768963,-0.0008204223704524338,18329.0,16083.0,14757.0,17660.0,0.7739048600196838,0.5884255766868591,0.4908674359321594,0.7160026431083679,0.0,0.0,0.0,0.0,18121.0,16078.0,15259.0,17455.0,1.6984666585922241,-0.003319899473272388,0.024625295910857107,-0.09880587985314715,-0.02643629163503647,-0.005428058095276356,0.0
241,5,0.00027286686236038804,6.92572066327557e-05,-0.00011889937013620511,0.01439383439719677,-0.005266146268695593,0.008089521899819374,0.00777582498267293,0.002809794619679451,-0.0014023631811141968,0.05974007025361061,0.06639432907104492,-0.057842668145895004,0.0,0.0,0.0,-0.0017241669120267034,0.00645944569259882,-0.0,0.0,0.0,0.0,-0.004371148534119129,0.008197659626603127,5.252839514469088e-07,14561.0,14515.0,12921.0,14878.0,0.4772036075592041,0.47398126125335693,0.3702767491340637,0.4993722438812256,0.0,0.0,0.0,0.0,15353.0,13678.0,13619.0,14239.0,1.6984666585922241,-0.002698389089504895,0.02419969912752555,-0.09820590899694794,-0.02643629163503647,-0.005428058095276356,0.0
246,5,0.00023382170184049755,7.337927672779188e-05,-1.4388173212864785e-06,0.0010721128201112151,-0.0026011064182966948,-0.010859456844627857,0.00777582498267293,0.002809794619679451,-0.0014023631811141968,0.05974007025361061,0.06639432907104492,-0.057842668145895004,0.0,0.0,0.0,0.00609127152711153,0.01291094720363617,-0.0,0.0,0.0,0.0,-0.004371148534119129,0.008197659626603127,5.252839514469088e-07,14561.0,14515.0,12921.0,14878.0,0.4772036075592041,0.47398126125335693,0.3702767491340637,0.4993722438812256,0.0,0.0,0.0,0.0,15353.0,13678.0,13619.0,14239.0,1.7831506729125977,-0.002860502764596359,0.0236015706286767,-0.09883472798775815,-0.05547252669930458,0.02013259194791317,0.0
251,5,0.0003042635798919946,0.00012371802586130798,-8.520216942997649e-05,0.008881870657205582,-0.0070810928009450436,0.005707819014787674,0.008490603417158127,0.002717460272833705,-0.00142389303073287,0.1512341946363449,-0.06892946362495422,0.02526814676821232,0.0,0.0,0.0,0.00609127152711153,0.01291094720363617,-0.0,0.0,0.0,0.0,-0.005143472459167242,9.888127533486113e-05,0.0007033360307104886,14379.0,13992.0,13769.0,13055.0,0.4646378457546234,0.43853792548179626,0.42389753460884094,0.37854495644569397,0.0,0.0,0.0,0.0,13729.0,14436.0,12690.0,14302.0,1.7831506729125977,0.0007304144248097603,0.022376193277540538,-0.0979195289883343,-0.05547252669930458,0.02013259194791317,0.0
256,5,0.00032019041827879846,0.00013780106382910162,-6.1146063671913e-05,0.005463968031108379,-0.0045224023051559925,-0.0006036044214852154,0.008490603417158127,0.002717460272833705,-0.00142389303073287,0.1512341946363449,-0.06892946362495422,0.02526814676821232,0.0,0.0,0.0,0.008423610590398312,0.008320631459355354,-0.0,0.0,0.0,0.0,-0.005143472459167242,9.888127533486113e-05,0.0007033360307104886,14379.0,13992.0,13769.0,13055.0,0.4646378457546234,0.43853792548179626,0.42389753460884094,0.37854495644569397,0.0,0.0,0.0,0.0,13729.0,14436.0,12690.0,14302.0,1.7445660829544067,0.002969247123644741,0.021030583096778774,-0.0976136022369623,-0.03497640788555145,0.02723860926926136,0.0
261,5,0.00012056646664859727,8.868318400345743e-05,0.00025277509121224284,-0.021769285202026367,0.004085185006260872,-0.03791198134422302,0.010706659406423569,0.0038212642539292574,-0.0016383389011025429,0.24050796031951904,-0.11656038463115692,-0.01994294300675392,0.0,0.0,0.0,0.008423610590398312,0.008320631459355354,-0.0,0.0,0.0,0.0,-0.00882464274764061,-0.0036289705894887447,-0.0011387307895347476,13787.0,14970.0,13042.0,13236.0,0.4250342547893524,0.5059608817100525,0.37770625948905945,0.3897652328014374,0.0,0.0,0.0,0.0,14477.0,14724.0,13752.0,13405.0,1.7445660829544067,0.002510435477865009,0.01854585233816572,-0.09725251535964749,-0.03497640788555145,0.02723860926926136,0.0
266,5,0.00024830110487528145,0.0001235623931279406,-3.598483090172522e-05,0.006620442494750023,-0.0025514301378279924,0.019486399367451668,0.010706659406423569,0.0038212642539292574,-0.0016383389011025429,0.24050796031951904,-0.11656038463115692,-0.01994294300675392,0.0,0.0,0.0,-0.004338871221989393,-0.018228434026241302,-0.0,0.0,0.0,0.0,-0.00882464274764061,-0.0036289705894887447,-0.0011387307895347476,13787.0,14970.0,13042.0,13236.0,0.4250342547893524,0.5059608817100525,0.37770625948905945,0.3897652328014374,0.0,0.0,0.0,0.0,14477.0,14724.0,13752.0,13405.0,1.843654990196228,0.004215844415254533,0.01920822591828533,-0.09654722519223102,0.08097533881664276,-0.014827313832938671,0.0
271,5,0.0001887737598735839,8.190765220206231e-05,9.77198033069726e-06,-0.004495105240494013,0.003977996297180653,0.0023037423379719257,0.012451865710318089,0.004769209772348404,-0.0014519954565912485,0.2073766142129898,-0.09995144605636597,-0.01920272968709469,0.0,0.0,0.0,-0.004338871221989393,-0.018228434026241302,-0.0,0.0,0.0,0.0,-0.0073561519384384155,-0.0026036007329821587,0.0005616763373836875,14427.0,14727.0,13646.0,13563.0,0.46795424818992615,0.488776832818985,0.4159035384654999,0.41051605343818665,0.0,0.0,0.0,0.0,13951.0,15076.0,13283.0,14030.0,1.843654990196228,0.0036829144844527486,0.017311680345549224,-0.09635146219033545,0.08097533881664276,-0.014827313832938671,0.0
276,5,0.00014234051923267543,-4.500280920183286e-05,0.00010411124094389379,-0.00737003143876791,0.016820454970002174,-0.010399214923381805,0.012451865710318089,0.004769209772348404,-0.0014519954565912485,0.2073766142129898,-0.09995144605636597,-0.01920272968709469,0.0,0.0,0.0,-0.004634366370737553,-0.0038999179378151894,-0.0,0.0,0.0,0.0,-0.0073561519384384155,-0.0026036007329821587,0.0005616763373836875,14427.0,14727.0,13646.0,13563.0,0.46795424818992615,0.488776832818985,0.4159035384654999,0.41051605343818665,0.0,0.0,0.0,0.0,13951.0,15076.0,13283.0,14030.0,1.6836131811141968,-0.0045526952241743655,0.01176240537268918,-0.09814733532267593,0.015821363776922226,-0.014462335035204887,-0.0
281,5,0.00015263946261256933,3.149292024318129e-05,-4.760598676512018e-05,-0.0017121377168223262,-0.002451305976137519,0.0140463812276721,0.014124696142971516,0.005907353013753891,-0.0018099622102454305,0.06864938884973526,-0.1193833127617836,0.002467900747433305,0.0,0.0,0.0,-0.004634366370737553,-0.0038999179378151894,-0.0,0.0,0.0,0.0,-0.006323839072138071,-0.009659177623689175,-0.0003390889323782176,13843.0,14595.0,13828.0,13532.0,0.42875906825065613,0.47952404618263245,0.4277242124080658,0.40855875611305237,0.0,0.0,0.0,0.0,13879.0,14401.0,14036.0,13489.0,1.6836131811141968,0.00462140514693387,0.01675417207768438,-0.09602079046527237,0.015821363776922226,-0.014462335035204887,-0.0
286,5,0.00015033323143143207,-1.8635062588145956e-05,-0.00014060190005693585,-0.000961603713221848,0.005034835543483496,0.016778063029050827,0.014124696142971516,0.005907353013753891,-0.0018099622102454305,0.06864938884973526,-0.1193833127617836,0.002467900747433305,0.0,0.0,0.0,0.0030540486332029104,-0.0013998394133523107,-0.0,0.0,0.0,0.0,-0.006323839072138071,-0.009659177623689175,-0.0003390889323782176,13843.0,14595.0,13828.0,13532.0,0.42875906825065613,0.47952404618263245,0.4277242124080658,0.40855875611305237,0.0,0.0,0.0,0.0,13879.0,14401.0,14036.0,13489.0,1.6552889347076416,0.00525394401231672,0.016871241080090246,-0.09624614420971213,0.0055834390223026276,0.009370377287268639,0.0
291,5,0.00013634817150887102,-7.609886961290613e-05,-0.0002449782914482057,-0.0020628480706363916,0.008909590542316437,0.01923639141023159,0.014124696142971516,0.005907353013753891,-0.0018099622102454305,0.06864938884973526,-0.1193833127617836,0.002467900747433305,0.0,0.0,0.0,0.0030540486332029104,-0.0013998394133523107,-0.0,0.0,0.0,0.0,-0.006323839072138071,-0.009659177623689175,-0.0003390889323782176,13843.0,14595.0,13828.0,13532.0,0.42875906825065613,0.47952404618263245,0.4277242124080658,0.40855875611305237,0.0,0.0,0.0,0.0,13879.0,14401.0,14036.0,13489.0,1.6552889347076416,0.005003574723893227,0.015980126238314175,-0.0960022663757231,0.0055834390223026276,0.009370377287268639,0.0
297,5,0.00016313983360305429,-0.0002138503041351214,-0.000369368790416047,0.002389860339462757,0.020094009116292,0.02262141741812229,0.014512504450976849,0.0065850731916725636,-0.0017947736196219921,-0.03542869910597801,-0.02214989997446537,-0.027231479063630104,0.0,0.0,0.0,-0.010618466883897781,-0.0016874325228855014,-0.0,0.0,0.0,0.0,-0.003870987333357334,-0.0013056256575509906,-0.0011952565982937813,13813.0,15425.0,14358.0,13628.0,0.4267752170562744,0.5389310121536255,0.4632219672203064,0.41472679376602173,0.0,0.0,0.0,0.0,13525.0,15630.0,13974.0,14075.0,1.7186298370361328,-0.002376453241186282,0.013548346566406268,-0.09770154827565453,0.006987728178501129,-0.03382500633597374,0.0
302,5,7.752354576950893e-05,-0.00019564070680644363,-0.0003381732676643878,-0.00931801088154316,0.005852452013641596,0.005305104423314333,0.014512504450976849,0.0065850731916725636,-0.0017947736196219921,-0.03542869910597801,-0.02214989997446537,-0.027231479063630104,0.0,0.0,0.0,-0.010618466883897781,-0.0016874325228855014,-0.0,0.0,0.0,0.0,-0.003870987333357334,-0.0013056256575509906,-0.0011952565982937813,13813.0,15425.0,14358.0,13628.0,0.4267752170562744,0.5389310121536255,0.4632219672203064,0.41472679376602173,0.0,0.0,0.0,0.0,13525.0,15630.0,13974.0,14075.0,1.7186298370361328,0.00415430986787751,0.0180627581379342,-0.0956915340739918,0.006987728178501129,-0.03382500633597374,0.0
307,5,0.00016798119759187102,-0.00026960711693391204,-0.0004915966419503093,0.00712771387770772,0.011216950602829456,0.020532846450805664,0.013754756189882755,0.006236228160560131,-0.002205152064561844,-0.0947752371430397,0.10394427925348282,-0.004253745544701815,0.0,0.0,0.0,-0.007149441167712212,-0.00824702437967062,-0.0,0.0,0.0,0.0,-0.00037629090365953743,0.004699765704572201,-0.0005629746010527015,13733.0,14134.0,13248.0,13764.0,0.4215051829814911,0.44802793860435486,0.39052096009254456,0.4235590994358063,0.0,0.0,0.0,0.0,13977.0,13870.0,13297.0,13739.0,1.7370433807373047,0.0032382858573540892,0.018658959125616,-0.0959102685985003,0.03451785445213318,-0.02301890030503273,0.0
312,5,0.0001767795329215005,-0.0003376803651917726,-0.0004686271131504327,0.003906886093318462,0.012655569240450859,0.005456795450299978,0.013754756189882755,0.006236228160560131,-0.002205152064561844,-0.0947752371430397,0.10394427925348282,-0.004253745544701815,0.0,0.0,0.0,-0.007149441167712212,-0.00824702437967062,-0.0,0.0,0.0,0.0,-0.00037629090365953743,0.004699765704572201,-0.0005629746010527015,13733.0,14134.0,13248.0,13764.0,0.4215051829814911,0.44802793860435486,0.39052096009254456,0.4235590994358063,0.0,0.0,0.0,0.0,13977.0,13870.0,13297.0,13739.0,1.7370433807373047,0.0020455269462327686,0.019428648178425437,-0.09562982109160477,0.03451785445213318,-0.02301890030503273,0.0
317,5,0.0001745631598168984,-0.00040967852692119777,-0.0004155850620009005,0.0012967889197170734,0.013702006079256535,-0.004182327538728714,0.011798401363193989,0.0032417045440524817,-0.0023456441704183817,-0.0538761168718338,0.11729294061660767,0.019679246470332146,0.0,0.0,0.0,-0.015081891790032387,0.0036754393950104713,-0.0,0.0,0.0,0.0,-0.00444804597645998,0.0036948395427316427,-0.00035918946377933025,14436.0,13908.0,13297.0,13763.0,0.4685688614845276,0.4330058693885803,0.39358091354370117,0.42347419261932373,0.0,0.0,0.0,0.0,13539.0,13746.0,12773.0,14350.0,1.7641148567199707,0.00287510985399275,0.019879908757957556,-0.09565235032994163,-0.015622037462890148,-0.04931299015879631,0.0
322,5,0.0001571833563502878,-0.0004977997741661966,-0.0003130461263936013,-0.0015668610576540232,0.016055351123213768,-0.013977603986859322,0.011798401363193989,0.0032417045440524817,-0.0023456441704183817,-0.0538761168718338,0.11729294061660767,0.019679246470332146,0.0,0.0,0.0,-0.015081891790032387,0.0036754393950104713,-0.0,0.0,0.0,0.0,-0.00444804597645998,0.0036948395427316427,-0.00035918946377933025,14436.0,13908.0,13297.0,13763.0,0.4685688614845276,0.4330058693885803,0.39358091354370117,0.42347419261932373,0.0,0.0,0.0,0.0,13539.0,13746.0,12773.0,14350.0,1.7641148567199707,0.001616296071981696,0.019600143219021895,-0.096469313618804,-0.015622037462890148,-0.04931299015879631,0.0
327,5,0.00016880189650692046,-0.0006268338183872402,-0.00027164549101144075,0.0007674809312447906,0.021906225010752678,-0.010559117421507835,0.01166111696511507,0.0026841696817427874,-0.002440325915813446,-0.004393776413053274,0.0038742460310459137,-0.022463655099272728,0.0,0.0,0.0,-0.01893039233982563,-0.0011595181422308087,-0.0,0.0,0.0,0.0,-0.006458485033363104,-0.0002052604831987992,-0.0009057174902409315,13723.0,14826.0,13343.0,13770.0,0.4208676218986511,0.495708703994751,0.3965224027633667,0.4239446520805359,0.0,0.0,0.0,0.0,14403.0,14092.0,13312.0,13594.0,1.7940610647201538,-0.0018047624104585978,0.018277510623474758,-0.0977836794544302,0.005011742934584618,-0.06294456869363785,0.0
332,5,5.1089074986521155e-05,-0.0006960288737900555,4.503781019593589e-05,-0.013818546198308468,0.017065897583961487,-0.04222564399242401,0.01166111696511507,0.0026841696817427874,-0.002440325915813446,-0.004393776413053274,0.0038742460310459137,-0.022463655099272728,0.0,0.0,0.0,-0.01893039233982563,-0.0011595181422308087,-0.0,0.0,0.0,0.0,-0.006458485033363104,-0.0002052604831987992,-0.0009057174902409315,13723.0,14826.0,13343.0,13770.0,0.4208676218986511,0.495708703994751,0.3965224027633667,0.4239446520805359,0.0,0.0,0.0,0.0,14403.0,14092.0,13312.0,13594.0,1.7940610647201538,-0.0014446652014181458,0.015241215989340709,-0.09766335927967398,0.005011742934584618,-0.06294456869363785,0.0
337,5,0.00011472823825897649,-0.0006766741862520576,-8.118394180200994e-05,0.002109280787408352,0.004503799602389336,-0.001743646920658648,0.011759920045733452,0.0030217773746699095,-0.0024005265440791845,-0.009474284946918488,-0.04976249486207962,0.006617841310799122,0.0,0.0,0.0,-0.01976962760090828,-0.011556651443243027,-0.0,0.0,0.0,0.0,-0.005850592162460089,-0.006220083683729172,0.00022581583471037447,14408.0,14646.0,13655.0,13366.0,0.4666507840156555,0.48306089639663696,0.41646987199783325,0.39793330430984497,0.0,0.0,0.0,0.0,13861.0,14734.0,13678.0,13397.0,1.8511677980422974,0.00460229025389728,0.01899759273948471,-0.09653242558447676,0.05153890326619148,-0.06782681494951248,0.0
342,5,0.00012791980407200754,-0.0007112987223081291,-8.604897448094562e-05,0.0024266999680548906,0.005956461653113365,-0.00011365541286068037,0.011759920045733452,0.0030217773746699095,-0.0024005265440791845,-0.009474284946918488,-0.04976249486207962,0.006617841310799122,0.0,0.0,0.0,-0.01976962760090828,-0.011556651443243027,-0.0,0.0,0.0,0.0,-0.005850592162460089,-0.006220083683729172,0.00022581583471037447,14408.0,14646.0,13655.0,13366.0,0.4666507840156555,0.48306089639663696,0.41646987199783325,0.39793330430984497,0.0,0.0,0.0,0.0,13861.0,14734.0,13678.0,13397.0,1.8511677980422974,0.004021316381291343,0.01878151136775706,-0.09667878843639707,0.05153890326619148,-0.06782681494951248,0.0
347,5,0.000100753728474956,-0.0007589675951749086,-6.377487443387508e-05,-0.0022892486304044724,0.008102846331894398,-0.002718354342505336,0.01179682370275259,0.003458143910393119,-0.002523781033232808,-0.026388423517346382,-0.02645459584891796,0.0032343282364308834,0.0,0.0,0.0,-0.008325459435582161,0.0023915953934192657,-0.0,0.0,0.0,0.0,-0.007184343878179789,-0.0025650165043771267,-0.0006274331826716661,14365.0,14972.0,13629.0,13547.0,0.4637162685394287,0.5060546398162842,0.41475677490234375,0.40953338146209717,0.0,0.0,0.0,0.0,14251.0,14860.0,13477.0,13478.0,1.701256275177002,0.0037301610461796444,0.01836830692551244,-0.09613084957692106,-0.009803787805140018,-0.026252906769514084,0.0
353,5,7.087950507411733e-05,-0.0007973700412549078,-7.977226050570607e-05,-0.0045006065629422665,0.007849438115954399,0.0008323449292220175,0.01179682370275259,0.003458143910393119,-0.002523781033232808,-0.026388423517346382,-0.02645459584891796,0.0032343282364308834,0.0,0.0,0.0,-0.008325459435582161,0.0023915953934192657,-0.0,0.0,0.0,0.0,-0.007184343878179789,-0.0025650165043771267,-0.0006274331826716661,14365.0,14972.0,13629.0,13547.0,0.4637162685394287,0.5060546398162842,0.41475677490234375,0.40953338146209717,0.0,0.0,0.0,0.0,14251.0,14860.0,13477.0,13478.0,1.701256275177002,0.0028891583858936896,0.01820056022281322,-0.09600753748647838,-0.009803787805140018,-0.026252906769514084,0.0
358,5,6.62764286971651e-05,-0.0008974215597845614,-0.00010542842937866226,-0.0023526116274297237,0.015145956538617611,0.003411678597331047,0.011192073114216328,0.00393993966281414,-0.0023661484010517597,-0.10933471471071243,-0.045112576335668564,-0.00018502438615541905,0.0,0.0,0.0,-0.01056881994009018,-0.003962457180023193,-0.0,0.0,0.0,0.0,-0.0070366933941841125,-0.004158884286880493,0.0002418361254967749,14294.0,14818.0,13914.0,13502.0,0.45886266231536865,0.4951481223106384,0.43341779708862305,0.4066324830055237,0.0,0.0,0.0,0.0,14468.0,14855.0,13911.0,13277.0,1.7268426418304443,-0.003243178805485356,0.016318824552716184,-0.09760263429332115,0.016487084329128265,-0.033827751874923706,0.0
363,5,-8.654634439153597e-05,-0.0008367593982256949,9.239880455425009e-05,-0.019279778003692627,-0.001221079844981432,-0.022374596446752548,0.011192073114216328,0.00393993966281414,-0.0023661484010517597,-0.10933471471071243,-0.045112576335668564,-0.00018502438615541905,0.0,0.0,0.0,-0.01056881994009018,-0.003962457180023193,-0.0,0.0,0.0,0.0,-0.0070366933941841125,-0.004158884286880493,0.0002418361254967749,14294.0,14818.0,13914.0,13502.0,0.45886266231536865,0.4951481223106384,0.43341779708862305,0.4066324830055237,0.0,0.0,0.0,0.0,14468.0,14855.0,13911.0,13277.0,1.7268426418304443,0.002966498614210047,0.01834752817401059,-0.09616169298124373,0.016487084329128265,-0.033827751874923706,0.0
368,5,3.537964221322909e-05,-0.0008636967977508903,-0.0001397424639435485,0.006919207517057657,0.00274405418895185,0.01890711300075054,0.011192073114216328,0.00393993966281414,-0.0023661484010517597,-0.10933471471071243,-0.045112576335668564,-0.00018502438615541905,0.0,0.0,0.0,-0.01056881994009018,-0.003962457180023193,-0.0,0.0,0.0,0.0,-0.0070366933941841125,-0.004158884286880493,0.0002418361254967749,14294.0,14818.0,13914.0,13502.0,0.45886266231536865,0.4951481223106384,0.43341779708862305,0.4066324830055237,0.0,0.0,0.0,0.0,14468.0,14855.0,13911.0,13277.0,1.7268426418304443,0.0016163034446115489,0.01803105236477858,-0.09644783110980792,0.016487084329128265,-0.033827751874923706,0.0
373,5,-2.5899827960529365e-05,-0.000895929872058332,-0.00016276907990686595,-0.004585853312164545,0.004965595901012421,0.010326039977371693,0.01008420716971159,0.004418902564793825,-0.002421581419184804,-0.16541455686092377,-0.037860315293073654,0.011599504388868809,0.0,0.0,0.0,-0.004756861366331577,0.006355867255479097,-0.0,0.0,0.0,0.0,-0.0051808664575219154,-0.006982814520597458,-0.000242808077018708,14183.0,15091.0,14482.0,13610.0,0.4513181447982788,0.51459139585495,0.4716992974281311,0.4135589599609375,0.0,0.0,0.0,0.0,14031.0,15341.0,14280.0,13699.0,1.7069525718688965,-0.0009610663709659541,0.017660148649608923,-0.09587655325086392,-0.026142092421650887,-0.015050381422042847,0.0
378,5,-2.7843892894452438e-05,-0.0009165724040940404,-0.00025196740170940757,-0.002067629247903824,0.00446334108710289,0.014834214001893997,0.01008420716971159,0.004418902564793825,-0.002421581419184804,-0.16541455686092377,-0.037860315293073654,0.011599504388868809,0.0,0.0,0.0,-0.004756861366331577,0.006355867255479097,-0.0,0.0,0.0,0.0,-0.0051808664575219154,-0.006982814520597458,-0.000242808077018708,14183.0,15091.0,14482.0,13610.0,0.4513181447982788,0.51459139585495,0.4716992974281311,0.4135589599609375,0.0,0.0,0.0,0.0,14031.0,15341.0,14280.0,13699.0,1.7069525718688965,-0.001239974620647495,0.017761651251939996,-0.09571730855980029,-0.026142092421650887,-0.015050381422042847,0.0
383,5,-4.3369014747440815e-05,-0.000987320439890027,-0.00026698390138335526,-0.0026900663506239653,0.010275103151798248,0.007735664024949074,0.008060766384005547,0.004541087429970503,-0.002384294057264924,-0.17144152522087097,0.025343965739011765,-0.008232087828218937,0.0,0.0,0.0,-0.006963690277189016,-0.0019435068825259805,-0.0,0.0,0.0,0.0,-0.0006435295799747109,-0.0011834370670840144,-0.00030867516761645675,13617.0,13984.0,13623.0,13936.0,0.4139837324619293,0.4380190074443817,0.41440150141716003,0.4348520338535309,0.0,0.0,0.0,0.0,13705.0,14281.0,13713.0,13846.0,1.6883018016815186,-0.005605317814324171,0.017805789617478404,-0.09675805957767569,0.007906372658908367,-0.0217917300760746,0.0
388,5,-0.00014963345893193036,-0.0010445091174915433,-4.264000745024532e-05,-0.013827758841216564,0.010972682386636734,-0.023826999589800835,0.008060766384005547,0.004541087429970503,-0.002384294057264924,-0.17144152522087097,0.025343965739011765,-0.008232087828218937,0.0,0.0,0.0,-0.006963690277189016,-0.0019435068825259805,-0.0,0.0,0.0,0.0,-0.0006435295799747109,-0.0011834370670840144,-0.00030867516761645675,13617.0,13984.0,13623.0,13936.0,0.4139837324619293,0.4380190074443817,0.41440150141716003,0.4348520338535309,0.0,0.0,0.0,0.0,13705.0,14281.0,13713.0,13846.0,1.6883018016815186,-0.006136172568606311,0.01579704765924705,-0.09739306588621212,0.007906372658908367,-0.0217917300760746,0.0
393,5,-6.431210931623355e-05,-0.0010205167345702648,-0.0002946186868939549,0.00470745749771595,0.0015099782031029463,0.020706642419099808,0.006857655942440033,0.004315435420721769,-0.0023878125939518213,-0.10390468686819077,0.03972850739955902,0.008125999011099339,0.0,0.0,0.0,-0.013957835733890533,-0.012057797983288765,-0.0,0.0,0.0,0.0,-0.002041073050349951,-0.0012598868925124407,-0.0001080579386325553,13953.0,14116.0,13797.0,13683.0,0.4359969198703766,0.4468444287776947,0.4257133901119232,0.41828790307044983,0.0,0.0,0.0,0.0,13898.0,14255.0,13755.0,13637.0,1.8132420778274536,-0.0020291121520877127,0.018846041378405683,-0.0957648383486685,0.052677225321531296,-0.046909067779779434,0.0
398,5,-9.721818787511438e-05,-0.0010748152853921056,-0.0002483698772266507,-0.002065746346488595,0.007119826041162014,0.0027327993884682655,0.006857655942440033,0.004315435420721769,-0.0023878125939518213,-0.10390468686819077,0.03972850739955902,0.008125999011099339,0.0,0.0,0.0,-0.013957835733890533,-0.012057797983288765,-0.0,0.0,0.0,0.0,-0.002041073050349951,-0.0012598868925124407,-0.0001080579386325553,13953.0,14116.0,13797.0,13683.0,0.4359969198703766,0.4468444287776947,0.4257133901119232,0.41828790307044983,0.0,0.0,0.0,0.0,13898.0,14255.0,13755.0,13637.0,1.8132420778274536,-0.0018591845793081514,0.018705874157409094,-0.09605838354991435,0.052677225321531296,-0.046909067779779434,0.0
403,5,-0.00012547941878437996,-0.0011354046873748302,-0.0001896166941151023,-0.004217646550387144,0.01011866144835949,-0.005957263056188822,0.006188115570694208,0.004144405946135521,-0.002386759500950575,0.00715389009565115,-0.015158682130277157,-0.0017378543270751834,0.0,0.0,0.0,-0.010257590562105179,-0.0020026180427521467,-0.0,0.0,0.0,0.0,-0.003100837580859661,0.00026210525538772345,-0.0004038417828269303,13907.0,14144.0,13465.0,13726.0,0.43291234970092773,0.44869571924209595,0.4042646288871765,0.4210798740386963,0.0,0.0,0.0,0.0,13943.0,14178.0,13497.0,13621.0,1.7163045406341553,-0.0017476925953261173,0.01828649372866398,-0.0957456514177127,0.008281733840703964,-0.03263130411505699,0.0
408,5,-0.00016455736476927996,-0.001207053428515792,-0.0001269590575248003,-0.0063764117658138275,0.01264531072229147,-0.009901820681989193,0.006188115570694208,0.004144405946135521,-0.002386759500950575,0.00715389009565115,-0.015158682130277157,-0.0017378543270751834,0.0,0.0,0.0,-0.010257590562105179,-0.0020026180427521467,-0.0,0.0,0.0,0.0,-0.003100837580859661,0.00026210525538772345,-0.0004038417828269303,13907.0,14144.0,13465.0,13726.0,0.43291234970092773,0.44869571924209595,0.4042646288871765,0.4210798740386963,0.0,0.0,0.0,0.0,13943.0,14178.0,13497.0,13621.0,1.7163045406341553,-0.001516789475269715,0.018216112378977134,-0.09612844016777705,0.008281733840703964,-0.03263130411505699,0.0
413,5,-0.0002026829170063138,-0.0013157014036551118,-0.00011041330435546115,-0.007125630043447018,0.018095875158905983,-0.005946218967437744,0.00632261810824275,0.004396259319037199,-0.002389179775491357,0.03660551831126213,-0.06869179755449295,-0.0016353533137589693,0.0,0.0,0.0,-0.01635190285742283,-0.005772278644144535,-0.0,0.0,0.0,0.0,-0.007029465865343809,-0.0040914625860750675,-0.0003044203913304955,14054.0,15231.0,14179.0,13314.0,0.4426790177822113,0.5247533321380615,0.45110562443733215,0.394704133272171,0.0,0.0,0.0,0.0,14021.0,15320.0,14096.0,13336.0,1.7845237255096436,-0.004563595231526092,0.01710820706513866,-0.0965558175435501,0.02481767162680626,-0.05408340319991112,0.0
418,5,-0.00038664761814288795,-0.0014174829702824354,0.00023308688832912594,-0.024926016107201576,0.019452139735221863,-0.04359851032495499,0.00632261810824275,0.004396259319037199,-0.002389179775491357,0.03660551831126213,-0.06869179755449295,-0.0016353533137589693,0.0,0.0,0.0,-0.01635190285742283,-0.005772278644144535,-0.0,0.0,0.0,0.0,-0.007029465865343809,-0.0040914625860750675,-0.0003044203913304955,14054.0,15231.0,14179.0,13314.0,0.4426790177822113,0.5247533321380615,0.45110562443733215,0.394704133272171,0.0,0.0,0.0,0.0,14021.0,15320.0,14096.0,13336.0,1.7845237255096436,-0.007072500614851304,0.014211058008216117,-0.09714038191251352,0.02481767162680626,-0.05408340319991112,0.0
423,5,-0.00029804304358549416,-0.0014083165442571044,-5.552289803745225e-05,0.0006621434586122632,0.006680883467197418,0.01719377003610134,0.006732561159878969,0.005011821165680885,-0.00240126415155828,0.010646083392202854,-0.04160303995013237,0.006412165239453316,0.0,0.0,0.0,-0.022320594638586044,-0.020325563848018646,-0.0,0.0,0.0,0.0,-0.007644967176020145,-0.0037175018806010485,-0.00030885968590155244,13907.0,14528.0,13706.0,13218.0,0.432965487241745,0.4749288856983185,0.4197472631931305,0.3886629045009613,0.0,0.0,0.0,0.0,13971.0,14513.0,13583.0,13294.0,1.9525783061981201,-0.0023393496172536042,0.017797053279581542,-0.09541720100451516,0.09560153633356094,-0.08077133446931839,0.0
429,5,-0.0003337591770105064,-0.001460478873923421,-5.060888361185789e-05,-0.004021080210804939,0.008931839838624,0.006287826225161552,0.006732561159878969,0.005011821165680885,-0.00240126415155828,0.010646083392202854,-0.04160303995013237,0.006412165239453316,0.0,0.0,0.0,-0.022320594638586044,-0.020325563848018646,-0.0,0.0,0.0,0.0,-0.007644967176020145,-0.0037175018806010485,-0.00030885968590155244,13907.0,14528.0,13706.0,13218.0,0.432965487241745,0.4749288856983185,0.4197472631931305,0.3886629045009613,0.0,0.0,0.0,0.0,13971.0,14513.0,13583.0,13294.0,1.9525783061981201,-0.001860475258570994,0.017869131804520596,-0.09560900827823404,0.09560153633356094,-0.08077133446931839,0.0
434,5,-0.00036237912718206644,-0.0015365115832537413,-9.024237078847364e-05,-0.0050428262911736965,0.012696661986410618,0.007271149195730686,0.007068985141813755,0.005101244896650314,-0.0023957923986017704,-0.007645916659384966,0.006968766916543245,-0.0013859779573976994,0.0,0.0,0.0,-0.012842681258916855,-0.004021520260721445,-0.0,0.0,0.0,0.0,-0.007380166091024876,-0.006731745786964893,-0.0003316638758406043,14595.0,15668.0,14600.0,13956.0,0.47955283522605896,0.5569447875022888,0.4798734188079834,0.43620723485946655,0.0,0.0,0.0,0.0,14254.0,14857.0,13674.0,13598.0,1.746030330657959,-0.00295625232119082,0.017600458451283732,-0.09539118412005694,0.016918309032917023,-0.0415618009865284,0.0
439,5,-0.0003804178850259632,-0.0016601629322394729,-0.00012033565872116014,-0.004181781318038702,0.01991681382060051,0.0065196543000638485,0.007068985141813755,0.005101244896650314,-0.0023957923986017704,-0.007645916659384966,0.006968766916543245,-0.0013859779573976994,0.0,0.0,0.0,-0.012842681258916855,-0.004021520260721445,-0.0,0.0,0.0,0.0,-0.007380166091024876,-0.006731745786964893,-0.0003316638758406043,14595.0,15668.0,14600.0,13956.0,0.47955283522605896,0.5569447875022888,0.4798734188079834,0.43620723485946655,0.0,0.0,0.0,0.0,14254.0,14857.0,13674.0,13598.0,1.746030330657959,-0.007844711060942486,0.01676307928678127,-0.0966094690931373,0.016918309032917023,-0.0415618009865284,0.0
444,5,-0.0005596908740699291,-0.00167804304510355,0.0001389344979543239,-0.023185469210147858,0.010112348943948746,-0.02850455604493618,0.007068985141813755,0.005101244896650314,-0.0023957923986017704,-0.007645916659384966,0.006968766916543245,-0.0013859779573976994,0.0,0.0,0.0,-0.024424999952316284,-0.0039837840013206005,-0.0,0.0,0.0,0.0,-0.007380166091024876,-0.006731745786964893,-0.0003316638758406043,14595.0,15668.0,14600.0,13956.0,0.47955283522605896,0.5569447875022888,0.4798734188079834,0.43620723485946655,0.0,0.0,0.0,0.0,14254.0,14857.0,13674.0,13598.0,1.8526259660720825,-0.004172498740427146,0.017341637069210693,-0.09592664006925951,0.017778892070055008,-0.08385952562093735,0.0
449,5,-0.00042077398393303156,-0.0017013660399243236,-0.0001822400081437081,0.007395837921649218,0.006843699607998133,0.02713911607861519,0.005882266443222761,0.004593964666128159,-0.0026067004073411226,-0.15750019252300262,0.03223748132586479,-0.026933547109365463,0.0,0.0,0.0,-0.024424999952316284,-0.0039837840013206005,-0.0,0.0,0.0,0.0,-0.002524538664147258,-0.000754233100451529,-0.0010577121283859015,13634.0,14527.0,13507.0,14151.0,0.4150879681110382,0.47479918599128723,0.4069218337535858,0.44922134280204773,0.0,0.0,0.0,0.0,14470.0,15690.0,14540.0,14123.0,1.8526259660720825,-0.00647661427738161,0.017738708466222233,-0.09519766735157623,0.017778892070055008,-0.08385952562093735,0.0
454,5,-0.0004391355032566935,-0.001734095741994679,-0.00020415846665855497,0.0007549539441242814,0.0066650426015257835,0.013485862873494625,0.005882266443222761,0.004593964666128159,-0.0026067004073411226,-0.15750019252300262,0.03223748132586479,-0.026933547109365463,0.0,0.0,0.0,-0.010861730203032494,0.006055180914700031,-0.0,0.0,0.0,0.0,-0.002524538664147258,-0.000754233100451529,-0.0010577121283859015,13634.0,14527.0,13507.0,14151.0,0.4150879681110382,0.47479918599128723,0.4069218337535858,0.44922134280204773,0.0,0.0,0.0,0.0,14470.0,15690.0,14540.0,14123.0,1.7418789863586426,-0.0064755632499143905,0.018488486027685994,-0.0952276836648804,-0.025413747876882553,-0.03506791964173317,0.0
459,5,-0.0004547291318885982,-0.0017747076926752925,-0.0001788092340575531,-0.001569255138747394,0.007539445534348488,0.0023524374701082706,0.0039300983771681786,0.004090890288352966,-0.0026925760321319103,-0.19052664935588837,0.04235362634062767,9.291290552937426e-06,0.0,0.0,0.0,-0.010861730203032494,0.006055180914700031,-0.0,0.0,0.0,0.0,-0.0003801108105108142,-8.598557178629562e-05,-0.00021859451953787357,14496.0,14646.0,14091.0,14187.0,0.4727173149585724,0.48309722542762756,0.44519856572151184,0.4516128599643707,0.0,0.0,0.0,0.0,13764.0,14316.0,13630.0,14122.0,1.7418789863586426,-0.007773465503160471,0.019104784024462078,-0.09520090526191535,-0.025413747876882553,-0.03506791964173317,0.0
464,5,-0.0004839930043090135,-0.001797785866074264,-0.00013203734124545008,-0.004139367491006851,0.005785165820270777,-0.004671653266996145,0.0039300983771681786,0.004090890288352966,-0.0026925760321319103,-0.19052664935588837,0.04235362634062767,9.291290552937426e-06,0.0,0.0,0.0,-0.011874471791088581,-0.0020130975171923637,-0.0,0.0,0.0,0.0,-0.0003801108105108142,-8.598557178629562e-05,-0.00021859451953787357,14496.0,14646.0,14091.0,14187.0,0.4727173149585724,0.48309722542762756,0.44519856572151184,0.4516128599643707,0.0,0.0,0.0,0.0,13764.0,14316.0,13630.0,14122.0,1.7304832935333252,-0.008958714793402186,0.018953420699167837,-0.09542824913204433,0.008393695577979088,-0.03808655962347984,0.0
469,5,-0.0005422515678219497,-0.0018464440945535898,-5.8784240536624566e-05,-0.008646775037050247,0.008153044618666172,-0.010659032501280308,0.0029019773937761784,0.003674144158139825,-0.002776636276394129,-0.07969895005226135,0.017367087304592133,-0.004672279581427574,0.0,0.0,0.0,-0.011874471791088581,-0.0020130975171923637,-0.0,0.0,0.0,0.0,-0.004850489087402821,-0.0007309517241083086,-0.0006063355831429362,14051.0,14062.0,13515.0,14143.0,0.44249212741851807,0.44326192140579224,0.4074327349662781,0.4486922025680542,0.0,0.0,0.0,0.0,14435.0,14824.0,13942.0,14211.0,1.7304832935333252,-0.011283229606343672,0.019012308922617693,-0.09552709547392126,0.008393695577979088,-0.03808655962347984,0.0
474,5,-0.000538734020665288,-0.0019131527515128255,1.3162174582248554e-05,-0.00303660542704165,0.011266255751252174,-0.012897183187305927,0.0029019773937761784,0.003674144158139825,-0.002776636276394129,-0.07969895005226135,0.017367087304592133,-0.004672279581427574,0.0,0.0,0.0,-0.012432272545993328,-0.008304373361170292,-0.0,0.0,0.0,0.0,-0.004850489087402821,-0.0007309517241083086,-0.0006063355831429362,14051.0,14062.0,13515.0,14143.0,0.44249212741851807,0.44326192140579224,0.4074327349662781,0.4486922025680542,0.0,0.0,0.0,0.0,14435.0,14824.0,13942.0,14211.0,1.7701077461242676,-0.014712358686395022,0.017929343068828745,-0.0970647772971106,0.03541766479611397,-0.040788568556308746,0.0
