timestamp,dt,pos_x,pos_y,pos_z,vel_x,vel_y,vel_z,roll,pitch,yaw,agv_x,agv_y,agv_z,x_ref,y_ref,z_ref,roll_ref,pitch_ref,yaw_ref,x_vel_ref,y_vel_ref,z_vel_ref,x_torque,y_torque,z_torque,w0,w1,w2,w3,u0,u1,u2,u3,m0req,m1req,m2req,m3req,thrust0,thrust1,thrust2,thrust3,thrust_ref,roll_vicon,pitch_vicon,yaw_vicon,acc_x,acc_y,acc_z
5,5,0.0,0.0,0.0,0.00043752597412094474,-0.0006905161426402628,-0.0019523922819644213,-0.01940503716468811,-0.11609765887260437,0.004886006936430931,0.0022478040773421526,0.005763567052781582,-0.002094629919156432,0.0,0.0,0.0,0.0008549228077754378,0.0004166905418969691,-0.0,0.0,0.0,0.0,0.004057010170072317,0.03497716411948204,0.00038731395034119487,1495.0,1495.0,1495.0,1495.0,0.0,0.0,0.0,0.0,0.0,0.0,0.0,0.0,1495.0,1495.0,1495.0,1495.0,1.6340665817260742,0.03009482558786211,-0.041787145743904984,0.06883898632470163,-0.0016407223884016275,0.002589435549452901,0.0
40,35,0.0,0.0,0.0,0.0010014601284638047,-0.00288445339538157,0.0041680531576275826,-0.01940503716468811,-0.11609765887260437,0.004886006936430931,0.0022478040773421526,0.005763567052781582,-0.002094629919156432,0.0,0.0,0.0,0.0008549228077754378,0.0004166905418969691,-0.0,0.0,0.0,0.0,0.004057010170072317,0.03497716411948204,0.00038731395034119487,1495.0,1495.0,1495.0,1495.0,0.0,0.0,0.0,0.0,0.0,0.0,0.0,0.0,1495.0,1495.0,1495.0,1495.0,1.6340665817260742,0.030510985340858495,-0.041455317854496784,0.06928022980679159,-0.0016407223884016275,0.002589435549452901,0.0
45,5,0.0,0.0,0.0,-0.0007945725228637457,0.00034314533695578575,0.0027353812474757433,-0.01940503716468811,-0.11609765887260437,0.004886006936430931,0.0022478040773421526,0.005763567052781582,-0.002094629919156432,0.0,0.0,0.0,0.003522329032421112,0.0009407145553268492,-0.0,0.0,0.0,0.0,0.004057010170072317,0.03497716411948204,0.00038731395034119487,1495.0,1495.0,1495.0,1495.0,0.0,0.0,0.0,0.0,0.0,0.0,0.0,0.0,1495.0,1495.0,1495.0,1495.0,1.6567535400390625,0.030478082794314982,-0.04127103989858308,0.06879871598634812,-0.0037554753944277763,0.01081669982522726,0.0
51,5,0.0,0.0,0.0,-0.0009372308850288391,0.0004636018711607903,-0.0005196781712584198,-0.019377345219254494,-0.11616992205381393,0.004883515182882547,0.0030904419254511595,-0.002104999730363488,-0.001290334272198379,0.0,0.0,0.0,0.003522329032421112,0.0009407145553268492,-0.0,0.0,0.0,0.0,0.004035872407257557,0.03502504527568817,0.00047581613762304187,1495.0,1495.0,1495.0,1495.0,0.0,0.0,0.0,0.0,0.0,0.0,0.0,0.0,1495.0,1495.0,1495.0,1495.0,1.6567535400390625,0.030126565622199585,-0.04154658873530983,0.06867973352726134,-0.0037554753944277763,0.01081669982522726,0.0
56,5,-3.405596771699493e-06,-2.9575927328551188e-05,-1.0049187949334737e-05,-0.0007835639407858253,0.0037345518358051777,0.000998031347990036,-0.019377345219254494,-0.11616992205381393,0.004883515182882547,0.0030904419254511595,-0.002104999730363488,-0.001290334272198379,0.0,0.0,0.0,-0.0005731681594625115,-0.0008913333876989782,-0.0,0.0,0.0,0.0,0.004035872407257557,0.03502504527568817,0.00047581613762304187,1495.0,1495.0,1495.0,1495.0,0.0,0.0,0.0,0.0,0.0,0.0,0.0,0.0,1495.0,1495.0,1495.0,1495.0,1.6363866329193115,0.029005570241454955,-0.0417659409413494,0.06866661756723776,0.0035146158188581467,-0.001738507067784667,0.0
61,5,6.079633749322966e-06,-7.84605072112754e-06,9.161954949377105e-06,0.0008248020312748849,-0.0011137642432004213,-0.0019061246421188116,-0.01936090923845768,-0.11613563448190689,0.004913916811347008,0.0011918044183403254,-0.0016218558885157108,0.0033019643742591143,0.0,0.0,0.0,-0.0005731681594625115,-0.0008913333876989782,-0.0,0.0,0.0,0.0,0.004027945455163717,0.034933120012283325,0.0006076295394450426,1495.0,1495.0,1495.0,1495.0,0.0,0.0,0.0,0.0,0.0,0.0,0.0,0.0,1495.0,1495.0,1495.0,1495.0,1.6363866329193115,0.03012105325131074,-0.0421757560284281,0.06893421514531924,0.0035146158188581467,-0.001738507067784667,0.0
66,5,7.41345138521865e-06,-4.1694502215250395e-06,9.49695549934404e-06,0.0004899789928458631,-0.0008866977877914906,-0.0008026499417610466,-0.01936090923845768,-0.11613563448190689,0.004913916811347008,0.0011918044183403254,-0.0016218558885157108,0.0033019643742591143,0.0,0.0,0.0,0.0013599105877801776,0.0007912430446594954,-0.0,0.0,0.0,0.0,0.004027945455163717,0.034933120012283325,0.0006076295394450426,1495.0,1495.0,1495.0,1495.0,0.0,0.0,0.0,0.0,0.0,0.0,0.0,0.0,1495.0,1495.0,1495.0,1495.0,1.6398059129714966,0.030736387418787765,-0.041419167564740914,0.06872298275829757,-0.003126466879621148,0.004133434966206551,0.0
71,5,1.4009449841978494e-05,1.5756723996673827e-06,9.252347808796912e-06,0.0009875113610178232,-0.0010440938640385866,-0.0002917069650720805,-0.019402747973799706,-0.11613985896110535,0.004891595803201199,-0.005409711506217718,0.002570751588791609,-0.005414679180830717,0.0,0.0,0.0,0.0013599105877801776,0.0007912430446594954,-0.0,0.0,0.0,0.0,0.00461162393912673,0.03515731543302536,0.00036756269400939345,15747.0,10262.0,11397.0,16040.0,0.5629181265830994,0.22566378116607666,0.28303560614585876,0.5851360559463501,0.0,0.0,0.0,0.0,15749.0,10259.0,11399.0,16038.0,1.6398059129714966,0.03079496304755822,-0.041391608622660815,0.06896946986426578,-0.003126466879621148,0.004133434966206551,0.0
76,5,-2.2670365069643594e-06,-3.49246256519109e-05,4.3021351302741095e-05,-0.0015581737970933318,0.003962398506700993,-0.004168963525444269,-0.019413435831665993,-0.11614425480365753,0.004886743612587452,0.003898764494806528,-0.0017274155979976058,0.0030166488140821457,0.0,0.0,0.0,0.0012904376490041614,0.000956291682086885,-0.0,0.0,0.0,0.0,0.0037691222969442606,0.03459992632269859,0.0005400239024311304,15759.0,10184.0,11372.0,15826.0,0.5638046860694885,0.22196319699287415,0.28174832463264465,0.5688704252243042,0.0,0.0,0.0,0.0,15749.0,10259.0,11399.0,16038.0,1.6405264139175415,0.029086270505593644,-0.04137140374815444,0.0684097750239425,-0.003780289785936475,0.003923996351659298,0.0
82,6,1.6874402717803605e-05,-2.4921782824094407e-05,3.48692228726577e-05,0.0016737030819058418,0.00038461797521449625,-0.0006893299287185073,-0.019413435831665993,-0.11614425480365753,0.004886743612587452,0.003898764494806528,-0.0017274155979976058,0.0030166488140821457,0.0,0.0,0.0,0.0012904376490041614,0.000956291682086885,-0.0,0.0,0.0,0.0,0.0037691222969442606,0.03459992632269859,0.0005400239024311304,15759.0,10184.0,11372.0,15826.0,0.5638046860694885,0.22196319699287415,0.28174832463264465,0.5688704252243042,0.0,0.0,0.0,0.0,15749.0,10259.0,11399.0,16038.0,1.6405264139175415,0.029683183544753834,-0.04213356071488653,0.06885376062066267,-0.003780289785936475,0.003923996351659298,0.0
87,5,1.7180072973133065e-05,-4.251406608091202e-06,1.4966360140533652e-05,0.0007061616634018719,-0.002326597925275564,0.002112611662596464,-0.019413435831665993,-0.11614425480365753,0.004886743612587452,0.003898764494806528,-0.0017274155979976058,0.0030166488140821457,0.0,0.0,0.0,-0.0005184771725907922,0.0016082784859463573,-0.0,0.0,0.0,0.0,0.0037691222969442606,0.03459992632269859,0.0005400239024311304,15759.0,10184.0,11372.0,15826.0,0.5638046860694885,0.22196319699287415,0.28174832463264465,0.5688704252243042,0.0,0.0,0.0,0.0,15749.0,10259.0,11399.0,16038.0,1.643540859222412,0.030916616066881588,-0.04141732609608771,0.06903093496765182,-0.006369325332343578,-0.0015794964274391532,0.0
92,5,1.0962836313410662e-05,-9.780726941244211e-06,5.78239405513159e-06,-0.00046360367559827864,-0.0002671207766979933,0.0019471205305308104,-0.019350331276655197,-0.11613573133945465,0.004890399519354105,0.0009600336779840291,-0.007227940019220114,-0.0007409384124912322,0.0,0.0,0.0,0.0003135048900730908,-0.0004269776400178671,-0.0,0.0,0.0,0.0,0.00412901071831584,0.035125382244586945,0.00044224553857930005,15744.0,10176.0,11326.0,15925.0,0.5626326203346252,0.22157344222068787,0.2792547941207886,0.5763450264930725,0.0,0.0,0.0,0.0,15776.0,10132.0,11369.0,15899.0,1.6309776306152344,0.030344593477889963,-0.04147363859916351,0.06883375313652743,0.0016780504956841469,0.0009477654821239412,-0.0
99,7,1.5987041024345672e-06,-2.724943078646902e-05,3.00739179692755e-06,-0.0013091373257339,0.0019893962889909744,0.0011118485126644373,-0.019350331276655197,-0.11613573133945465,0.004890399519354105,0.0009600336779840291,-0.007227940019220114,-0.0007409384124912322,0.0,0.0,0.0,0.0003135048900730908,-0.0004269776400178671,-0.0,0.0,0.0,0.0,0.00412901071831584,0.035125382244586945,0.00044224553857930005,15744.0,10176.0,11326.0,15925.0,0.5626326203346252,0.22157344222068787,0.2792547941207886,0.5763450264930725,0.0,0.0,0.0,0.0,15776.0,10132.0,11369.0,15899.0,1.6309776306152344,0.028682626793529002,-0.04197323717909877,0.0689118595292036,0.0016780504956841469,0.0009477654821239412,-0.0
104,5,1.7024438420776278e-05,7.431402082147542e-06,-1.2464503015507944e-05,0.0013274330412968993,-0.003365941345691681,0.0023013667669147253,-0.019305068999528885,-0.11610943078994751,0.004905260168015957,0.003817374585196376,-0.0020810349378734827,0.0019982384983450174,0.0,0.0,0.0,0.0003135048900730908,-0.0004269776400178671,-0.0,0.0,0.0,0.0,0.004098310600966215,0.03517405316233635,0.000544027891010046,15787.0,10120.0,11368.0,15896.0,0.5659343600273132,0.2189466506242752,0.28151610493659973,0.5741293430328369,0.0,0.0,0.0,0.0,15776.0,10135.0,11348.0,15912.0,1.6309776306152344,0.030103455299915063,-0.041973450586292746,0.06918631469154984,0.0016780504956841469,0.0009477654821239412,-0.0
114,11,7.350513897108613e-06,2.3833674276829697e-05,2.9476984764187364e-06,-0.0006298976368270814,-0.0033146494533866644,-0.000928917434066534,-0.01933217979967594,-0.11613613367080688,0.004906574264168739,-0.0026555347722023726,0.004449975676834583,0.0012088506482541561,0.0,0.0,0.0,0.004081542603671551,-0.0005802501691505313,-0.0,0.0,0.0,0.0,0.003806238528341055,0.03544238582253456,0.00046079259482212365,15813.0,10167.0,11306.0,15924.0,0.5678777098655701,0.22113893926143646,0.2782297432422638,0.5762944221496582,0.0,0.0,0.0,0.0,15776.0,10135.0,11348.0,15912.0,1.6603248119354248,0.02995264443994876,-0.04207000456256789,0.06934382924100982,0.002321435371413827,0.012560986913740635,0.0
119,5,1.0250324521621224e-05,-2.0136249077040702e-05,1.5584077118546702e-05,-0.0007278828998096287,0.004653934855014086,-1.0031869351223577e-05,-0.0193317998200655,-0.11614792793989182,0.0049057612195611,0.005145573057234287,0.00019070609414484352,0.0036271694116294384,0.0,0.0,0.0,0.004081542603671551,-0.0005802501691505313,-0.0,0.0,0.0,0.0,0.003930535167455673,0.03485652804374695,0.0005601973389275372,15756.0,10102.0,11350.0,15825.0,0.5635929703712463,0.21806514263153076,0.28053736686706543,0.5687822103500366,0.0,0.0,0.0,0.0,15808.0,10174.0,11300.0,15929.0,1.6603248119354248,0.030088220013296398,-0.04154487517766508,0.06866733078005695,0.002321435371413827,0.012560986913740635,0.0
126,7,6.842805305495858e-06,-3.562126039469149e-06,7.801029823895078e-06,-0.0007000555051490664,-0.00012732083268929273,0.0009299529483541846,-0.0193317998200655,-0.11614792793989182,0.0049057612195611,0.005145573057234287,0.00019070609414484352,0.0036271694116294384,0.0,0.0,0.0,0.004081542603671551,-0.0005802501691505313,-0.0,0.0,0.0,0.0,0.003930535167455673,0.03485652804374695,0.0005601973389275372,15756.0,10102.0,11350.0,15825.0,0.5635929703712463,0.21806514263153076,0.28053736686706543,0.5687822103500366,0.0,0.0,0.0,0.0,15808.0,10174.0,11300.0,15929.0,1.6603248119354248,0.031290635306999166,-0.04052224934802407,0.06869750724868323,0.002321435371413827,0.012560986913740635,0.0
131,5,1.1690467545122374e-05,-2.0440686057554558e-05,6.16688168975088e-07,0.0003016972332261503,0.0019744988530874252,0.0012341021792963147,-0.019302595406770706,-0.11611393094062805,0.004917947109788656,0.0010275115491822362,-0.0051856813952326775,-0.0008776217582635581,0.0,0.0,0.0,0.0001512612507212907,-0.0006575676379725337,-0.0,0.0,0.0,0.0,0.004689196590334177,0.03531574085354805,0.0004757574643008411,15809.0,10213.0,11470.0,16036.0,0.5675573348999023,0.22330008447170258,0.2869775593280792,0.5848273038864136,0.0,0.0,0.0,0.0,15818.0,10192.0,11481.0,16032.0,1.632878065109253,0.030861195490638118,-0.04119751112485205,0.06874361784607264,0.002587295603007078,0.0004578149819280952,-0.0
136,5,6.210741958057042e-06,-2.251306977996137e-05,1.202963449031813e-05,-0.0005368881393224001,0.001038485555909574,-0.0008759127231314778,-0.019302595406770706,-0.11611393094062805,0.004917947109788656,0.0010275115491822362,-0.0051856813952326775,-0.0008776217582635581,0.0,0.0,0.0,0.0001512612507212907,-0.0006575676379725337,-0.0,0.0,0.0,0.0,0.004689196590334177,0.03531574085354805,0.0004757574643008411,15809.0,10213.0,11470.0,16036.0,0.5675573348999023,0.22330008447170258,0.2869775593280792,0.5848273038864136,0.0,0.0,0.0,0.0,15818.0,10192.0,11481.0,16032.0,1.632878065109253,0.030167070464508193,-0.04151331794135829,0.06861339888592749,0.002587295603007078,0.0004578149819280952,-0.0
141,5,1.0554312211752404e-05,-1.3157522516848985e-05,-7.676775339859887e-07,0.00030647311359643936,-0.0007072713924571872,0.0011853124015033245,-0.019302595406770706,-0.11611393094062805,0.004917947109788656,0.0010275115491822362,-0.0051856813952326775,-0.0008776217582635581,0.0,0.0,0.0,0.0001512612507212907,-0.0006575676379725337,-0.0,0.0,0.0,0.0,0.004689196590334177,0.03531574085354805,0.0004757574643008411,15809.0,10213.0,11470.0,16036.0,0.5675573348999023,0.22330008447170258,0.2869775593280792,0.5848273038864136,0.0,0.0,0.0,0.0,15818.0,10192.0,11481.0,16032.0,1.632878065109253,0.030201847553495892,-0.04182227999121408,0.06862925804236318,0.002587295603007078,0.0004578149819280952,-0.0
146,5,-5.895449703530176e-06,4.267361873644404e-06,-4.325262580096023e-06,-0.001851382083259523,-0.002373894676566124,0.0009010351495817304,-0.019336892291903496,-0.1160818412899971,0.004906302783638239,-0.001112822676077485,-0.006960806902498007,-0.0018489983631297946,0.0,0.0,0.0,0.0001512612507212907,-0.0006575676379725337,-0.0,0.0,0.0,0.0,0.003934487234801054,0.03486901894211769,0.0004889286938123405,15764.0,10253.0,11507.0,15999.0,0.5641549229621887,0.2252149134874344,0.2889520823955536,0.5820029377937317,0.0,0.0,0.0,0.0,15770.0,10247.0,11511.0,15993.0,1.6564216613769531,0.030636075280821008,-0.041232526607587736,0.06873647704767147,0.006974851246923208,0.0089255440980196,0.0
151,5,2.7832179512188304e-06,-7.454253136529587e-06,-8.873929800756741e-06,0.0003008872736245394,0.0004570359014905989,0.0009062541648745537,-0.019336378201842308,-0.1160835549235344,0.004909587558358908,-0.0015631808200851083,0.0067818183451890945,-0.0008558399858884513,0.0,0.0,0.0,-0.0005803430103696883,0.00029098291997797787,-0.0,0.0,0.0,0.0,0.003933389205485582,0.03486263379454613,0.00045134962419979274,15726.0,10167.0,11305.0,15871.0,0.5613483786582947,0.22112125158309937,0.27817320823669434,0.5722351670265198,0.0,0.0,0.0,0.0,15770.0,10100.0,11366.0,15826.0,1.6314327716827393,0.029922165533735782,-0.04198780605753581,0.06884547681704858,-0.0011439011432230473,-0.0017549406038597226,0.0
160,8,6.626518370467238e-06,8.483609235554468e-06,-9.832892828853801e-06,0.0013678669929504395,-0.0033897128887474537,0.002283403417095542,-0.019336378201842308,-0.1160835549235344,0.004909587558358908,-0.0015631808200851083,0.0067818183451890945,-0.0008558399858884513,0.0,0.0,0.0,-0.0005803430103696883,0.00029098291997797787,-0.0,0.0,0.0,0.0,0.003933389205485582,0.03486263379454613,0.00045134962419979274,15726.0,10167.0,11305.0,15871.0,0.5613483786582947,0.22112125158309937,0.27817320823669434,0.5722351670265198,0.0,0.0,0.0,0.0,15770.0,10100.0,11366.0,15826.0,1.6314327716827393,0.03169084752876206,-0.04084015853552261,0.06898790884625998,-0.0011439011432230473,-0.0017549406038597226,0.0
165,5,1.1356725735822693e-05,2.8246959118405357e-06,1.0984382242895663e-05,0.0011147717013955116,-0.0006768155726604164,-0.0015847116010263562,-0.019320201128721237,-0.11608267575502396,0.004925021901726723,0.0009950691601261497,0.002142801648005843,-0.0024397314991801977,0.0,0.0,0.0,-0.0005803430103696883,0.00029098291997797787,-0.0,0.0,0.0,0.0,0.004477919079363346,0.034502752125263214,0.0004905614769086242,15737.0,10299.0,11473.0,15970.0,0.5621195435523987,0.2274167686700821,0.287126749753952,0.5797586441040039,0.0,0.0,0.0,0.0,15749.0,10135.0,11341.0,15843.0,1.6314327716827393,0.030578584184251797,-0.0412846308029623,0.06870449772657287,-0.0011439011432230473,-0.0017549406038597226,0.0
170,5,1.9462248019408435e-05,-4.620383151632268e-06,1.9706078546732897e-08,0.0014185713371261954,0.0006226832629181445,0.0006818764377385378,-0.019320201128721237,-0.11608267575502396,0.004925021901726723,0.0009950691601261497,0.002142801648005843,-0.0024397314991801977,0.0,0.0,0.0,0.0008404430700466037,0.0010742637095972896,-0.0,0.0,0.0,0.0,0.004477919079363346,0.034502752125263214,0.0004905614769086242,15737.0,10299.0,11473.0,15970.0,0.5621195435523987,0.2274167686700821,0.287126749753952,0.5797586441040039,0.0,0.0,0.0,0.0,15749.0,10135.0,11341.0,15843.0,1.63918137550354,0.03107940745000855,-0.04111218324030043,0.0687820895118302,-0.004243161529302597,0.002553546568378806,0.0
175,5,2.2682512280880474e-05,-1.8630964405019768e-05,1.5317056750063784e-05,0.0009538601152598858,0.0019303429871797562,-0.001562931458465755,-0.019311249256134033,-0.11605881154537201,0.004931685049086809,-0.0013091022847220302,-0.004099872428923845,-0.004625394009053707,0.0,0.0,0.0,0.0008404430700466037,0.0010742637095972896,-0.0,0.0,0.0,0.0,0.003876294009387493,0.03503132984042168,0.0008320500492118299,15808.0,10026.0,11403.0,15789.0,0.5674948692321777,0.2145387977361679,0.2833583354949951,0.5660407543182373,0.0,0.0,0.0,0.0,15735.0,10299.0,11468.0,15975.0,1.63918137550354,0.030594455886424173,-0.04203500424340081,0.06891370180542662,-0.004243161529302597,0.002553546568378806,0.0
180,5,1.459137820347678e-05,-4.957401870342437e-06,3.740020110853948e-05,-0.000589391915127635,-0.0008686902583576739,-0.0032751497346907854,-0.019311249256134033,-0.11605881154537201,0.004931685049086809,-0.0013091022847220302,-0.004099872428923845,-0.004625394009053707,0.0,0.0,0.0,-0.0024032751098275185,0.0009322523255832493,-0.0,0.0,0.0,0.0,0.003876294009387493,0.03503132984042168,0.0008320500492118299,15808.0,10026.0,11403.0,15789.0,0.5674948692321777,0.2145387977361679,0.2833583354949951,0.5660407543182373,0.0,0.0,0.0,0.0,15735.0,10299.0,11468.0,15975.0,1.648032546043396,0.02966674370839242,-0.04240251646215846,0.0689655834716447,-0.0037021145690232515,-0.007341369520872831,0.0
185,5,8.78693663253216e-06,1.8447784896125086e-05,1.2143084859417286e-05,-0.0009322898113168776,-0.003156098537147045,0.0017207938944920897,-0.019358456134796143,-0.1160297617316246,0.004994732327759266,-0.01923547498881817,-0.02492859959602356,0.0018046601908281446,0.0,0.0,0.0,-0.0024032751098275185,0.0009322523255832493,-0.0,0.0,0.0,0.0,0.0037677576765418053,0.035206329077482224,-0.0004587270668707788,15432.0,10634.0,10803.0,16181.0,0.5394669771194458,0.2437698245048523,0.25219643115997314,0.595999538898468,0.0,0.0,0.0,0.0,15676.0,10233.0,11214.0,15923.0,1.648032546043396,0.03108634309110058,-0.04090284991429497,0.06919728506023388,-0.0037021145690232515,-0.007341369520872831,0.0
191,5,1.0370477866672445e-05,-2.052798845397774e-05,1.5417055692523718e-05,-0.0001828909298637882,0.003414653241634369,0.00029544098651967943,-0.019358456134796143,-0.1160297617316246,0.004994732327759266,-0.01923547498881817,-0.02492859959602356,0.0018046601908281446,0.0,0.0,0.0,0.003880914766341448,-0.0008621626766398549,-0.0,0.0,0.0,0.0,0.0037677576765418053,0.035206329077482224,-0.0004587270668707788,15432.0,10634.0,10803.0,16181.0,0.5394669771194458,0.2437698245048523,0.25219643115997314,0.595999538898468,0.0,0.0,0.0,0.0,15676.0,10233.0,11214.0,15923.0,1.6593830585479736,0.029687248836460373,-0.04253116390221428,0.06890806659440699,0.003447342664003372,0.011936783790588379,-0.0
196,5,-4.650171376852086e-06,-1.7573447621543892e-05,-2.9884140531066805e-05,-0.0018756343051791191,0.0010113166645169258,0.0055543202906847,-0.019322162494063377,-0.11599595844745636,0.005367571488022804,0.01294182613492012,0.016164997592568398,-0.036431685090065,0.0,0.0,0.0,0.003880914766341448,-0.0008621626766398549,-0.0,0.0,0.0,0.0,0.0040296814404428005,0.03550366312265396,0.0026252600364387035,16062.0,9667.0,11677.0,15656.0,0.5868354439735413,0.19812896847724915,0.29818567633628845,0.5560312867164612,0.0,0.0,0.0,0.0,15882.0,9958.0,11464.0,15816.0,1.6593830585479736,0.031240774025893328,-0.04104888494313096,0.06841527984824185,0.003447342664003372,0.011936783790588379,-0.0
201,5,-1.0776110457300092e-06,-5.788582257082453e-06,-2.312723154318519e-05,-0.0003215464821550995,-0.0010096572805196047,0.0014108988689258695,-0.019322162494063377,-0.11599595844745636,0.005367571488022804,0.01294182613492012,0.016164997592568398,-0.036431685090065,0.0,0.0,0.0,-0.0012735106283798814,-0.0017779943300411105,-0.0,0.0,0.0,0.0,0.0040296814404428005,0.03550366312265396,0.0026252600364387035,16062.0,9667.0,11677.0,15656.0,0.5868354439735413,0.19812896847724915,0.29818567633628845,0.5560312867164612,0.0,0.0,0.0,0.0,15882.0,9958.0,11464.0,15816.0,1.647591233253479,0.03089203877687868,-0.04152477323249874,0.06908568989396027,0.007058804854750633,-0.003889201208949089,0.0
206,5,8.196989256248344e-06,-8.795484063739423e-06,-1.0021429261541925e-05,0.0009843334555625916,-4.303465902921744e-05,-0.0010083366651088,-0.019402049481868744,-0.11574811488389969,0.004786735400557518,-0.03183327987790108,-0.07721372693777084,0.11985062062740326,0.0,0.0,0.0,-0.0012735106283798814,-0.0017779943300411105,-0.0,0.0,0.0,0.0,0.003540943143889308,0.03496609628200531,0.0008079003309831023,16366.0,9311.0,12163.0,15299.0,0.6104142069816589,0.18253527581691742,0.32542264461517334,0.5296604037284851,0.0,0.0,0.0,0.0,14479.0,12133.0,9172.0,17183.0,1.647591233253479,0.030179069963031005,-0.04202335265924908,0.06914470386341413,0.007058804854750633,-0.003889201208949089,0.0
211,5,1.1369287449269905e-06,7.046244263619883e-06,-1.3893764844397083e-05,-0.0004534738836809993,-0.0019182212417945266,6.134562863735482e-05,-0.019402049481868744,-0.11574811488389969,0.004786735400557518,-0.03183327987790108,-0.07721372693777084,0.11985062062740326,0.0,0.0,0.0,3.722143082995899e-05,0.0009479581494815648,-0.0,0.0,0.0,0.0,0.003540943143889308,0.03496609628200531,0.0008079003309831023,16366.0,9311.0,12163.0,15299.0,0.6104142069816589,0.18253527581691742,0.32542264461517334,0.5296604037284851,0.0,0.0,0.0,0.0,14479.0,12133.0,9172.0,17183.0,1.635891318321228,0.03239504561095052,-0.040622947106156326,0.06859152952461584,-0.0037367623299360275,0.00011286416702205315,0.0
216,5,1.7156864487333223e-05,2.7537155347090447e-06,-1.0708941772463731e-05,0.001741002663038671,-0.00025218509836122394,-0.00035764058702625334,-0.019402049481868744,-0.11574811488389969,0.004786735400557518,-0.03183327987790108,-0.07721372693777084,0.11985062062740326,0.0,0.0,0.0,3.722143082995899e-05,0.0009479581494815648,-0.0,0.0,0.0,0.0,0.003540943143889308,0.03496609628200531,0.0008079003309831023,16366.0,9311.0,12163.0,15299.0,0.6104142069816589,0.18253527581691742,0.32542264461517334,0.5296604037284851,0.0,0.0,0.0,0.0,14479.0,12133.0,9172.0,17183.0,1.635891318321228,0.032327939086413085,-0.041018839233115376,0.06879598651375377,-0.0037367623299360275,0.00011286416702205315,0.0
221,5,1.773199619492516e-05,9.871206202660687e-06,2.5059387553483248e-05,0.000765416887588799,-0.0009549728711135685,-0.004435255657881498,-0.01946886256337166,-0.11553765088319778,0.004770178813487291,0.0043571703135967255,-0.04031402990221977,-0.1720609813928604,0.0,0.0,0.0,0.00031528924591839314,0.0016721268184483051,-0.0,0.0,0.0,0.0,0.00475521432235837,0.03452673926949501,-0.0027144758496433496,14349.0,12178.0,9487.0,17234.0,0.4626249670982361,0.3263227939605713,0.19015973806381226,0.680275559425354,0.0,0.0,0.0,0.0,17045.0,7790.0,13329.0,14544.0,1.6438944339752197,0.03251135519808475,-0.04095375926880195,0.06900716710675629,-0.006623611319810152,0.0009607085376046598,0.0
226,5,3.277635187259875e-05,2.427151684969431e-06,3.849087079288438e-05,0.0021114894188940525,0.0005112973740324378,-0.0033858802635222673,-0.01946886256337166,-0.11553765088319778,0.004770178813487291,0.0043571703135967255,-0.04031402990221977,-0.1720609813928604,0.0,0.0,0.0,0.00031528924591839314,0.0016721268184483051,-0.0,0.0,0.0,0.0,0.00475521432235837,0.03452673926949501,-0.0027144758496433496,14349.0,12178.0,9487.0,17234.0,0.4626249670982361,0.3263227939605713,0.19015973806381226,0.680275559425354,0.0,0.0,0.0,0.0,17045.0,7790.0,13329.0,14544.0,1.6438944339752197,0.032379754115412794,-0.041336628920045936,0.06870761715985045,-0.006623611319810152,0.0009607085376046598,0.0
231,5,2.40912995650433e-05,-3.585691729313112e-06,5.990337012917735e-05,-0.0001976104249479249,0.0009260601364076138,-0.0039238519966602325,-0.01921670138835907,-0.11519894748926163,0.004880871623754501,0.05008269101381302,-0.002957036253064871,0.07895074784755707,0.0,0.0,0.0,-0.0006232396117411554,0.002039119368419051,-0.0,0.0,0.0,0.0,0.0034574803430587053,0.0342598631978035,0.003396310145035386,16627.0,8855.0,12553.0,14956.0,0.6310096383094788,0.16345635056495667,0.348162978887558,0.5049622058868408,0.0,0.0,0.0,0.0,15846.0,10063.0,11364.0,15814.0,1.6482950448989868,0.03259128551363134,-0.041639885281360894,0.06887764858816373,-0.008098958060145378,-0.0019041383638978004,0.0
236,5,5.594976300926646e-06,-2.602059339551488e-06,8.273687853943557e-05,-0.0022986028343439102,0.000252388184890151,-0.004309562034904957,-0.01921670138835907,-0.11519894748926163,0.004880871623754501,0.05008269101381302,-0.002957036253064871,0.07895074784755707,0.0,0.0,0.0,-0.0006232396117411554,0.002039119368419051,-0.0,0.0,0.0,0.0,0.0034574803430587053,0.0342598631978035,0.003396310145035386,16627.0,8855.0,12553.0,14956.0,0.6310096383094788,0.16345635056495667,0.348162978887558,0.5049622058868408,0.0,0.0,0.0,0.0,15846.0,10063.0,11364.0,15814.0,1.6482950448989868,0.03282958049549048,-0.04226349215275747,0.0693246585019588,-0.008098958060145378,-0.0019041383638978004,0.0
241,5,-2.422816942271311e-05,5.151443929207744e-07,0.0001400893524987623,-0.004498218651860952,-0.0002731091808527708,-0.008606120944023132,-0.019077837467193604,-0.11486444622278214,0.004512263927608728,0.02672305889427662,-0.07704136520624161,-0.003082656767219305,0.0,0.0,0.0,-0.00031434366246685386,-0.0021611982956528664,-0.0,0.0,0.0,0.0,0.0038321891333907843,0.03440955653786659,-0.0006666743429377675,15497.0,10578.0,11042.0,16054.0,0.5442414879798889,0.240966334939003,0.2644202411174774,0.5862631797790527,0.0,0.0,0.0,0.0,15846.0,10063.0,11364.0,15814.0,1.6491658687591553,0.033228450374256556,-0.043370990084157235,0.06881079020201708,0.008588365279138088,-0.0009608986438252032,0.0
246,5,-5.756058089900762e-05,-4.315769274398917e-06,0.00023517587396781892,-0.005799177102744579,0.0004704659804701805,-0.014852832071483135,-0.019077837467193604,-0.11486444622278214,0.004512263927608728,0.02672305889427662,-0.07704136520624161,-0.003082656767219305,0.0,0.0,0.0,-0.00031434366246685386,-0.0021611982956528664,-0.0,0.0,0.0,0.0,0.0038321891333907843,0.03440955653786659,-0.0006666743429377675,15497.0,10578.0,11042.0,16054.0,0.5442414879798889,0.240966334939003,0.2644202411174774,0.5862631797790527,0.0,0.0,0.0,0.0,15846.0,10063.0,11364.0,15814.0,1.6491658687591553,0.03355043813072588,-0.04542510573689122,0.06878749917779325,0.008588365279138088,-0.0009608986438252032,0.0
251,5,-9.682462405180559e-05,1.0325806215405464e-05,0.00034764307201839983,-0.007031355518847704,-0.0015688027488067746,-0.019437195733189583,-0.018333321437239647,-0.11336200684309006,0.004733417648822069,0.05922642722725868,-0.2118888795375824,-0.057462770491838455,0.0,0.0,0.0,-0.00031434366246685386,-0.0021611982956528664,-0.0,0.0,0.0,0.0,0.003475270699709654,0.03362680971622467,0.0005248551024124026,15431.0,10807.0,11077.0,16050.0,0.5393478870391846,0.25241467356681824,0.26622018218040466,0.5859116315841675,0.0,0.0,0.0,0.0,16107.0,9657.0,11859.0,15434.0,1.6491658687591553,0.033391175458420456,-0.04897084416479958,0.07010169105113874,0.02689969725906849,0.0059396554715931416,0.0
256,5,-0.00016277209215331823,9.706255923447316e-07,0.0005091172643005848,-0.01072623860090971,0.0004951006267219782,-0.02715178206562996,-0.018333321437239647,-0.11336200684309006,0.004733417648822069,0.05922642722725868,-0.2118888795375824,-0.057462770491838455,0.0,0.0,0.0,0.0018850109772756696,-0.006566895637661219,-0.0,0.0,0.0,0.0,0.003475270699709654,0.03362680971622467,0.0005248551024124026,15431.0,10807.0,11077.0,16050.0,0.5393478870391846,0.25241467356681824,0.26622018218040466,0.5859116315841675,0.0,0.0,0.0,0.0,16107.0,9657.0,11859.0,15434.0,1.6999622583389282,0.0342148750437156,-0.052634621847456896,0.06964174676652955,0.02689969725906849,0.0059396554715931416,0.0
261,5,-0.0002470760664436966,-4.352948053565342e-06,0.000707562081515789,-0.01440697256475687,0.0008368690614588559,-0.03467408940196037,-0.017796240746974945,-0.11010771244764328,0.004721340723335743,0.026298701763153076,-0.5788022875785828,0.08833722025156021,0.0,0.0,0.0,0.0018850109772756696,-0.006566895637661219,-0.0,0.0,0.0,0.0,0.003204790875315666,0.029015010222792625,0.0013484127121046185,16011.0,10003.0,12587.0,14911.0,0.5829314589500427,0.21343928575515747,0.35020530223846436,0.5017189979553223,0.0,0.0,0.0,0.0,15937.0,10139.0,12745.0,14768.0,1.6999622583389282,0.034824098964565585,-0.05788444400825701,0.069723061669915,0.02689969725906849,0.0059396554715931416,0.0
266,5,-0.00035060287336818874,6.716378265991807e-06,0.0008759002666920424,-0.01818600483238697,-0.0009935714770108461,-0.0340702161192894,-0.017796240746974945,-0.11010771244764328,0.004721340723335743,0.026298701763153076,-0.5788022875785828,0.08833722025156021,0.0,0.0,0.0,-0.0009617911418899894,-0.012957886792719364,-0.0,0.0,0.0,0.0,0.003204790875315666,0.029015010222792625,0.0013484127121046185,16011.0,10003.0,12587.0,14911.0,0.5829314589500427,0.21343928575515747,0.35020530223846436,0.5017189979553223,0.0,0.0,0.0,0.0,15937.0,10139.0,12745.0,14768.0,1.7738724946975708,0.034789510270853266,-0.06493852634422521,0.07041104964823719,0.05538550764322281,-0.0031623621471226215,0.0
272,5,-0.00048333697486668825,4.5487699935620185e-06,0.0010780313750728965,-0.023202495649456978,-0.00013731562648899853,-0.03788382187485695,-0.0174458846449852,-0.10054071992635727,0.0045799738727509975,0.020051930099725723,-1.0110070705413818,-0.07435683906078339,0.0,0.0,0.0,-0.0009617911418899894,-0.012957886792719364,-0.0,0.0,0.0,0.0,0.003587863175198436,0.02213398925960064,-0.001738219172693789,14279.0,12345.0,11563.0,15754.0,0.45781251788139343,0.33597156405448914,0.29196897149086,0.5634128451347351,0.0,0.0,0.0,0.0,14067.0,12922.0,12055.0,15798.0,1.7738724946975708,0.03525082278313804,-0.07197121417710879,0.07124436198335823,0.05538550764322281,-0.0031623621471226215,0.0
277,5,-0.000647816457785666,5.987473741697613e-06,0.0012816308299079537,-0.02901853621006012,-0.0002275706792715937,-0.039585456252098083,-0.0174458846449852,-0.10054071992635727,0.0045799738727509975,0.020051930099725723,-1.0110070705413818,-0.07435683906078339,0.0,0.0,0.0,0.00015635979070793837,-0.019981104880571365,-0.0,0.0,0.0,0.0,0.003587863175198436,0.02213398925960064,-0.001738219172693789,14279.0,12345.0,11563.0,15754.0,0.45781251788139343,0.33597156405448914,0.29196897149086,0.5634128451347351,0.0,0.0,0.0,0.0,14067.0,12922.0,12055.0,15798.0,1.8625327348709106,0.035370453927090276,-0.08051154650190158,0.07188350066983655,0.0896698459982872,0.0005398057983256876,0.0
282,5,-0.000830966979265213,4.422156052896753e-06,0.00146460288669914,-0.033585477620363235,9.680983930593356e-05,-0.03779083117842674,-0.017739877104759216,-0.09054871648550034,0.0045500933192670345,-0.06948878616094589,-1.494015097618103,0.026487119495868683,0.0,0.0,0.0,0.00015635979070793837,-0.019981104880571365,-0.0,0.0,0.0,0.0,0.004320736508816481,0.011978620663285255,0.0007443888462148607,14588.0,12305.0,13589.0,14531.0,0.47904807329177856,0.3336408734321594,0.4121997356414795,0.47507357597351074,0.0,0.0,0.0,0.0,14615.0,12224.0,14136.0,14042.0,1.8625327348709106,0.036271964662770786,-0.08936804121432972,0.07256320056573126,0.0896698459982872,0.0005398057983256876,0.0
287,5,-0.0010437496239319444,1.6713400327716954e-05,0.0016538721974939108,-0.03896810859441757,-0.0014362254878506064,-0.03782865032553673,-0.017739877104759216,-0.09054871648550034,0.0045500933192670345,-0.06948878616094589,-1.494015097618103,0.026487119495868683,0.0,0.0,0.0,-9.299485827796161e-05,-0.027558069676160812,-0.0,0.0,0.0,0.0,0.004320736508816481,0.011978620663285255,0.0007443888462148607,14588.0,12305.0,13589.0,14531.0,0.47904807329177856,0.3336408734321594,0.4121997356414795,0.47507357597351074,0.0,0.0,0.0,0.0,14615.0,12224.0,14136.0,14042.0,1.9657775163650513,0.03630225154391603,-0.09964945503794843,0.07297410381114731,0.13052091002464294,-0.00033884559525176883,0.0
292,5,-0.0013037931639701128,3.219696372980252e-05,0.001867635757662356,-0.046792466193437576,-0.00243251770734787,-0.04078308492898941,-0.019246745854616165,-0.07002957165241241,0.005092547740787268,-0.16263112425804138,-1.9289207458496094,-0.017743883654475212,0.0,0.0,0.0,-9.299485827796161e-05,-0.027558069676160812,-0.0,0.0,0.0,0.0,0.004665911663323641,0.0016623690025880933,9.333016350865364e-05,13836.0,13676.0,14283.0,14451.0,0.42829328775405884,0.4178242087364197,0.4581410884857178,0.4696139097213745,0.0,0.0,0.0,0.0,13381.0,14065.0,14378.0,14412.0,1.9657775163650513,0.035147995986051714,-0.11116568548991813,0.07345059188872372,0.13052091002464294,-0.00033884559525176883,0.0
297,5,-0.0015716832131147385,2.227195909654256e-05,0.0020936583168804646,-0.05086379125714302,0.0002179933653678745,-0.043435946106910706,-0.019246745854616165,-0.07002957165241241,0.005092547740787268,-0.16263112425804138,-1.9289207458496094,-0.017743883654475212,0.0,0.0,0.0,0.002395967021584511,-0.03620939329266548,-0.0,0.0,0.0,0.0,0.004665911663323641,0.0016623690025880933,9.333016350865364e-05,13836.0,13676.0,14283.0,14451.0,0.42829328775405884,0.4178242087364197,0.4581410884857178,0.4696139097213745,0.0,0.0,0.0,0.0,13381.0,14065.0,14378.0,14412.0,2.0938615798950195,0.034311661353789706,-0.12302348267186865,0.07339929908066216,0.18265222012996674,0.00929900724440813,0.0
302,5,-0.0018658546032384038,3.440596265136264e-05,0.0023515985812991858,-0.05564608797430992,-0.0013688829494640231,-0.04832719638943672,-0.020961470901966095,-0.053289592266082764,0.004818568471819162,-0.23103690147399902,-2.282994270324707,-0.0905732661485672,0.0,0.0,0.0,0.002395967021584511,-0.03620939329266548,-0.0,0.0,0.0,0.0,0.006119924131780863,-0.011272621341049671,-0.0015745568089187145,12397.0,15418.0,14876.0,14686.0,0.3389839231967926,0.5383840203285217,0.49927982687950134,0.48588499426841736,0.0,0.0,0.0,0.0,13381.0,14065.0,14378.0,14412.0,2.0938615798950195,0.03288559545315374,-0.13639094466104168,0.07447411157249237,0.18265222012996674,0.00929900724440813,0.0
307,5,-0.002150436630472541,4.8651781980879605e-05,0.002592141041532159,-0.05640828609466553,-0.002257051644846797,-0.04819599166512489,-0.020961470901966095,-0.053289592266082764,0.004818568471819162,-0.23103690147399902,-2.282994270324707,-0.0905732661485672,0.0,0.0,0.0,0.0013175902422517538,-0.04170447960495949,-0.0,0.0,0.0,0.0,0.006119924131780863,-0.011272621341049671,-0.0015745568089187145,12397.0,15418.0,14876.0,14686.0,0.3389839231967926,0.5383840203285217,0.49927982687950134,0.48588499426841736,0.0,0.0,0.0,0.0,13381.0,14065.0,14378.0,14412.0,2.1794097423553467,0.03213631045820477,-0.14829013067335658,0.07452244557048865,0.21895116567611694,0.005322646349668503,0.0
312,5,-0.0024202994536608458,5.090290869702585e-05,0.0028007549699395895,-0.05494684725999832,-0.0011729556135833263,-0.04431205615401268,-0.024169042706489563,-0.02511388249695301,0.004824390634894371,-0.2856982350349426,-2.4298527240753174,-0.03884404897689819,0.0,0.0,0.0,0.0013175902422517538,-0.04170447960495949,-0.0,0.0,0.0,0.0,0.007952539250254631,-0.03259929269552231,-0.0007666106102988124,12608.0,15876.0,16274.0,13990.0,0.35143420100212097,0.5726596713066101,0.6032549142837524,0.43842875957489014,0.0,0.0,0.0,0.0,12591.0,15879.0,16651.0,13548.0,2.1794097423553467,0.03137751408435402,-0.15964193606083946,0.07429360173534225,0.21895116567611694,0.005322646349668503,0.0
317,5,-0.002705484163016081,5.8402201830176637e-05,0.0030100722797214985,-0.05620090290904045,-0.0013690975029021502,-0.04284291714429855,-0.024169042706489563,-0.02511388249695301,0.004824390634894371,-0.2856982350349426,-2.4298527240753174,-0.03884404897689819,0.0,0.0,0.0,0.0011576948454603553,-0.041768670082092285,-0.0,0.0,0.0,0.0,0.007952539250254631,-0.03259929269552231,-0.0007666106102988124,12608.0,15876.0,16274.0,13990.0,0.35143420100212097,0.5726596713066101,0.6032549142837524,0.43842875957489014,0.0,0.0,0.0,0.0,12591.0,15879.0,16651.0,13548.0,2.1803929805755615,0.031179736511255947,-0.1708560022285144,0.07420703894604624,0.21938693523406982,0.004678830038756132,0.0
322,5,-0.0029948665760457516,6.29121859674342e-05,0.0032412982545793056,-0.05720626190304756,-0.0010888372780755162,-0.044884271919727325,-0.024169042706489563,-0.02511388249695301,0.004824390634894371,-0.2856982350349426,-2.4298527240753174,-0.03884404897689819,0.0,0.0,0.0,0.0011576948454603553,-0.041768670082092285,-0.0,0.0,0.0,0.0,0.007952539250254631,-0.03259929269552231,-0.0007666106102988124,12608.0,15876.0,16274.0,13990.0,0.35143420100212097,0.5726596713066101,0.6032549142837524,0.43842875957489014,0.0,0.0,0.0,0.0,12591.0,15879.0,16651.0,13548.0,2.1803929805755615,0.030607214749163315,-0.18104672333587443,0.07487875460745735,0.21938693523406982,0.004678830038756132,0.0
327,5,-0.0032463339157402515,4.7951278247637674e-05,0.0034354664385318756,-0.05305856838822365,0.0013597740326076746,-0.04125388339161873,-0.02648506872355938,-0.005842778831720352,0.004960379097610712,-0.2526949346065521,-2.372328758239746,-0.07244585454463959,0.0,0.0,0.0,0.0010826077777892351,-0.04344736039638519,-0.0,0.0,0.0,0.0,0.007952539250254631,-0.03259929269552231,-0.0007666106102988124,11938.0,17051.0,17177.0,14018.0,0.3126973509788513,0.665272057056427,0.6756232976913452,0.44026896357536316,0.0,0.0,0.0,0.0,12591.0,15879.0,16651.0,13548.0,2.207448720932007,0.03055487470460124,-0.19086634891386464,0.07541282215597092,0.23103034496307373,0.004429657943546772,0.0
332,5,-0.0035004138480871916,4.333501692599384e-06,0.003639328060671687,-0.0517130121588707,0.005778043065220118,-0.040964946150779724,-0.02648506872355938,-0.005842778831720352,0.004960379097610712,-0.2526949346065521,-2.372328758239746,-0.07244585454463959,0.0,0.0,0.0,0.0010826077777892351,-0.04344736039638519,-0.0,0.0,0.0,0.0,0.007952539250254631,-0.03259929269552231,-0.0007666106102988124,11938.0,17051.0,17177.0,14018.0,0.3126973509788513,0.665272057056427,0.6756232976913452,0.44026896357536316,0.0,0.0,0.0,0.0,12591.0,15879.0,16651.0,13548.0,2.207448720932007,0.03065045864102222,-0.1994515387652578,0.07552205428804178,0.23103034496307373,0.004429657943546772,0.0
337,5,-0.003706651506945491,-2.0024861441925168e-05,0.0037440049927681684,-0.045433737337589264,0.005234220996499062,-0.02894722856581211,-0.028635282069444656,0.0204603411257267,0.005346513818949461,-0.12223947793245316,-2.042628288269043,-0.01182971429079771,0.0,0.0,0.0,-0.005384849850088358,-0.040819201618433,-0.0,0.0,0.0,0.0,0.007185733877122402,-0.03492312133312225,0.00041299592703580856,12448.0,16782.0,17675.0,13259.0,0.34195002913475037,0.6434633731842041,0.7172386050224304,0.3912096619606018,0.0,0.0,0.0,0.0,11997.0,17034.0,17407.0,13697.0,2.1684298515319824,0.031177473551400096,-0.20608863961989765,0.07632137758573726,0.2132234126329422,-0.02164331078529358,0.0
343,5,-0.0038680960424244404,-2.5387053028680384e-05,0.00383190275169909,-0.037546832114458084,0.0027371512260288,-0.022126609459519386,-0.028635282069444656,0.0204603411257267,0.005346513818949461,-0.12223947793245316,-2.042628288269043,-0.01182971429079771,0.0,0.0,0.0,-0.005384849850088358,-0.040819201618433,-0.0,0.0,0.0,0.0,0.007185733877122402,-0.03492312133312225,0.00041299592703580856,12448.0,16782.0,17675.0,13259.0,0.34195002913475037,0.6434633731842041,0.7172386050224304,0.3912096619606018,0.0,0.0,0.0,0.0,11997.0,17034.0,17407.0,13697.0,2.1684298515319824,0.03160394879094637,-0.21153813635994492,0.07690844121724776,0.2132234126329422,-0.02164331078529358,0.0
348,5,-0.004025046713650227,-2.905864494096022e-05,0.003909762483090162,-0.033852800726890564,0.0015354515053331852,-0.018193813040852547,-0.029339725151658058,0.03505806624889374,0.005601980723440647,-0.024185337126255035,-1.5806964635849,-0.010464677587151527,0.0,0.0,0.0,-0.002745283069089055,-0.032917141914367676,-0.0,0.0,0.0,0.0,0.005928385071456432,-0.03731226176023483,0.0008061151020228863,12437.0,17375.0,18058.0,13348.0,0.3413420617580414,0.6920610666275024,0.7501485347747803,0.3968413174152374,0.0,0.0,0.0,0.0,12889.0,17093.0,18364.0,12856.0,2.044492721557617,0.03163363896532759,-0.21247066424195832,0.07662282538616319,0.1621360331773758,-0.010403518564999104,0.0
353,5,-0.0041274139657616615,-3.288436710136011e-05,0.003919750917702913,-0.025825228542089462,0.001073267194442451,-0.008476135320961475,-0.029339725151658058,0.03505806624889374,0.005601980723440647,-0.024185337126255035,-1.5806964635849,-0.010464677587151527,0.0,0.0,0.0,-0.002745283069089055,-0.032917141914367676,-0.0,0.0,0.0,0.0,0.005928385071456432,-0.03731226176023483,0.0008061151020228863,12437.0,17375.0,18058.0,13348.0,0.3413420617580414,0.6920610666275024,0.7501485347747803,0.3968413174152374,0.0,0.0,0.0,0.0,12889.0,17093.0,18364.0,12856.0,2.044492721557617,0.032991081791644554,-0.21204474989321628,0.07616044725076898,0.1621360331773758,-0.010403518564999104,0.0
358,5,-0.004192015156149864,-3.0392749977181666e-05,0.003926396369934082,-0.018082210794091225,0.00013031276466790587,-0.004187930375337601,-0.029110142961144447,0.05034681782126427,0.006275239400565624,0.05714347958564758,-0.9590551257133484,0.014363561756908894,0.0,0.0,0.0,-0.001170250354334712,-0.025608966127038002,-0.0,0.0,0.0,0.0,0.004063054919242859,-0.031056849285960197,0.0013865606160834432,14040.0,16324.0,18085.0,12866.0,0.4417717754840851,0.6071744561195374,0.7525176405906677,0.36696597933769226,0.0,0.0,0.0,0.0,13190.0,17084.0,18180.0,13269.0,1.938698172569275,0.033475121069459636,-0.21055023091749225,0.07556980859572092,0.11962071061134338,-0.004205303732305765,0.0
363,5,-0.004235325381159782,-4.315051046432927e-05,0.0038977470248937607,-0.012430123053491116,0.0015830565243959427,0.0017627557972446084,-0.029110142961144447,0.05034681782126427,0.006275239400565624,0.05714347958564758,-0.9590551257133484,0.014363561756908894,0.0,0.0,0.0,-0.001170250354334712,-0.025608966127038002,-0.0,0.0,0.0,0.0,0.004063054919242859,-0.031056849285960197,0.0013865606160834432,14040.0,16324.0,18085.0,12866.0,0.4417717754840851,0.6071744561195374,0.7525176405906677,0.36696597933769226,0.0,0.0,0.0,0.0,13190.0,17084.0,18180.0,13269.0,1.938698172569275,0.03425407637474693,-0.20787659305013942,0.07480613373387614,0.11962071061134338,-0.004205303732305765,0.0
368,5,-0.004237516317516565,-5.231036993791349e-05,0.003811226924881339,-0.00523495813831687,0.0017324058571830392,0.01108752191066742,-0.027591075748205185,0.05174100399017334,0.006523039657622576,0.0797487422823906,0.6080749034881592,-0.019907834008336067,0.0,0.0,0.0,-0.0018376369262114167,-0.016027899459004402,-0.0,0.0,0.0,0.0,0.004578621592372656,-0.020952552556991577,0.0008754230220802128,13746.0,15714.0,16809.0,13649.0,0.42235544323921204,0.5604385137557983,0.6456477642059326,0.4160510003566742,0.0,0.0,0.0,0.0,13809.0,16506.0,17674.0,13449.0,1.8124778270721436,0.033520067089286294,-0.2034627506365228,0.07438637719451775,0.0699974000453949,-0.006173628848046064,-0.0
373,5,-0.004223045893013477,-4.639307371689938e-05,0.0037115742452442646,-0.0003575272858142853,-1.7113487047026865e-05,0.016393335536122322,-0.027591075748205185,0.05174100399017334,0.006523039657622576,0.0797487422823906,0.6080749034881592,-0.019907834008336067,0.0,0.0,0.0,-0.0018376369262114167,-0.016027899459004402,-0.0,0.0,0.0,0.0,0.004578621592372656,-0.020952552556991577,0.0008754230220802128,13746.0,15714.0,16809.0,13649.0,0.42235544323921204,0.5604385137557983,0.6456477642059326,0.4160510003566742,0.0,0.0,0.0,0.0,13809.0,16506.0,17674.0,13449.0,1.8124778270721436,0.032608801307972286,-0.1983978570907885,0.07518201657920964,0.0699974000453949,-0.006173628848046064,-0.0
378,5,-0.004171700216829777,-5.384106043493375e-05,0.0035281945019960403,0.006018488667905331,0.0008869132143445313,0.02856290340423584,-0.027221858501434326,0.04448136314749718,0.005811668932437897,0.01001290325075388,1.1688838005065918,-0.02932422049343586,0.0,0.0,0.0,-6.088707232265733e-05,-0.006050492636859417,-0.0,0.0,0.0,0.0,0.004737939219921827,-0.01217954233288765,-0.0008608722710050642,13357.0,15277.0,15264.0,14688.0,0.3974219858646393,0.5281063318252563,0.5271615386009216,0.4860083758831024,0.0,0.0,0.0,0.0,13352.0,16041.0,16214.0,14365.0,1.692277431488037,0.030836589068566362,-0.1911902781907101,0.07611864621214377,0.024672409519553185,-0.0001909876154968515,-0.0
383,5,-0.004107722081243992,-3.810460475506261e-05,0.0034006708301603794,0.010084759443998337,-0.0015336094656959176,0.026727991178631783,-0.027221858501434326,0.04448136314749718,0.005811668932437897,0.01001290325075388,1.1688838005065918,-0.02932422049343586,0.0,0.0,0.0,-6.088707232265733e-05,-0.006050492636859417,-0.0,0.0,0.0,0.0,0.004737939219921827,-0.01217954233288765,-0.0008608722710050642,13357.0,15277.0,15264.0,14688.0,0.3974219858646393,0.5281063318252563,0.5271615386009216,0.4860083758831024,0.0,0.0,0.0,0.0,13352.0,16041.0,16214.0,14365.0,1.692277431488037,0.030456567985614455,-0.1835797376248474,0.07632923296022044,0.024672409519553185,-0.0001909876154968515,-0.0
388,5,-0.0040093823336064816,-2.413097899989225e-05,0.00322623155079782,0.015834692865610123,-0.0022902789060026407,0.031623922288417816,-0.027521368116140366,0.027600612491369247,0.0067742676474153996,-0.051546841859817505,1.561168909072876,0.1437407284975052,0.0,0.0,0.0,0.0017909504240378737,0.003755599958822131,-0.0,0.0,0.0,0.0,0.006196390371769667,-0.002451147185638547,0.003984574694186449,15267.0,12179.0,15888.0,13163.0,0.5273816585540771,0.32634007930755615,0.5735504627227783,0.38520562648773193,0.0,0.0,0.0,0.0,14640.0,13994.0,16108.0,13815.0,1.6692522764205933,0.030357109335811993,-0.1748752578914352,0.07507560493502376,-0.015106068924069405,0.00554132554680109,-0.0
393,5,-0.0039304401725530624,-2.8857046345365234e-05,0.003103694412857294,0.015806902199983597,-0.000348983594449237,0.027354026213288307,-0.027521368116140366,0.027600612491369247,0.0067742676474153996,-0.051546841859817505,1.561168909072876,0.1437407284975052,0.0,0.0,0.0,0.0017909504240378737,0.003755599958822131,-0.0,0.0,0.0,0.0,0.006196390371769667,-0.002451147185638547,0.003984574694186449,15267.0,12179.0,15888.0,13163.0,0.5273816585540771,0.32634007930755615,0.5735504627227783,0.38520562648773193,0.0,0.0,0.0,0.0,14640.0,13994.0,16108.0,13815.0,1.6692522764205933,0.029675608733008896,-0.1661790561946192,0.07391732795324873,-0.015106068924069405,0.00554132554680109,-0.0
398,5,-0.0038408851251006126,-1.5497973436140455e-05,0.0029476750642061234,0.017069382593035698,-0.0017426820704713464,0.02966393157839775,-0.02811465598642826,0.014528940431773663,0.0065883975476026535,-0.05214574187994003,1.6746619939804077,-0.039529260247945786,0.0,0.0,0.0,0.00035925846896134317,0.00901977252215147,-0.0,0.0,0.0,0.0,0.0058014835231006145,0.007749796379357576,0.0002503389259800315,14423.0,13222.0,14111.0,15018.0,0.46767622232437134,0.388891339302063,0.44650542736053467,0.5094048380851746,0.0,0.0,0.0,0.0,15197.0,12269.0,15497.0,13624.0,1.7265681028366089,0.02976852934575265,-0.15669318621773176,0.07278491359769745,-0.037525396794080734,0.0011497390223667026,-0.0
403,5,-0.0037744594737887383,-5.724672860196733e-07,0.002806015545502305,0.014798838645219803,-0.0024881334975361824,0.02886471338570118,-0.02811465598642826,0.014528940431773663,0.0065883975476026535,-0.05214574187994003,1.6746619939804077,-0.039529260247945786,0.0,0.0,0.0,0.00035925846896134317,0.00901977252215147,-0.0,0.0,0.0,0.0,0.0058014835231006145,0.007749796379357576,0.0002503389259800315,14423.0,13222.0,14111.0,15018.0,0.46767622232437134,0.388891339302063,0.44650542736053467,0.5094048380851746,0.0,0.0,0.0,0.0,15197.0,12269.0,15497.0,13624.0,1.7265681028366089,0.028012231115367013,-0.1488447927845058,0.07320620048170638,-0.037525396794080734,0.0011497390223667026,-0.0
409,5,-0.003704044036567211,2.5342915250803344e-05,0.0026906721759587526,0.014369377866387367,-0.004105099476873875,0.025387099012732506,-0.02857440523803234,-0.005892230197787285,0.0061467476189136505,-0.05132844299077988,1.6899175643920898,0.070608951151371,0.0,0.0,0.0,0.0029221598524600267,0.008336191065609455,-0.0,0.0,0.0,0.0,0.0069192154332995415,0.01810220442712307,0.0028692949563264847,15423.0,10480.0,13924.0,14313.0,0.5388094782829285,0.23620328307151794,0.4340836703777313,0.46015578508377075,0.0,0.0,0.0,0.0,14207.0,12204.0,12755.0,15280.0,1.722010850906372,0.026348471471062618,-0.14127556736417277,0.07336854735903224,-0.03458984196186066,0.009327114559710026,-0.0
414,5,-0.0036430966574698687,4.6316410589497536e-05,0.0025553773157298565,0.013061422854661942,-0.0041588591411709785,0.026390215381979942,-0.02857440523803234,-0.005892230197787285,0.0061467476189136505,-0.05132844299077988,1.6899175643920898,0.070608951151371,0.0,0.0,0.0,0.0029221598524600267,0.008336191065609455,-0.0,0.0,0.0,0.0,0.0069192154332995415,0.01810220442712307,0.0028692949563264847,15423.0,10480.0,13924.0,14313.0,0.5388094782829285,0.23620328307151794,0.4340836703777313,0.46015578508377075,0.0,0.0,0.0,0.0,14207.0,12204.0,12755.0,15280.0,1.722010850906372,0.025294323148665733,-0.1348140453339821,0.07383705898454745,-0.03458984196186066,0.009327114559710026,-0.0
419,5,-0.0036028835456818342,5.3758285503135994e-05,0.0024395077489316463,0.010050157085061073,-0.0025565687101334333,0.024460429325699806,-0.029057130217552185,-0.01857624761760235,0.006191054824739695,-0.048542045056819916,1.42753267288208,-0.004534007515758276,0.0,0.0,0.0,0.004988733679056168,0.0069689624942839146,-0.0,0.0,0.0,0.0,0.006509128957986832,0.023716971278190613,0.0015469903592020273,15264.0,11361.0,12916.0,15552.0,0.5271314382553101,0.28111734986305237,0.3699880540370941,0.5483313202857971,0.0,0.0,0.0,0.0,15335.0,11134.0,13051.0,15470.0,1.7141319513320923,0.02520127149140668,-0.12852670369876637,0.07386407685788632,-0.02878427878022194,0.015850385650992393,-0.0
424,5,-0.0035853523295372725,8.292440179502591e-05,0.0022528870031237602,0.0017027193680405617,-0.0019487942336127162,0.01865130104124546,-0.029057130217552185,-0.01857624761760235,0.006191054824739695,-0.048542045056819916,1.42753267288208,-0.004534007515758276,0.0,0.0,0.0,0.004988733679056168,0.0069689624942839146,-0.0,0.0,0.0,0.0,0.006509128957986832,0.023716971278190613,0.0015469903592020273,15264.0,11361.0,12916.0,15552.0,0.5271314382553101,0.28111734986305237,0.3699880540370941,0.5483313202857971,0.0,0.0,0.0,0.0,15335.0,11134.0,13051.0,15470.0,1.7141319513320923,0.02391964794700688,-0.12060391193249384,0.07315328459735239,-0.02878427878022194,0.015850385650992393,-0.0
429,5,-0.003635451663285494,7.779114093864337e-05,0.002208723919466138,-0.0053308079950511456,-0.0001635268417885527,0.012760115787386894,-0.02946789190173149,-0.03254055604338646,0.005950270686298609,-0.02714117430150509,0.9585151672363281,0.003861824981868267,0.0,0.0,0.0,0.002511478727683425,-0.0033605259377509356,-0.0,0.0,0.0,0.0,0.006649539805948734,0.022281628102064133,0.0005630676168948412,14983.0,11644.0,12875.0,15591.0,0.5068756341934204,0.2964259684085846,0.3674677908420563,0.5512414574623108,0.0,0.0,0.0,0.0,15157.0,11261.0,13288.0,15247.0,1.667876124382019,0.024373322267711064,-0.11843541229938058,0.07296142151209985,0.013505814597010612,0.007764277048408985,-0.0
434,5,-0.003707028226926923,7.223030115710571e-05,0.00217639678157866,-0.010721536353230476,0.0006018899730406702,0.008983291685581207,-0.02946789190173149,-0.03254055604338646,0.005950270686298609,-0.02714117430150509,0.9585151672363281,0.003861824981868267,0.0,0.0,0.0,0.002511478727683425,-0.0033605259377509356,-0.0,0.0,0.0,0.0,0.006649539805948734,0.022281628102064133,0.0005630676168948412,14983.0,11644.0,12875.0,15591.0,0.5068756341934204,0.2964259684085846,0.3674677908420563,0.5512414574623108,0.0,0.0,0.0,0.0,15157.0,11261.0,13288.0,15247.0,1.667876124382019,0.024732606666291745,-0.11772809071587778,0.07214433341020009,0.013505814597010612,0.007764277048408985,-0.0
439,5,-0.0038099992088973522,6.622356158914044e-05,0.002189451130107045,-0.016645127907395363,0.0009615651215426624,0.0020267849322408438,-0.02946789190173149,-0.03254055604338646,0.005950270686298609,-0.02714117430150509,0.9585151672363281,0.003861824981868267,0.0,0.0,0.0,-0.0005610832595266402,-0.014108791016042233,-0.0,0.0,0.0,0.0,0.006649539805948734,0.022281628102064133,0.0005630676168948412,14983.0,11644.0,12875.0,15591.0,0.5068756341934204,0.2964259684085846,0.3674677908420563,0.5512414574623108,0.0,0.0,0.0,0.0,15157.0,11261.0,13288.0,15247.0,1.7878293991088867,0.025149234205496827,-0.11800825935103511,0.0715927382672169,0.060778964310884476,-0.0018593532731756568,-0.0
444,5,-0.003944160882383585,4.08115447498858e-05,0.0022584227845072746,-0.022757435217499733,0.0034340680576860905,-0.007465887814760208,-0.029284775257110596,-0.038007378578186035,0.005589012987911701,0.03490490838885307,0.42291516065597534,-0.05442538112401962,0.0,0.0,0.0,-0.0005610832595266402,-0.014108791016042233,-0.0,0.0,0.0,0.0,0.006667768117040396,0.01922343671321869,-0.0002114148810505867,14452.0,12238.0,12710.0,15672.0,0.4696316719055176,0.32977962493896484,0.3574962615966797,0.557224452495575,0.0,0.0,0.0,0.0,14387.0,12298.0,12831.0,15588.0,1.7878293991088867,0.025502115102812223,-0.12063920511458896,0.07165837400455029,0.060778964310884476,-0.0018593532731756568,-0.0
449,5,-0.004103914834558964,2.4029757696553133e-05,0.0023430974688380957,-0.028273452073335648,0.00338744162581861,-0.013147293590009212,-0.029284775257110596,-0.038007378578186035,0.005589012987911701,0.03490490838885307,0.42291516065597534,-0.05442538112401962,0.0,0.0,0.0,-0.0035754721611738205,-0.02331152930855751,-0.0,0.0,0.0,0.0,0.006667768117040396,0.01922343671321869,-0.0002114148810505867,14452.0,12238.0,12710.0,15672.0,0.4696316719055176,0.32977962493896484,0.3574962615966797,0.557224452495575,0.0,0.0,0.0,0.0,14387.0,12298.0,12831.0,15588.0,1.9091598987579346,0.025086212669209032,-0.12439240166762768,0.07146256214230476,0.10723161697387695,-0.012652681209146976,0.0
454,5,-0.004285892471671104,5.370668532123091e-06,0.002454862929880619,-0.03314671665430069,0.0035940674133598804,-0.018670782446861267,-0.028725460171699524,-0.03947848826646805,0.004945481661707163,0.06340499222278595,-0.16609613597393036,-0.057881396263837814,0.0,0.0,0.0,-0.0035754721611738205,-0.02331152930855751,-0.0,0.0,0.0,0.0,0.006099643185734749,0.011057021096348763,-0.0003954797575715929,13738.0,12742.0,13073.0,14985.0,0.421836256980896,0.35941481590270996,0.3796289563179016,0.5069960951805115,0.0,0.0,0.0,0.0,13590.0,12908.0,13214.0,14854.0,1.9091598987579346,0.026251290838518848,-0.1288225965766619,0.07196479439808764,0.10723161697387695,-0.012652681209146976,0.0
459,5,-0.004469612147659063,4.466587142815115e-06,0.0025800999719649553,-0.03530505299568176,0.001546116778627038,-0.02249675616621971,-0.028725460171699524,-0.03947848826646805,0.004945481661707163,0.06340499222278595,-0.16609613597393036,-0.057881396263837814,0.0,0.0,0.0,-0.003608055878430605,-0.030568085610866547,-0.0,0.0,0.0,0.0,0.006099643185734749,0.011057021096348763,-0.0003954797575715929,13738.0,12742.0,13073.0,14985.0,0.421836256980896,0.35941481590270996,0.3796289563179016,0.5069960951805115,0.0,0.0,0.0,0.0,13590.0,12908.0,13214.0,14854.0,2.0107781887054443,0.027050528132180434,-0.1344121349951947,0.07174489109493566,0.14808595180511475,-0.013447584584355354,0.0
464,5,-0.0046640620566904545,-7.733686288702302e-06,0.002687254222109914,-0.03745598718523979,0.0020824794191867113,-0.021857209503650665,-0.02837771736085415,-0.03560016676783562,0.0043992893770337105,0.05165347084403038,-0.7528409361839294,-0.10906713455915451,0.0,0.0,0.0,-0.003608055878430605,-0.030568085610866547,-0.0,0.0,0.0,0.0,0.005086636636406183,-0.008610161021351814,-0.0014247853541746736,12892.0,14557.0,13681.0,15225.0,0.36850592494010925,0.47691163420677185,0.4181206524372101,0.5242912173271179,0.0,0.0,0.0,0.0,13022.0,14459.0,14122.0,14800.0,2.0107781887054443,0.027169369490721452,-0.14043408019703768,0.0717823074621935,0.14808595180511475,-0.013447584584355354,0.0
469,5,-0.00486516859382391,3.4975871585629648e-06,0.0028075911104679108,-0.039115164428949356,-0.0005147610208950937,-0.0231833066791296,-0.02837771736085415,-0.03560016676783562,0.0043992893770337105,0.05165347084403038,-0.7528409361839294,-0.10906713455915451,0.0,0.0,0.0,-0.002061831299215555,-0.03360903263092041,-0.0,0.0,0.0,0.0,0.005086636636406183,-0.008610161021351814,-0.0014247853541746736,12892.0,14557.0,13681.0,15225.0,0.36850592494010925,0.47691163420677185,0.4181206524372101,0.5242912173271179,0.0,0.0,0.0,0.0,13022.0,14459.0,14122.0,14800.0,2.0543603897094727,0.026964916351277225,-0.14753827786390286,0.07212369159381044,0.16634197533130646,-0.007851230911910534,0.0
475,5,-0.005068296100944281,-1.0614482562232297e-05,0.0029274378903210163,-0.040021393448114395,0.0014875439228489995,-0.023654937744140625,-0.027864333242177963,-0.024064624682068825,0.0037176846526563168,0.020683424547314644,-1.1311832666397095,-0.09476998448371887,0.0,0.0,0.0,-0.002061831299215555,-0.03360903263092041,-0.0,0.0,0.0,0.0,0.005086636636406183,-0.008610161021351814,-0.0014247853541746736,12950.0,15410.0,14864.0,14898.0,0.3720938563346863,0.5378406643867493,0.4983850121498108,0.5008403658866882,0.0,0.0,0.0,0.0,12752.0,15577.0,14951.0,14806.0,2.0543603897094727,0.027116675241077963,-0.15340542748959066,0.07192230909372839,0.16634197533130646,-0.007851230911910534,0.0
480,5,-0.005267512518912554,-2.379810030106455e-05,0.0030151610262691975,-0.039914511144161224,0.0021770515013486147,-0.019988765940070152,-0.027864333242177963,-0.024064624682068825,0.0037176846526563168,0.020683424547314644,-1.1311832666397095,-0.09476998448371887,0.0,0.0,0.0,-0.0014598927227780223,-0.03551449999213219,-0.0,0.0,0.0,0.0,0.005086636636406183,-0.008610161021351814,-0.0014247853541746736,12950.0,15410.0,14864.0,14898.0,0.3720938563346863,0.5378406643867493,0.4983850121498108,0.5008403658866882,0.0,0.0,0.0,0.0,12752.0,15577.0,14951.0,14806.0,2.082810878753662,0.026939960966300493,-0.16010218753848313,0.07227196099213212,0.1782032698392868,-0.005636104382574558,0.0
485,5,-0.005494127981364727,-2.5275161533500068e-05,0.003133421065285802,-0.043159641325473785,0.0010480681667104363,-0.02218671515583992,-0.027780640870332718,-0.014146491885185242,0.003454706398770213,-0.008121930994093418,-1.3044322729110718,-0.0577625036239624,0.0,0.0,0.0,-0.0014598927227780223,-0.03551449999213219,-0.0,0.0,0.0,0.0,0.005223539657890797,-0.017246874049305916,-0.0012221576180309057,13033.0,16013.0,15984.0,14453.0,0.37713533639907837,0.5830438733100891,0.5808491110801697,0.4697498083114624,0.0,0.0,0.0,0.0,12638.0,16310.0,15851.0,14613.0,2.082810878753662,0.027640055901972178,-0.16576738654352333,0.07224960330765688,0.1782032698392868,-0.005636104382574558,0.0
